     2.10           OBSERVATION DATA    G (GPS)             RINEX VERSION / TYPE
teqc  2006Sep26     WCDA Operator       20070102 00:10:42UTCPGM / RUN BY / DATE
Solaris 5.9|UltraSparc IIi|cc -xarch=v9 SC5.5|=+-|*Sparc    COMMENT
teqc  2006Sep26     WCDA Operator       20070102 00:10:30UTCCOMMENT
teqc  2006Sep26     WCDA Operator       20070101 01:07:45UTCCOMMENT
albh  WCDA-ACP   927000   Victoria BC Canada                MARKER NAME
40129M003                                                   MARKER NUMBER
PGC-WCDA            GEOL. SURV. CANADA                      OBSERVER / AGENCY
1113                AOA BENCHMARK ACT   3.3.32.2N lk 99/07/2REC # / TYPE / VERS
99442               AOAD/M_T        SCIS                    ANT # / TYPE
 -2341332.8840 -3539049.5090  4745791.3600                  APPROX POSITION XYZ
        0.1000        0.0000        0.0000                  ANTENNA: DELTA H/E/N
     1     1                                                WAVELENGTH FACT L1/2
     7    C1    P1    P2    L1    L2    S1    S2            # / TYPES OF OBSERV
STATION INFORMATION EFFECTIVE FROM: 2005/10/12 16:45:00     COMMENT
                                TO: CURRENT DATE (above)    COMMENT
BIT 2 OF LLI FLAGS (+4) DATA COLLECTED UNDER 'AS' CONDITION COMMENT
L1 PHASE CENTRE 0.110m ABOVE ARP                            COMMENT
L2 PHASE CENTRE 0.128m ABOVE ARP                            COMMENT
where ARP is the Antenna Reference Point for HI measurement COMMENT
CONTACT gps@pgc.nrcan.gc.ca FOR ADDITIONAL INFORMATION      COMMENT
    P1 =    P1  TurboRogue; =    Y1  Benchmark              COMMENT
    L1 = L1(CA)                                             COMMENT
    P2 =    P2  TurboRogue; =    Y2  Benchmark              COMMENT
    L2 = L2(P2) TurboRogue; = L2(Y2) Benchmark              COMMENT
 SNR is mapped to RINEX snr flag value [0-9]                COMMENT
  L1 & L2: min(max(int(snr_dBHz/6), 0), 9)                  COMMENT
  2007     1     1     0     0    0.0000000     GPS         TIME OF FIRST OBS
                                                            END OF HEADER
 07  1  1  0  0  0.0000000  0 10G16G21G29G18G26G10G24G 6G15G 7
  22581697.779    22581697.177    22581695.185    -8973928.686 5  -6992666.811 4
        35.200          29.700
  20698127.927    20698127.404    20698124.106   -22432093.211 7 -17479545.229 7
        46.500          44.400
  22708251.212    22708251.090    22708249.232    -8985450.879 4  -7001642.266 4
        29.000          27.400
  22451273.511    22451272.930    22451270.463   -12693765.550 6  -9891237.036 4
        37.700          29.500
  22697532.473    22697532.196    22697531.042    -8878471.901 4  -6918283.801 4
        29.000          25.600
  23445664.779    23445663.158    23445663.052    -5439350.042 3  -4238439.310 3
        23.800          23.000
  24814742.490    24814742.709    24814742.229     1996691.316 2   1555867.444
        13.900           3.000
  20857582.237    20857582.016    20857580.516   -19771364.963 7 -15406250.872 6
        44.800          40.000
  21671184.139    21671183.584    21671182.620   -15294059.277 6 -11917442.534 6
        41.800          36.200
  20418227.176    20418226.502    20418225.415   -22450293.583 7 -17493727.016 7
        46.800          45.900
 07  1  1  0  0 30.0000000  0 10G16G21G29G18G26G10G24G 6G15G 7
  22578267.422    22578266.780    22578264.492    -8991956.318 5  -7006714.301 4
        35.700          29.500
  20690852.679    20690852.133    20690848.942   -22470324.232 7 -17509335.626 7
        46.400          44.500
  22701320.456    22701320.629    22701319.111    -9021869.452 4  -7030020.367 4
        29.500          27.900
  22434105.534    22434104.826    22434102.344   -12783984.120 6  -9961537.202 4
        37.600          29.200
  22683493.443    22683493.221    22683491.972    -8952249.058 4  -6975772.452 4
        29.900          25.900
  23465154.230    23465153.542    23465152.063    -5336932.207 4  -4158633.220 3
        27.400          21.100
  24832265.267    24832265.129    24832265.503     2088774.056 2   1627620.202
        15.100           3.000
  20868360.224    20868359.948    20868358.438   -19714726.615 7 -15362117.087 6
        44.700          40.000
  21657360.762    21657360.042    21657359.005   -15366702.392 6 -11974047.519 6
        41.900          36.100
  20422836.319    20422835.522    20422834.429   -22426072.926 7 -17474853.770 7
        46.700          45.800
 07  1  1  0  1  0.0000000  0 10G16G21G29G18G26G10G24G 6G15G 7
  22574947.767    22574947.426    22574945.339    -9009399.085 5  -7020306.048 4
        35.800          29.200
  20683635.371    20683634.707    20683631.525   -22508251.917 7 -17538889.654 7
        46.300          44.500
  22694495.101    22694494.829    22694493.221    -9057739.589 4  -7057971.115 4
        29.700          27.100
  22416992.746    22416992.489    22416989.992   -12873908.838 6 -10031608.394 4
        37.500          28.600
  22669548.214    22669548.566    22669547.090    -9025529.468 5  -7032874.033 4
        30.200          25.600
  23484684.814    23484684.273    23484682.545    -5234295.124 4  -4078656.253 3
        25.900          18.600
  24849791.216    24849790.611    24849790.403     2180869.515 2   1699382.883 9
        16.100          -3.000
  20879218.609    20879218.425    20879216.919   -19657664.952 7 -15317653.450 6
        44.900          40.000
  21643581.309    21643580.517    21643579.473   -15439114.961 6 -12030472.858 6
        41.900          36.500
  20427535.319    20427534.576    20427533.424   -22401379.165 7 -17455611.873 7
        46.500          45.900
 07  1  1  0  1 30.0000000  0 10G16G21G29G18G26G10G24G 6G15G 7
  22571739.589    22571739.398    22571737.527    -9026256.553 5  -7033441.728 4
        35.800          28.800
  20676475.661    20676475.152    20676472.028   -22545875.559 7 -17568206.767 7
        46.400          44.700
  22687773.915    22687773.705    22687772.496    -9093059.460 4  -7085493.062 4
        28.800          28.600
  22399937.244    22399936.725    22399934.204   -12963538.054 6 -10101449.319 4
        38.100          28.800
  22655699.061    22655698.916    22655697.277    -9098309.429 5  -7089585.636 4
        30.400          25.300
  23504257.822    23504256.890    23504255.935    -5131440.912 4  -3998510.097 3
        27.400          21.100
  24867318.776    24867317.929    24867318.060     2272977.474 3   1771155.345 9
        19.300          -3.000
  20890157.562    20890157.341    20890155.876   -19600180.334 7 -15272860.238 6
        44.400          40.100
  21629845.554    21629844.891    21629843.909   -15511295.793 7 -12086717.628 6
        42.100          36.800
  20432324.362    20432323.628    20432322.542   -22376211.963 7 -17436001.058 7
        46.600          45.700
 07  1  1  0  2  0.0000000  0 10G16G21G29G18G26G10G24G 6G15G 7
  22568644.172    22568643.699    22568641.442    -9042526.849 6  -7046119.867 4
        36.100          28.800
  20669374.246    20669373.729    20669370.642   -22583193.455 7 -17597285.639 7
        46.200          44.600
  22681158.224    22681157.979    22681156.178    -9127826.187 4  -7112584.012 4
        29.700          27.900
  22382938.489    22382937.701    22382935.226   -13052868.440 6 -10171057.399 4
        38.200          29.200
  22641945.775    22641945.777    22641943.563    -9170584.678 5  -7145903.980 4
        30.800          25.900
  23523870.444    23523870.088    23523869.588    -5028371.503 4  -3918196.257 3
        26.800          19.900
  24884849.198    24884848.491    24884847.865     2365098.470 1   1842937.938 9
        11.000          -3.000
  20901177.108    20901176.868    20901175.323   -19542272.705 7 -15227737.409 6
        44.600          39.800
  21616154.442    21616153.769    21616152.704   -15583243.111 7 -12142780.441 6
        42.200          37.100
  20437203.868    20437203.123    20437201.974   -22350570.167 7 -17416020.432 7
        46.400          45.700
 07  1  1  0  2 30.0000000  0 10G16G21G29G18G26G10G24G 6G15G 7
  22565660.182    22565659.520    22565657.191    -9058209.410 6  -7058340.040 4
        36.500          29.500
  20662331.105    20662330.651    20662327.536   -22620205.114 7 -17626125.883 7
        46.100          44.700
  22674647.977    22674647.831    22674646.060    -9162037.778 5  -7139242.379 4
        30.100          28.100
  22365996.299    22365995.806    22365993.450   -13141898.272 6 -10240431.272 5
        38.400          30.100
  22628288.142    22628288.226    22628286.664    -9242351.617 4  -7201826.223 4
        29.900          24.200
  23543524.693    23543524.120    23543522.455    -4925089.030 4  -3837716.418 2
        24.900          17.000
  24902381.072    24902380.459    24902380.007     2457231.917 2   1914730.260 9
        12.600          -3.000
  20912276.953    20912276.689    20912275.165   -19483942.511 7 -15182285.305 6
        44.300          39.800
  21602507.758    21602507.249    21602506.289   -15654955.786 7 -12198660.416 6
        42.500          36.600
  20442173.808    20442173.045    20442171.808   -22324453.534 7 -17395669.803 7
        46.500          45.600
 07  1  1  0  3  0.0000000  0 10G16G21G29G18G26G10G24G 6G15G 7
  22562787.505    22562786.778    22562784.524    -9073305.682 6  -7070103.353 4
        36.800          29.900
  20655346.413    20655345.722    20655342.538   -22656911.494 7 -17654728.248 7
        46.100          44.900
  22668243.231    22668243.077    22668241.306    -9195694.769 4  -7165468.595 4
        29.900          28.400
  22349111.684    22349111.102    22349108.864   -13230627.622 6 -10309571.004 5
        38.400          30.100
  22614728.580    22614728.430    22614726.737    -9313609.086 5  -7257351.498 4
        30.800          24.600
  23563218.945    23563217.981    23563217.085    -4821598.482 4  -3757074.414 3
        26.200          21.100
  24919914.466    24919914.125    24919914.570     2549375.189 3   1986530.219 9
        18.600          -3.000
  20923456.599    20923456.419    20923454.854   -19425192.802 7 -15136506.308 6
        44.200          39.700
  21588905.749    21588905.154    21588904.141   -15726435.119 7 -12254358.572 6
        42.600          36.800
  20447233.621    20447232.807    20447231.618   -22297864.168 7 -17374950.810 7
        46.500          45.500
 07  1  1  0  3 30.0000000  0 10G16G21G29G18G26G10G24G 6G15G 7
  22560027.072    22560026.406    22560023.722    -9087812.003 6  -7081406.969 4
        36.700          28.800
  20648419.906    20648419.258    20648416.210   -22693309.393 7 -17683090.231 7
        46.000          44.900
  22661944.540    22661944.504    22661942.797    -9228792.112 4  -7191258.718 4
        29.700          26.500
  22332285.295    22332284.799    22332282.216   -13319051.552 6 -10378472.738 4
        38.300          29.500
  22601266.621    22601266.708    22601265.200    -9384350.668 5  -7312474.782 4
        31.500          25.300
  23582952.053    23582950.972    23582949.914    -4717898.994 4  -3676269.628 3
        24.200          19.300
  24937452.427    24937451.500    24937451.820     2641531.154 2   2058340.067 9
        12.600          -3.000
  20934716.702    20934716.485    20934714.753   -19366021.196 7 -15090398.566 6
        44.400          39.500
  21575349.074    21575348.436    21575347.294   -15797676.981 7 -12309871.684 6
        42.700          36.900
  20452383.799    20452383.090    20452381.911   -22270798.919 7 -17353861.004 7
        46.400          45.500
 07  1  1  0  4  0.0000000  0  9G16G21G29G18G26G10G 6G15G 7
  22557378.318    22557377.726    22557375.216    -9101729.747 6  -7092251.947 4
        36.400          28.400
  20641551.892    20641551.393    20641548.497   -22729399.567 7 -17711212.434 7
        45.800          45.100
  22655753.176    22655753.023    22655750.893    -9261329.863 5  -7216612.781 4
        30.400          27.400
  22315517.099    22315516.521    22315513.848   -13407169.798 6 -10447136.287 4
        39.400          29.700
  22587903.908    22587903.812    22587902.308    -9454574.717 5  -7367194.777 4
        31.600          26.500
  23602723.862    23602723.106    23602722.215    -4613994.841 4  -3595305.340 3
        25.300          18.600
  20946056.605    20946056.191    20946054.517   -19306430.154 7 -15043963.986 6
        44.300          39.100
  21561837.018    21561836.355    21561835.306   -15868682.145 7 -12365200.353 6
        42.500          36.900
  20457624.409    20457623.652    20457622.502   -22243259.265 7 -17332401.527 7
        46.400          45.400
 07  1  1  0  4 30.0000000  0  9G16G21G29G18G26G10G 6G15G 7
  22554840.959    22554840.300    22554837.543    -9115064.311 6  -7102642.514 4
        36.500          28.600
  20634741.829    20634741.236    20634738.326   -22765187.431 7 -17739099.066 7
        45.700          45.200
  22649667.436    22649667.203    22649665.067    -9293312.405 5  -7241534.213 4
        30.400          27.600
  22298805.924    22298805.559    22298802.769   -13494986.829 6 -10515565.133 5
        39.700          30.100
  22574638.896    22574638.667    22574636.791    -9524284.092 5  -7421513.736 4
        31.600          24.600
  23622533.361    23622532.897    23622532.254    -4509894.660 4  -3514188.316 3
        25.600          19.300
  20957474.512    20957474.304    20957472.971   -19246426.786 7 -14997208.113 6
        44.200          39.300
  21548369.528    21548368.816    21548367.464   -15939455.805 7 -12420348.643 6
        43.000          36.800
  20462953.970    20462953.280    20462952.278   -22215251.388 7 -17310577.205 7
        46.400          45.300
 07  1  1  0  5  0.0000000  0  9G16G21G29G18G26G10G 6G15G 7
  22552417.837    22552417.099    22552414.696    -9127798.409 6  -7112565.176 4
        36.500          28.600
  20627992.472    20627991.945    20627988.925   -22800655.512 7 -17766736.516 7
        45.600          45.200
  22643689.901    22643689.763    22643688.676    -9324720.843 5  -7266008.290 4
        30.100          28.400
  22282155.888    22282155.373    22282152.887   -13582483.583 6 -10583744.399 5
        39.700          30.200
  22561475.013    22561474.795    22561473.050    -9593458.173 5  -7475415.607 3
        31.500          23.400
  23642383.521    23642382.856    23642382.107    -4405583.599 4  -3432906.982 3
        26.500          19.900
  20968974.568    20968974.315    20968972.764   -19185994.439 7 -14950117.971 6
        44.100          39.300
  21534949.299    21534948.533    21534947.160   -16009979.841 7 -12475302.422 6
        43.000          37.000
  20468376.241    20468375.490    20468374.432   -22186757.985 7 -17288374.547 7
        46.300          45.400
 07  1  1  0  5 30.0000000  0  9G16G21G29G18G26G10G 6G15G 7
  22550105.888    22550105.122    22550102.983    -9139947.557 6  -7122032.034 4
        36.500          29.000
  20621301.180    20621300.487    20621297.428   -22835819.262 7 -17794136.822 7
        45.400          45.300
  22637820.394    22637819.910    22637817.887    -9355569.679 5  -7290046.317 4
        30.600          28.400
  22265564.208    22265563.556    22265560.766   -13669674.403 6 -10651685.286 5
        39.900          30.400
  22548410.688    22548410.800    22548409.272    -9662109.857 5  -7528910.413 4
        30.600          24.600
  23662269.427    23662268.744    23662267.622    -4301080.288 4  -3351475.835 2
        24.600          16.100
  20980552.825    20980552.631    20980550.935   -19125150.176 7 -14902706.860 6
        44.200          39.100
  21521573.688    21521572.758    21521571.479   -16080269.539 7 -12530073.598 6
        42.700          36.900
  20473887.575    20473886.815    20473885.789   -22157795.203 7 -17265806.142 7
        46.100          45.200
 07  1  1  0  6  0.0000000  0  9G16G21G29G18G26G10G 6G15G 7
  22547904.753    22547904.179    22547901.923    -9151511.854 5  -7131043.154 4
        35.700          29.000
  20614667.247    20614666.821    20614663.960   -22870678.481 7 -17821299.834 7
        45.500          45.200
  22632056.893    22632056.379    22632054.258    -9385857.651 5  -7313647.315 4
        31.000          27.900
  22249030.436    22249030.063    22249027.566   -13756557.524 6 -10719386.405 5
        40.100          30.200
  22535446.998    22535446.789    22535445.252    -9730236.487 5  -7581996.076 4
        31.600          26.200
  23682192.296    23682191.270    23682190.600    -4196387.717 4  -3269897.202 2
        24.200          17.000
  20992209.537    20992209.111    20992207.304   -19063895.375 7 -14854975.844 6
        44.300          38.900
  21508242.260    21508241.631    21508240.509   -16150324.344 7 -12584661.750 6
        43.100          37.500
  20479488.375    20479487.622    20479486.462   -22128363.486 7 -17242872.332 7
        46.300          45.100
 07  1  1  0  6 30.0000000  0  9G16G21G29G18G26G10G 6G15G 7
  22545817.877    22545817.321    22545814.879    -9162478.908 6  -7139588.898 4
        36.000          29.000
  20608094.054    20608093.645    20608090.780   -22905220.819 7 -17848215.926 7
        45.300          45.400
  22626402.367    22626402.022    22626400.000    -9415571.393 5  -7336800.863 4
        31.000          28.400
  22232558.134    22232557.717    22232555.125   -13843119.893 6 -10786837.585 5
        39.800          30.600
  22522585.830    22522585.557    22522584.252    -9797822.985 5  -7634660.852 4
        31.500          26.500
  23702152.228    23702151.560    23702150.854    -4091496.479 4  -3188163.782 3
        24.200          18.600
  21003945.807    21003945.605    21003943.962   -19002219.060 7 -14806916.376 6
        44.300          38.900
  21494958.209    21494957.757    21494956.596   -16220131.560 7 -12639056.963 6
        43.100          37.600
  20485180.520    20485179.789    20485178.609   -22098451.092 7 -17219563.969 7
        46.100          45.100
 07  1  1  0  7  0.0000000  0  9G16G21G29G18G26G10G 6G15G 7
  22543843.147    22543842.379    22543840.116    -9172857.245 6  -7147675.905 4
        36.500          29.500
  20601579.836    20601579.342    20601576.344   -22939454.315 7 -17874891.361 7
        45.500          45.600
  22620855.787    22620855.516    22620853.135    -9444718.139 5  -7359512.582 4
        31.100          27.400
  22216145.666    22216145.224    22216142.735   -13929367.907 6 -10854043.800 5
        39.800          31.800
  22509826.276    22509826.069    22509824.194    -9864874.778 5  -7686908.979 4
        31.300          25.900
  23722147.809    23722147.016    23722145.913    -3986417.796 3  -3106284.280 2
        23.800          17.000
  21015760.917    21015760.557    21015758.999   -18940130.844 7 -14758535.941 6
        44.000          39.000
  21481720.022    21481719.502    21481718.239   -16289698.951 7 -12693265.305 6
        43.200          37.500
  20490962.310    20490961.689    20490960.546   -22068066.693 7 -17195887.812 7
        46.300          45.100
 07  1  1  0  7 30.0000000  0  9G16G21G29G18G26G10G 6G15G 7
  22541979.446    22541978.760    22541976.409    -9182651.188 6  -7155307.528 4
        36.600          28.600
  20595123.506    20595122.903    20595119.868   -22973383.104 7 -17901329.358 7
        45.200          45.600
  22615416.144    22615416.003    22615414.083    -9473300.703 5  -7381784.687 4
        31.100          27.900
  22199792.275    22199791.938    22199789.471   -14015304.247 6 -10921007.154 5
        39.500          31.300
  22497168.105    22497168.015    22497166.086    -9931393.111 5  -7738741.441 4
        31.800          25.900
  23742178.988    23742178.108    23742176.043    -3881158.517 4  -3024264.061 3
        25.600          19.300
  21027653.445    21027653.060    21027651.358   -18877635.980 7 -14709838.647 6
        44.000          38.600
  21468527.037    21468526.341    21468525.198   -16359030.044 7 -12747289.523 6
        43.200          37.800
  20496833.511    20496832.701    20496831.467   -22037214.827 7 -17171847.397 7
        46.300          45.000
 07  1  1  0  8  0.0000000  0  9G16G21G29G18G26G10G 6G15G 7
  22540229.664    22540229.121    22540226.578    -9191846.237 6  -7162472.490 4
        36.800          28.400
  20588727.997    20588727.295    20588724.227   -23006992.085 7 -17927518.153 7
        45.100          45.500
  22610087.658    22610087.352    22610085.478    -9501303.382 5  -7403604.938 4
        31.100          28.400
  22183501.760    22183501.202    22183498.633   -14100913.254 6 -10987715.448 5
        39.900          30.800
  22484614.712    22484614.666    22484613.225    -9997360.818 5  -7790144.829 4
        31.300          26.800
  23762244.426    23762243.833    23762243.029    -3775707.099 3  -2942094.114 3
        23.800          18.600
  21039625.650    21039625.354    21039623.622   -18814721.247 7 -14660814.177 6
        43.900          38.500
  21455381.359    21455380.715    21455379.721   -16428109.855 7 -12801117.940 6
        43.100          37.800
  20502795.874    20502795.123    20502793.953   -22005881.391 7 -17147431.728 7
        46.300          44.800
 07  1  1  0  8 30.0000000  0  9G16G21G29G18G26G10G 6G15G 7
  22538590.576    22538589.989    22538587.468    -9200459.072 6  -7169183.779 4
        36.600          28.100
  20582389.831    20582389.283    20582386.315   -23040297.973 7 -17953470.778 7
        45.400          45.600
  22604866.195    22604866.109    22604864.339    -9528741.874 5  -7424985.554 4
        30.800          28.600
  22167270.181    22167269.669    22167267.219   -14186210.061 6 -11054180.463 5
        40.200          31.300
  22472164.016    22472163.889    22472162.127   -10062791.749 5  -7841129.931 4
        32.100          27.900
  23782344.093    23782343.511    23782343.265    -3670083.105 3  -2859789.715 2
        23.000          17.000
  21051674.114    21051673.821    21051672.312   -18751404.879 7 -14611476.746 6
        43.800          38.700
  21442280.852    21442280.120    21442278.982   -16496954.576 7 -12854763.167 6
        43.500          37.900
  20508846.759    20508846.012    20508844.868   -21974083.695 7 -17122654.300 7
        46.400          44.800
 07  1  1  0  9  0.0000000  0  9G16G21G29G18G26G10G 6G15G 7
  22537065.631    22537065.006    22537062.653    -9208473.146 6  -7175428.503 4
        36.500          29.200
  20576113.002    20576112.345    20576109.347   -23073283.898 7 -17979174.080 7
        45.400          45.600
  22599756.005    22599755.734    22599753.672    -9555598.299 5  -7445912.634 4
        31.600          28.800
  22151101.442    22151101.090    22151098.791   -14271176.643 6 -11120388.160 5
        40.000          31.500
  22459818.193    22459818.262    22459816.744   -10127666.447 5  -7891681.630 4
        31.500          27.600
  23802479.689    23802479.245    23802478.467    -3564272.727 4  -2777340.074 2
        24.900          17.800
  21063802.097    21063801.937    21063800.527   -18687671.244 7 -14561814.172 6
        43.600          38.900
  21429228.305    21429227.570    21429226.252   -16565546.856 7 -12908211.687 6
        43.600          38.000
  20514989.314    20514988.471    20514987.269   -21941805.334 7 -17097502.329 7
        46.400          44.800
 07  1  1  0  9 30.0000000  0  9G16G21G29G18G26G10G 6G15G 7
  22535652.621    22535651.885    22535649.881    -9215898.688 6  -7181214.623 5
        36.500          30.100
  20569895.017    20569894.417    20569891.312   -23105959.636 7 -18004635.679 7
        45.400          45.800
  22594754.353    22594754.123    22594751.949    -9581881.549 5  -7466393.069 4
        32.000          28.400
  22134994.519    22134993.854    22134991.265   -14355821.616 6 -11186345.246 5
        40.600          32.000
  22447577.784    22447577.539    22447575.971   -10191992.221 5  -7941805.586 4
        32.100          27.600
  23822647.545    23822646.709    23822646.422    -3458288.689 3  -2694755.105 2
        23.000          17.800
  21076007.812    21076007.444    21076005.887   -18623531.613 7 -14511835.237 6
        43.400          38.400
  21416221.637    21416221.034    21416219.590   -16633896.241 7 -12961470.935 6
        43.900          37.800
  20521220.911    20521220.197    20521219.072   -21909056.813 7 -17071983.998 7
        46.400          44.700
 07  1  1  0 10  0.0000000  0  9G16G21G29G18G26G10G 6G15G 7
  22534352.428    22534352.041    22534349.660    -9222730.408 6  -7186538.024 4
        36.900          28.800
  20563737.065    20563736.545    20563733.442   -23138319.384 7 -18029851.056 7
        45.300          45.800
  22589862.817    22589862.732    22589860.689    -9607585.223 5  -7486421.894 4
        31.600          29.000
  22118949.371    22118948.886    22118946.307   -14440138.462 6 -11252046.648 5
        40.600          32.100
  22435442.981    22435442.628    22435441.309   -10255760.950 5  -7991495.485 4
        31.500          27.600
  23842849.141    23842848.327    23842847.313    -3352128.350 3  -2612032.784 2
        23.400          15.100
  21088291.194    21088290.796    21088289.231   -18558982.121 7 -14461536.924 6
        43.300          38.400
  21403262.618    21403261.915    21403260.674   -16701996.821 7 -13014536.307 6
        43.800          38.200
  20527543.218    20527542.510    20527541.235   -21875833.395 7 -17046095.614 7
        46.500          44.500
 07  1  1  0 10 30.0000000  0  9G16G21G29G18G26G10G 6G15G 7
  22533164.100    22533163.645    22533161.250    -9228975.275 6  -7191404.144 4
        37.100          29.500
  20557638.161    20557637.597    20557634.452   -23170369.719 7 -18054825.329 7
        45.300          45.800
  22585081.179    22585080.821    22585078.802    -9632714.910 5  -7506003.454 4
        31.500          29.200
  22102965.905    22102965.432    22102962.820   -14524131.956 6 -11317496.086 5
        40.800          32.400
  22423413.292    22423413.420    22423411.774   -10318976.516 5  -8040754.342 4
        32.600          27.900
  23863083.086    23863082.386    23863081.119    -3245801.085 3  -2529180.358 2
        23.400          17.800
  21100650.959    21100650.645    21100649.071   -18494030.610 7 -14410925.364 6
        43.300          38.400
  21390349.596    21390348.936    21390347.560   -16769854.616 7 -13067412.493 6
        43.800          38.100
  20533954.651    20533953.865    20533952.458   -21842142.210 7 -17019842.740 7
        46.400          44.600
 07  1  1  0 11  0.0000000  0  9G16G21G29G18G26G10G 6G15G 7
  22532089.066    22532088.506    22532085.983    -9234625.561 6  -7195806.962 4
        37.300          29.500
  20551599.599    20551599.024    20551595.900   -23202102.429 7 -18079552.106 7
        45.500          45.900
  22580409.762    22580409.718    22580407.869    -9657261.539 5  -7525130.682 4
        31.300          29.000
  22087045.366    22087044.992    22087042.602   -14607793.310 6 -11382686.707 5
        40.900          32.700
  22411490.952    22411490.877    22411489.566   -10381628.009 5  -8089573.665 4
        31.800          28.400
  23883349.886    23883348.796    23883347.514    -3139301.646 3  -2446193.791 3
        23.400          18.600
  21113088.445    21113088.243    21113086.705   -18428670.495 7 -14359995.399 6
        43.400          38.300
  21377484.551    21377483.898    21377482.619   -16837461.006 7 -13120092.779 6
        44.000          38.400
  20540456.195    20540455.487    20540454.161   -21807975.681 7 -16993219.468 7
        46.400          44.700
 07  1  1  0 11 30.0000000  0  9G16G21G29G18G26G10G 6G15G 7
  22531126.709    22531126.081    22531124.078    -9239682.717 6  -7199747.595 5
        37.100          30.100
  20545621.227    20545620.681    20545617.658   -23233518.425 7 -18104032.090 7
        45.500          45.900
  22575849.736    22575849.461    22575847.635    -9681225.376 5  -7543803.785 4
        31.500          29.700
  22071188.487    22071188.051    22071185.608   -14691121.898 6 -11447618.039 5
        41.200          32.400
  22399676.512    22399676.266    22399674.415   -10443714.459 5  -8137952.689 4
        31.600          27.600
  23903647.113    23903646.343    23903645.414    -3032634.297 3  -2363076.406 2
        22.100          16.100
  21125603.303    21125602.993    21125601.569   -18362904.355 7 -14308749.058 6
        43.100          38.100
  21364667.016    21364666.386    21364665.193   -16904816.794 7 -13172577.787 6
        44.100          38.400
  20547048.005    20547047.305    20547046.013   -21773335.520 7 -16966227.135 7
        46.400          44.600
 07  1  1  0 12  0.0000000  0  9G16G21G29G18G26G10G 6G15G 7
  22530275.812    22530275.063    22530272.345    -9244156.247 6  -7203233.463 4
        37.200          29.200
  20539701.432    20539700.957    20539697.908   -23264627.069 7 -18128272.583 7
        45.400          46.100
  22571398.501    22571398.198    22571396.593    -9704614.901 4  -7562029.379 4
        29.900          29.500
  22055393.246    22055392.777    22055390.579   -14774125.562 6 -11512296.178 5
        41.000          32.700
  22387967.629    22387967.898    22387965.865   -10505242.324 5  -8185896.468 4
        32.100          26.800
  23923975.780    23923974.447    23923973.068    -2925811.092 3  -2279837.538 2
        23.400          15.100
  21138193.461    21138193.200    21138191.671   -18296743.008 7 -14257194.759 6
        43.000          38.100
  21351895.910    21351895.206    21351893.840   -16971930.832 7 -13224874.415 6
        44.100          38.800
  20553728.110    20553727.311    20553726.024   -21738231.776 7 -16938873.568 7
        46.500          44.500
 07  1  1  0 12 30.0000000  0  9G16G21G29G18G26G10G 6G15G 7
  22529537.480    22529536.833    22529534.434    -9248033.588 6  -7206254.765 4
        37.200          29.200
  20533842.801    20533842.255    20533839.101   -23295415.131 7 -18152263.274 7
        45.400          46.100
  22567059.294    22567059.292    22567057.368    -9727416.147 5  -7579796.566 4
        30.400          28.400
  22039662.932    22039662.453    22039659.836   -14856790.322 6 -11576710.243 5
        41.400          32.600
  22376368.588    22376368.770    22376367.031   -10566196.098 5  -8233392.891 4
        32.400          27.400
  23944334.377    23944333.401    23944332.343    -2818821.725 3  -2196469.213 2
        19.900          12.600
  21150861.006    21150860.768    21150859.123   -18230174.681 7 -14205323.342 6
        43.100          38.100
  21339173.034    21339172.333    21339171.037   -17038789.515 7 -13276972.064 6
        44.100          38.900
  20560498.627    20560497.893    20560496.563   -21702652.152 7 -16911149.184 7
        46.500          44.400
 07  1  1  0 13  0.0000000  0  9G16G21G29G18G26G10G 6G15G 7
  22528913.439    22528912.773    22528910.244    -9251314.373 6  -7208811.208 4
        36.800          29.700
  20528045.137    20528044.577    20528041.542   -23325881.717 7 -18176003.462 7
        45.500          46.100
  22562833.393    22562832.879    22562830.998    -9749627.415 5  -7597104.046 4
        30.200          29.500
  22023997.467    22023996.866    22023993.894   -14939114.331 6 -11640858.778 5
        41.300          32.300
  22364879.679    22364879.424    22364878.111   -10626572.273 5  -8280439.238 4
        31.600          27.600
  23964724.665    23964723.874    23964722.898    -2711668.431 3  -2112973.112 2
        22.100          12.600
  21163605.794    21163605.563    21163603.951   -18163200.240 7 -14153135.465 6
        43.000          37.900
  21326498.921    21326498.249    21326497.057   -17105391.589 7 -13328869.764 6
        44.000          38.500
  20567359.835    20567359.060    20567357.793   -21666596.345 7 -16883053.747 7
        46.600          44.500
 07  1  1  0 13 30.0000000  0  9G16G21G29G18G26G10G 6G15G 7
  22528400.422    22528399.885    22528397.547    -9254008.723 6  -7210910.688 4
        36.400          29.000
  20522307.037    20522306.433    20522303.261   -23356036.304 7 -18199500.532 7
        45.400          46.200
  22558716.545    22558716.578    22558714.969    -9771257.632 5  -7613958.744 4
        30.800          29.200
  22008394.898    22008394.399    22008391.400   -15021105.647 6 -11704748.078 5
        41.500          32.000
  22353498.845    22353498.755    22353497.377   -10686378.151 5  -8327041.195 4
        32.100          27.100
  23985143.581    23985143.691    23985142.886    -2604363.354 3  -2029358.773 2
        21.600          12.600
  21176425.842    21176425.528    21176423.981   -18095830.752 7 -14100639.765 6
        42.900          37.800
  21313872.083    21313871.350    21313870.300   -17171746.257 7 -13380574.674 6
        44.000          38.900
  20574309.618    20574308.785    20574307.682   -21630074.721 7 -16854595.333 7
        46.400          44.400
 07  1  1  0 14  0.0000000  0 10G16G21G29G22G18G26G10G 6G15G 7
  22527998.080    22527997.680    22527995.921    -9256120.588 6  -7212556.287 4
        36.400          29.700
  20516627.380    20516626.809    20516623.650   -23385882.707 7 -18222757.464 7
        45.400          46.200
  22554710.946    22554710.567    22554708.748    -9792309.732 5  -7630362.956 4
        31.300          29.700
  24573252.131    24573251.717    24573248.052     -191129.052 3   -148931.786 1
        21.600           9.000
  21992855.123    21992854.700    21992851.733   -15102766.686 6 -11768380.018 5
        41.800          32.400
  22342226.836    22342226.836    22342224.768   -10745615.039 5  -8373199.794 4
        32.800          27.600
  24005591.117    24005590.469    24005589.713    -2496913.382 2  -1945631.538 2
        16.100          15.100
  21189320.080    21189319.739    21189318.071   -18028071.433 7 -14047840.298 6
        42.900          37.800
  21301291.621    21301290.866    21301289.884   -17237856.760 7 -13432089.318 6
        44.100          39.100
  20581347.133    20581346.429    20581345.260   -21593091.602 7 -16825777.313 7
        46.400          44.100
 07  1  1  0 14 30.0000000  0 10G16G21G29G22G18G26G10G 6G15G 7
  22527710.580    22527710.095    22527707.865    -9257632.815 6  -7213734.642 4
        36.800          28.800
  20511009.861    20511009.316    20511006.124   -23415402.860 7 -18245760.173 7
        45.300          46.300
  22550818.363    22550817.984    22550816.385    -9812765.028 5  -7646302.137 4
        31.000          29.900
  24552294.450    24552293.858    24552291.131     -301258.872 3   -234747.156 1
        19.300          11.000
  21977381.930    21977381.389    21977378.534   -15184078.519 6 -11831739.851 5
        41.400          32.800
  22331066.644    22331066.355    22331064.306   -10804262.462 5  -8418899.070 4
        33.000          27.100
  24026069.566    24026068.514    24026067.231    -2389303.402 3  -1861779.613 2
        20.500          12.600
  21202291.449    21202291.303    21202289.610   -17959905.771 7 -13994724.201 6
        42.800          37.600
  21288761.196    21288760.448    21288759.398   -17303704.697 7 -13483399.373 6
        44.000          39.000
  20588476.051    20588475.252    20588473.960   -21555629.923 7 -16796586.397 7
        46.300          44.400
 07  1  1  0 15  0.0000000  0 10G16G21G29G22G18G26G10G 6G15G 7
  22527534.158    22527533.561    22527530.751    -9258561.286 6  -7214458.132 4
        36.500          28.800
  20505451.619    20505451.056    20505447.826   -23444612.111 7 -18268520.622 7
        45.400          46.500
  22547036.168    22547036.019    22547034.471    -9832638.533 5  -7661787.969 5
        30.600          30.200
  24531353.593    24531353.724    24531351.840     -411298.652 3   -320492.360 9
        19.300          -3.000
  21961972.700    21961972.001    21961969.232   -15265055.776 6 -11894838.974 5
        41.800          33.000
  22320015.604    22320015.652    22320013.998   -10862333.736 5  -8464149.395 4
        32.400          28.100
  24046573.697    24046572.887    24046571.634    -2281552.170 3  -1777817.597 1
        20.500           6.500
  21215337.139    21215336.826    21215335.112   -17891351.206 7 -13941305.063 6
        42.800          37.500
  21276277.653    21276276.997    21276275.868   -17369305.364 7 -13534516.749 6
        44.000          39.000
  20595692.417    20595691.739    20595690.620   -21517706.226 7 -16767035.461 7
        46.200          44.300
 07  1  1  0 15 30.0000000  0 10G16G21G29G22G18G26G10G 6G15G 7
  22527471.356    22527470.869    22527468.223    -9258890.087 6  -7214714.335 4
        36.500          27.400
  20499955.787    20499955.213    20499951.940   -23473493.270 7 -18291025.412 7
        45.500          46.500
  22543368.688    22543368.366    22543366.729    -9851912.594 5  -7676806.701 4
        31.000          29.700
  24510436.077    24510435.237                     -521229.715 3
        21.100
  21946630.030    21946629.515    21946627.021   -15345680.145 6 -11957663.127 5
        41.500          33.200
  22309077.738    22309077.964    22309076.821   -10919809.431 5  -8508935.620 4
        32.000          28.100
  24067107.528    24067106.723    24067105.827    -2173645.092 3  -1693734.154 2
        21.100          16.100
  21228459.441    21228459.167    21228457.505   -17822392.292 7 -13887570.851 6
        42.700          37.200
  21263844.746    21263843.957    21263842.778   -17434641.408 7 -13585427.924 6
        44.100          38.800
  20603000.079    20602999.401    20602998.263   -21479304.274 7 -16737111.859 7
        46.200          44.200
 07  1  1  0 16  0.0000000  0 10G16G21G29G22G18G26G10G 6G15G 7
  22527521.019    22527520.233    22527518.250    -9258629.679 6  -7214511.413 4
        36.300          28.800
  20494520.078    20494519.624    20494516.503   -23502056.621 7 -18313282.567 7
        45.500          46.600
  22539813.047    22539812.860    22539811.242    -9870596.614 5  -7691365.660 4
        31.000          29.500
  24489535.820    24489535.455    24489533.403     -631060.696 3   -491735.513 1
        23.400           9.000
  21931353.007    21931352.616    21931350.075   -15425960.473 6 -12020219.189 5
        41.900          33.500
  22298253.514    22298253.161    22298251.055   -10976697.326 5  -8553263.826 4
        33.000          27.600
  24087668.505    24087667.518    24087666.765    -2065595.410 3  -1609539.606 2
        19.900          13.900
  21241656.678    21241656.421    21241654.688   -17753040.566 7 -13833530.544 6
        42.900          37.100
  21251460.159    21251459.435    21251458.295   -17499722.403 7 -13636140.361 6
        44.400          39.100
  20610396.724    20610396.089    20610394.929   -21440434.872 7 -16706824.016 7
        46.300          44.200
 07  1  1  0 16 30.0000000  0 10G16G21G29G22G18G26G10G 6G15G 7
  22527682.768    22527682.217    22527680.070    -9257779.008 5  -7213848.555 4
        35.500          29.200
  20489145.764    20489145.060    20489141.860   -23530300.454 7 -18335290.743 7
        45.300          46.500
  22536370.345    22536370.277    22536368.720    -9888688.346 5  -7705463.088 4
        30.200          29.900
  24468655.327    24468654.746    24468651.188     -740788.647 2   -577237.800 1
        17.000           9.000
  21916142.446    21916141.919    21916139.268   -15505894.120 6 -12082505.117 5
        41.900          33.800
  22287540.532    22287540.283    22287538.410   -11032993.436 5  -8597130.912 4
        33.100          28.100
  24108257.078    24108255.933    24108255.321    -1957404.212 3  -1525234.772 2
        20.500          15.100
  21254928.419    21254928.263    21254926.462   -17683296.224 7 -13779184.306 6
        42.700          37.100
  21239124.814    21239124.031    21239122.633   -17564546.273 7 -13686652.446 6
        44.500          39.300
  20617882.616    20617881.818    20617880.660   -21401097.275 7 -16676171.340 7
        46.100          44.100
 07  1  1  0 17  0.0000000  0 10G16G21G29G22G18G26G10G 6G15G 7
  22527958.368    22527957.597    22527955.139    -9256332.172 6  -7212721.144 4
        36.100          28.100
  20483832.878    20483832.501    20483829.334   -23558218.058 7 -18357044.714 7
        45.200          46.600
  22533041.689    22533041.558    22533039.973    -9906180.759 5  -7719093.514 5
        30.800          30.100
  24447795.315    24447794.691    24447791.624     -850405.650 3   -662653.569 3
        19.900          18.600
  21900999.062    21900998.552    21900995.870   -15585473.349 7 -12144514.882 5
        42.500          34.100
  22276941.257    22276941.335    22276939.681   -11088689.135 5  -8640530.130 4
        33.200          28.600
  24128872.670    24128871.719    24128870.916    -1849067.960 3  -1440816.905 2
        21.100          15.100
  21268276.247    21268275.902    21268274.335   -17613154.269 7 -13724528.240 6
        42.500          37.000
  21226839.240    21226838.622    21226837.277   -17629106.234 7 -13736958.893 6
        44.800          39.300
  20625458.256    20625457.551    20625456.524   -21361285.869 7 -16645149.467 7
        46.100          44.000
 07  1  1  0 17 30.0000000  0 10G16G21G29G22G18G26G10G 6G15G 7
  22528344.472    22528343.803    22528341.242    -9254302.787 6  -7211139.805 4
        36.500          28.600
  20478580.246    20478579.714    20478576.385   -23585822.411 7 -18378554.595 7
        45.400          46.800
  22529825.145    22529824.780    22529822.764    -9923086.054 5  -7732266.442 4
        31.600          29.500
  24426954.704    24426954.498    24426950.863     -959922.947 3   -747991.647 3
        22.600          19.300
  21885920.806    21885920.353    21885917.596   -15664709.820 7 -12206257.557 5
        42.800          34.000
  22266455.420    22266455.375    22266453.586   -11143794.805 5  -8683469.589 4
        33.200          29.000
  24149512.983    24149511.684    24149511.189    -1740602.192 3  -1356298.133 2
        19.900          12.600
  21281696.567    21281696.423    21281694.914   -17542629.092 7 -13669573.560 6
        42.400          37.300
  21214601.727    21214601.052    21214599.935   -17693414.522 7 -13787069.228 6
        44.900          39.700
  20633121.891    20633121.074    20633119.928   -21321014.224 7 -16613768.963 7
        45.900          44.000
 07  1  1  0 18  0.0000000  0 10G16G21G29G22G18G26G10G 6G15G 7
  22528842.691    22528842.126    22528840.135    -9251682.319 5  -7209097.872 4
        35.900          28.400
  20473388.509    20473388.034    20473384.750   -23613104.367 7 -18399813.259 7
        45.300          46.600
  22526721.881    22526721.521    22526719.564    -9939394.577 5  -7744974.354 4
        31.800          29.700
  24406135.694    24406135.446    24406131.483    -1069330.038 3   -833243.851 2
        22.100          17.000
  21870909.631    21870909.162    21870906.545   -15743593.396 7 -12267725.259 5
        42.600          34.100
  22256083.508    22256083.566    22256081.817   -11198299.055 5  -8725940.410 4
        33.000          28.100
  24170179.434    24170178.601    24170177.044    -1632000.223 3  -1271673.220 1
        19.900          11.000
  21295191.338    21295191.218    21295189.548   -17471713.260 7 -13614314.474 6
        42.300          36.800
  21202413.897    21202413.253    21202412.064   -17757461.641 7 -13836976.056 6
        44.900          39.500
  20640874.260    20640873.574    20640872.476   -21280274.151 7 -16582023.451 7
        45.900          44.000
 07  1  1  0 18 30.0000000  0 10G16G21G29G22G18G26G10G 6G15G 7
  22529453.229    22529452.738    22529450.228    -9248475.443 6  -7206599.010 4
        36.600          28.600
  20468257.646    20468257.036    20468253.814   -23640067.619 7 -18420823.578 7
        45.100          46.700
  22523731.419    22523731.010    22523728.684    -9955109.852 5  -7757219.996 4
        32.100          29.900
  24385335.880    24385335.601    24385332.498    -1178629.155 3   -918411.936 2
        22.600          17.000
  21855965.110    21855964.663    21855962.119   -15822126.756 7 -12328920.057 5
        42.500          34.500
  22245826.183    22245825.973    22245824.259   -11252203.481 5  -8767943.833 4
        33.500          29.700
  24190870.195    24190869.301    24190867.955    -1523269.001 3  -1186947.560 9
        20.500          -3.000
  21308759.507    21308759.341    21308757.749   -17400412.330 7 -13558755.310 6
        42.200          36.800
  21190275.225    21190274.671    21190273.285   -17821250.931 7 -13886681.979 6
        45.200          39.700
  20648715.103    20648714.380    20648713.301   -21239070.324 7 -16549916.575 7
        46.200          43.900
 07  1  1  0 19  0.0000000  0 10G16G21G29G22G18G26G10G 6G15G 7
  22530175.833    22530175.512    22530173.031    -9244676.940 6  -7203639.130 4
        36.300          28.600
  20463188.442    20463187.935    20463184.744   -23666705.817 7 -18441580.606 7
        45.100          46.800
  22520854.426    22520854.065    22520852.196    -9970225.238 5  -7768998.200 4
        31.500          29.700
  24364558.538    24364558.036    24364555.508    -1287812.926 3  -1003490.097 2
        19.900          13.900
  21841088.621    21841088.200    21841085.668   -15900302.896 7 -12389836.513 5
        42.700          34.600
  22235683.936    22235683.822    22235682.158   -11305499.899 5  -8809473.491 4
        33.600          29.700
  24211586.197    24211584.653    24211584.240    -1414405.398 2  -1102118.785 9
        17.000          -3.000
  21322401.640    21322401.387    21322399.924   -17328721.880 6 -13502892.631 6
        41.700          36.800
  21178186.842    21178186.192    21178184.851   -17884776.172 7 -13936182.151 6
        45.100          40.000
  20656645.232    20656644.474    20656643.320   -21197397.665 7 -16517444.369 7
        46.000          43.800
 07  1  1  0 19 30.0000000  0 10G16G21G29G22G18G26G10G 6G15G 7
  22531010.745    22531010.324    22531008.019    -9240288.934 5  -7200219.910 4
        35.800          28.400
  20458181.260    20458180.565    20458177.126   -23693020.668 7 -18462085.677 7
        45.100          46.800
  22518092.256    22518091.857    22518089.876    -9984741.748 5  -7780309.766 4
        31.500          29.500
  24343803.542    24343803.159    24343800.851    -1396881.482 3  -1088478.518
        18.600           3.000
  21826280.364    21826279.775    21826277.191   -15978122.101 7 -12450474.830 5
        42.500          35.100
  22225657.531    22225657.735    22225656.401   -11358187.661 5  -8850528.868 5
        33.600          30.100
  24232326.315    24232325.677    24232324.816    -1305413.636 3  -1017190.119 2
        19.300          12.600
  21336117.394    21336117.257    21336115.494   -17256645.084 6 -13446728.894 6
        41.600          36.000
  21166148.221    21166147.659    21166146.468   -17948038.319 7 -13985477.306 6
        45.100          40.100
  20664663.890    20664663.250    20664662.076   -21155258.550 7 -16484608.695 7
        46.000          43.600
 07  1  1  0 20  0.0000000  0 10G16G21G29G22G18G26G10G 6G15G 7
  22531957.424    22531956.965    22531954.318    -9235314.939 6  -7196344.060 4
        36.300          27.600
  20453234.496    20453233.872    20453230.699   -23719014.534 7 -18482340.630 7
        44.900          46.800
  22515443.447    22515443.139    22515441.125    -9998661.353 5  -7791156.192 5
        32.000          30.200
  24323070.205    24323069.868    24323067.325    -1505835.913 3  -1173378.001 1
        19.900          11.000
  21811539.656    21811539.061    21811536.224   -16055585.618 7 -12510835.996 5
        43.100          34.400
  22215747.427    22215747.273    22215745.757   -11410266.875 5  -8891110.042 5
        33.000          30.600
  24253090.029    24253089.365    24253088.575    -1196299.071 3   -932165.781
        18.600           3.000
  21349905.895    21349905.665    21349904.101   -17184186.040 6 -13390267.310 6
        41.300          36.400
  21154159.466    21154158.905    21154157.782   -18011039.303 7 -14034568.964 6
        45.300          40.100
  20672770.987    20672770.268    20672769.079   -21112656.390 7 -16451412.205 7
        46.200          43.600
 07  1  1  0 20 30.0000000  0 10G16G21G29G22G18G26G10G 6G15G 7
  22533016.072    22533015.297    22533012.880    -9229753.587 5  -7192010.552 4
        35.800          28.100
  20448349.352    20448348.774    20448345.654   -23744685.590 7 -18502344.041 7
        44.800          46.900
  22512908.363    22512908.158    22512906.155   -10011981.836 5  -7801535.774 4
        31.800          29.000
  24302357.510    24302357.965    24302355.983    -1614673.009 3  -1258186.049 2
        19.300          15.100
  21796866.748    21796866.238    21796863.532   -16132690.907 7 -12570918.021 5
        42.500          34.800
  22205953.616    22205953.521    22205951.631   -11461733.736 5  -8931214.070 4
        33.200          29.500
  24273876.872    24273876.131    24273875.126    -1087062.454 3   -847046.355 9
        19.300          -3.000
  21363767.401    21363767.071    21363765.546   -17111344.527 6 -13333507.697 6
        41.600          36.600
  21142221.001    21142220.344    21142219.080   -18073776.889 7 -14083455.379 6
        45.200          40.100
  20680966.277    20680965.458    20680964.261   -21069590.228 7 -16417854.158 7
        46.000          43.600
 07  1  1  0 21  0.0000000  0 10G16G21G29G22G18G26G10G 6G15G 7
  22534185.144    22534184.685    22534182.335    -9223607.757 5  -7187221.601 4
        35.700          27.900
  20443525.425    20443524.831    20443521.666   -23770035.606 7 -18522097.291 7
        44.700          46.900
  22510487.405    22510487.162    22510485.141   -10024704.800 5  -7811449.756 4
        32.000          29.500
  24281669.661    24281669.625    24281666.899    -1723393.217 3  -1342903.045 2
        21.100          12.600
  21782262.268    21782261.618    21782258.728   -16209438.848 7 -12630721.596 5
        42.700          34.700
  22196275.825    22196275.962    22196274.420   -11512587.943 5  -8970840.698 4
        33.600          29.700
  24294686.421    24294685.991    24294685.123     -977708.591 3   -761835.526 2
        18.600          12.600
  21377700.761    21377700.434    21377698.955   -17038124.315 6 -13276452.988 6
        41.700          36.500
  21130332.313    21130331.669    21130330.415   -18136252.540 7 -14132137.679 6
        45.000          40.300
  20689249.174    20689248.435    20689247.210   -21026063.063 7 -16383936.885 7
        46.000          43.400
 07  1  1  0 21 30.0000000  0 10G16G21G29G22G18G26G10G 6G15G 7
  22535467.325    22535466.663    22535464.241    -9216870.869 5  -7181972.079 4
        35.400          28.600
  20438764.013    20438763.494    20438760.318   -23795056.569 7 -18541594.138 7
        44.700          47.000
  22508181.586    22508181.209    22508179.449   -10036822.155 5  -7820891.837 5
        31.600          30.100
  24261005.783    24261005.576    24261002.073    -1831986.846 3  -1427521.384 2
        23.000          17.000
  21767727.182    21767726.672    21767723.791   -16285820.332 7 -12690239.621 5
        42.900          35.200
  22186717.474    22186717.567    22186715.713   -11562819.698 5  -9009982.315 4
        34.500          29.900
  24315518.712    24315518.101    24315517.113     -868232.351 3   -676529.365 2
        19.300          12.600
  21391707.213    21391706.980    21391705.577   -16964519.319 6 -13219098.456 6
        41.900          36.600
  21118494.999    21118494.392    21118493.214   -18198458.160 7 -14180609.568 6
        45.300          40.700
  20697621.150    20697620.454    20697619.174   -20982068.004 7 -16349655.020 7
        46.300          43.400
 07  1  1  0 22  0.0000000  0 10G16G21G29G22G18G26G10G 6G15G 7
  22536860.378    22536859.614    22536857.194    -9209552.293 5  -7176269.293 4
        35.900          29.200
  20434063.593    20434063.050    20434060.003   -23819756.967 7 -18560841.190 7
        44.600          46.900
  22505989.122    22505988.760    22505987.120   -10048342.321 5  -7829868.572 4
        31.500          29.700
  24240363.278    24240362.966    24240360.273    -1940461.614 3  -1512047.090 3
        19.300          21.100
  21753260.799    21753260.113    21753257.259   -16361842.640 7 -12749477.762 5
        42.900          35.200
  22177276.170    22177275.796    22177274.380   -11612435.647 5  -9048644.075 5
        33.500          30.600
  24336373.015    24336371.710    24336371.319     -758645.239 3   -591136.802 2
        18.600          12.600
  21405784.892    21405784.843    21405783.326   -16890539.984 6 -13161452.221 6
        41.800          36.500
  21106707.391    21106706.741    21106705.693   -18260402.006 7 -14228877.475 6
        45.200          40.600
  20706080.282    20706079.471    20706078.293   -20937614.927 7 -16315016.255 7
        46.200          43.400
 07  1  1  0 22 30.0000000  0 10G16G21G29G22G18G26G10G 6G15G 7
  22538365.403    22538364.707    22538362.077    -9201642.719 6  -7170106.002 4
        36.400          28.100
  20429426.290    20429425.633    20429422.521   -23844127.255 7 -18579831.015 7
        44.500          46.900
  22503912.725    22503912.440    22503910.513   -10059254.913 5  -7838371.878 4
        31.300          29.500
  24219745.558    24219745.538    24219742.614    -2048806.373 3  -1596471.511 2
        22.100          17.800
  21738864.388    21738863.901    21738860.998   -16437495.433 7 -12808427.977 5
        43.200          35.200
  22167953.541    22167953.404    22167952.062   -11661423.742 5  -9086816.597 5
        33.400          30.600
  24357248.939    24357247.942    24357247.508     -648940.239 2   -505652.395 9
        16.100          -3.000
  21419935.782    21419935.629    21419933.977   -16816177.995 7 -13103507.817 6
        42.100          36.500
  21094971.758    21094971.075    21094969.707   -18322073.625 7 -14276933.260 6
        45.000          40.300
  20714628.257    20714627.512    20714626.298   -20892694.679 7 -16280013.463 7
        46.200          43.300
 07  1  1  0 23  0.0000000  0 10G16G21G29G22G18G26G10G 6G15G 7
  22539982.973    22539982.179    22539980.607    -9193141.769 6  -7163481.895 4
        36.000          29.900
  20424851.925    20424851.345    20424848.144   -23868165.553 7 -18598562.146 7
        44.700          47.000
  22501952.055    22501951.701    22501949.830   -10069557.898 5  -7846400.171 4
        32.100          29.500
  24199153.644    24199153.557    24199150.401    -2157017.579 3  -1680791.861 2
        23.400          15.100
  21724538.996    21724538.460    21724535.717   -16512775.585 7 -12867087.815 5
        43.100          35.500
  22158751.422    22158751.307    22158749.683   -11709780.346 5  -9124497.049 5
        32.800          30.100
  24378147.526    24378146.736    24378145.758     -539118.182 2   -420076.775 1
        15.100          11.000
  21434159.325    21434158.934    21434157.376   -16741433.572 6 -13045265.418 6
        41.400          36.200
  21083288.093    21083287.482    21083286.219   -18383470.862 7 -14324775.241 6
        45.200          40.200
  20723265.439    20723264.700    20723263.448   -20847306.618 7 -16244646.139 7
        46.200          43.200
 07  1  1  0 23 30.0000000  0 10G16G21G29G22G18G26G10G 6G15G 7
  22541711.249    22541710.557    22541708.271    -9184060.963 6  -7156405.966 4
        36.500          29.500
  20420338.610    20420338.007    20420334.952   -23891882.467 7 -18617042.848 7
        44.500          47.000
  22500105.523    22500105.175    22500103.245   -10079261.796 5  -7853961.634 4
        32.300          29.500
  24178586.248    24178586.146    24178582.076    -2265104.761 4  -1765015.621 1
        24.900          11.000
  21710282.558    21710282.118    21710279.383   -16587692.921 7 -12925464.935 5
        43.100          35.500
  22149668.602    22149668.331    22149666.357   -11757513.868 5  -9161691.982 5
        33.200          30.200
  24399065.057    24399064.454    24399064.098     -429192.235 3   -334420.184 1
        19.300           6.500
  21448452.914    21448452.685    21448451.185   -16666318.929 6 -12986734.525 6
        41.500          36.500
  21071654.877    21071654.123    21071652.890   -18444603.963 7 -14372411.399 6
        45.100          40.300
  20731989.306    20731988.606    20731987.346   -20801462.363 7 -16208923.344 7
        46.300          43.200
 07  1  1  0 24  0.0000000  0 11G16G21G29G22G18G26G10G 3G 6G15G 7
  22543548.785    22543548.140    22543546.553    -9174401.809 6  -7148879.361 4
        36.100          29.000
  20415886.530    20415885.962    20415882.864   -23915278.273 7 -18635273.334 7
        44.300          47.100
  22498372.712    22498372.406    22498370.377   -10088366.744 5  -7861056.380 4
        31.800          29.700
  24158041.694    24158041.356    24158037.806    -2373066.804 4  -1849141.886 2
        26.200          17.000
  21696095.560    21696095.025    21696092.233   -16662247.001 7 -12983558.999 5
        43.500          35.700
  22140703.790    22140703.753    22140701.955   -11804623.058 5  -9198400.414 4
        33.800          29.900
  24420003.255    24420002.015    24420001.492     -319165.947 2   -248685.428 9
        13.900          -3.000
  24286120.306    24286120.370    24286119.780     -139646.084 3   -108815.224
        19.900           3.000
  21462816.736    21462816.511    21462815.205   -16590836.376 6 -12927916.961 5
        40.900          35.900
  21060071.590    21060071.031    21060069.723   -18505473.114 7 -14419841.880 6
        45.200          40.300
  20740799.726    20740798.991    20740797.733   -20755163.600 7 -16172846.384 7
        46.200          43.200
 07  1  1  0 24 30.0000000  0 11G16G21G29G22G18G26G10G 3G 6G15G 7
  22545497.345    22545496.777    22545495.018    -9164161.750 6  -7140900.106 4
        36.000          29.500
  20411496.266    20411495.583    20411492.451   -23938349.743 7 -18653251.092 7
        44.400          47.000
  22496754.690    22496754.481    22496752.521   -10096869.213 5  -7867681.677 4
        32.000          29.500
  24137521.352    24137520.645    24137518.118    -2480898.980 3  -1933166.956 2
        23.400          16.100
  21681978.416    21681977.898    21681975.089   -16736433.227 7 -13041366.425 5
        43.800          35.700
  22131858.520    22131858.606    22131857.179   -11851102.402 5  -9234618.054 5
        33.200          30.200
  24440960.252    24440959.088    24440958.304     -209038.337 2   -162871.691 1
        17.000           6.500
  24266221.441    24266221.334    24266220.186     -244216.316 3   -190298.528 9
        19.900          -3.000
  21477251.360    21477250.644    21477249.275   -16514984.235 6 -12868811.397 6
        40.600          36.200
  21048539.625    21048539.098    21048537.679   -18566074.187 7 -14467063.469 6
        45.500          40.200
  20749697.015    20749696.278    20749695.000   -20708407.827 7 -16136413.314 7
        46.100          43.100
 07  1  1  0 25  0.0000000  0 11G16G21G29G22G18G26G10G 3G 6G15G 7
  22547558.225    22547557.584    22547555.319    -9153331.790 5  -7132461.190 4
        35.800          27.900
  20407169.533    20407168.901    20407165.722   -23961086.619 7 -18670968.127 7
        44.300          47.100
  22495253.422    22495253.070    22495251.209   -10104758.855 5  -7873829.429 4
        31.100          29.900
  24117027.677    24117027.447    24117025.419    -2588589.641 3  -2017081.707 3
        19.300          19.300
  21667933.453    21667932.922    21667929.944   -16810240.296 7 -13098878.406 5
        44.100          35.800
  22123136.133    22123136.006    22123134.547   -11896939.853 5  -9270335.533 5
        33.400          30.600
  24461936.944    24461936.001    24461935.228      -98802.089 2    -76973.298 9
        16.100          -3.000
  24246351.862    24246351.273    24246349.935     -348633.667 2   -271662.675 1
        15.100           9.000
  21491756.980    21491756.785    21491755.253   -16438754.150 6 -12809411.337 5
        40.300          35.500
  21037061.023    21037060.282    21037058.741   -18626396.679 7 -14514067.978 6
        45.600          40.300
  20758683.062    20758682.325    20758681.026   -20661185.852 7 -16099616.969 7
        46.000          42.800
 07  1  1  0 25 30.0000000  0 11G16G21G29G22G18G26G10G 3G 6G15G 7
  22549728.961    22549728.293    22549725.937    -9141926.490 5  -7123573.947 4
        35.900          28.400
  20402904.098    20402903.412    20402900.170   -23983502.258 7 -18688434.843 7
        44.300          47.100
  22493866.146    22493865.892    22493863.602   -10112049.211 5  -7879510.219 4
        32.100          29.000
  24096560.272    24096559.819    24096557.044    -2696151.025 3  -2100895.718 3
        20.500          22.600
  21653957.955    21653957.436    21653954.655   -16883681.386 7 -13156105.201 6
        44.100          36.100
  22114533.727    22114533.464    22114531.560   -11942147.262 5  -9305562.064 4
        34.000          29.700
  24482930.312    24482930.353    24482929.628       11526.371 2      8996.937
        16.100           3.000
  24226508.010    24226507.703    24226506.707     -452910.197 3   -352917.074 1
        20.500          11.000
  21506332.183    21506331.837    21506330.203   -16362161.538 6 -12749728.790 5
        40.500          35.400
  21025632.501    21025631.744    21025630.257   -18686453.934 7 -14560865.809 6
        45.600          40.500
  20767754.766    20767754.060    20767752.913   -20613512.757 7 -16062469.104 7
        45.800          42.800
 07  1  1  0 26  0.0000000  0 11G16G21G29G22G18G26G10G 3G 6G15G 7
  22552009.840    22552009.191    22552007.113    -9129940.167 6  -7114233.964 4
        36.200          28.800
  20398700.783    20398700.299    20398697.110   -24005589.474 7 -18705645.650 7
        44.300          47.100
  22492594.334    22492594.036    22492591.864   -10118732.849 5  -7884718.236 4
        32.000          29.200
  24076117.509    24076117.618    24076114.450    -2803574.427 3  -2184602.199 3
        23.400          20.500
  21640053.758    21640053.189    21640050.474   -16956747.939 7 -13213040.158 6
        43.900          36.200
  22106052.932    22106052.622    22106050.603   -11986715.651 5  -9340290.659 4
        33.200          29.700
  24503943.968    24503944.000    24503943.082      121951.855 2     95042.752 1
        17.000           9.000
  24206693.347    24206693.452    24206692.184     -557036.471 2   -434054.370 2
        16.100          15.100
  21520976.952    21520976.767    21520975.305   -16285201.271 6 -12689759.754 5
        40.300          34.900
  21014255.717    21014255.115    21014253.574   -18746238.110 7 -14607450.850 6
        45.900          40.400
  20776913.639    20776912.963    20776911.821   -20565382.129 7 -16024964.715 7
        45.800          42.700
 07  1  1  0 26 30.0000000  0 11G16G21G29G22G18G26G10G 3G 6G15G 7
  22554401.811    22554401.439    22554399.301    -9117368.922 6  -7104438.195 4
        36.400          28.100
  20394561.242    20394560.635    20394557.460   -24027343.638 7 -18722596.937 7
        44.300          47.100
  22491438.860    22491438.762    22491436.383   -10124804.973 5  -7889449.747 4
        32.000          29.700
  24055703.329    24055703.352    24055699.833    -2910854.002 4  -2268196.674 2
        25.900          15.100
  21626221.704    21626221.272    21626218.724   -17029434.494 7 -13269679.000 6
        44.000          36.600
  22097693.937    22097694.005    22097692.344   -12030638.178 5  -9374515.977 4
        33.000          29.500
  24524977.018    24524975.809    24524975.525      232476.239 3    181165.638
        18.600           3.000
  24186908.960    24186909.461    24186907.809     -661006.122 3   -515069.623 3
        18.600          18.600
  21535692.506    21535692.456    21535690.901   -16207869.967 6 -12629501.601 5
        40.300          34.800
  21002932.020    21002931.436    21002929.980   -18805744.118 7 -14653819.142 6
        45.800          40.500
  20786160.397    20786159.672    20786158.568   -20516790.605 7 -15987101.193 7
        45.600          42.700
 07  1  1  0 27  0.0000000  0 11G16G21G29G22G18G26G10G 3G 6G15G 7
  22556904.636    22556904.202    22556901.928    -9104217.076 6  -7094190.019 4
        36.200          27.900
  20390484.275    20390483.670    20390480.464   -24048767.983 7 -18739291.216 7
        44.100          47.100
  22490398.934    22490398.687    22490396.739   -10130268.961 5  -7893707.393 4
        31.800          29.500
  24035316.935    24035316.700    24035312.526    -3017991.604 4  -2351680.499 1
        28.100           9.000
  21612461.938    21612461.455    21612458.745   -17101743.327 7 -13326023.518 6
        44.100          36.700
  22089458.110    22089458.171    22089456.752   -12073916.424 5  -9408239.266 4
        33.000          29.900
  24546026.925    24546026.185    24546024.838      343093.456 2    267360.889 1
        16.100           6.500
  24167153.834    24167153.647    24167152.290     -764820.820 2   -595964.128 2
        17.800          17.000
  21550477.834    21550477.672    21550476.082   -16130173.039 6 -12568958.546 5
        40.400          34.500
  20991661.050    20991660.358    20991658.814   -18864974.986 7 -14699973.043 6
        46.200          40.700
  20795494.161    20795493.370    20795492.065   -20467742.447 7 -15948881.852 7
        45.800          42.600
 07  1  1  0 27 30.0000000  0 11G16G21G29G22G18G26G10G 3G 6G15G 7
  22559517.748    22559517.262    22559514.939    -9090485.875 6  -7083490.393 4
        36.300          28.400
  20386470.083    20386469.481    20386466.320   -24069862.418 7 -18755728.423 7
        44.100          47.200
  22489474.983    22489474.634    22489472.834   -10135124.642 5  -7897491.035 4
        31.300          29.700
  24014956.669    24014955.948    24014951.713    -3124985.622 4  -2435052.476 2
        24.600          16.100
  21598774.218    21598773.643    21598770.914   -17173673.478 7 -13382072.955 6
        43.800          37.000
  22081345.710    22081345.812    22081344.207   -12116548.660 5  -9441459.166 4
        33.500          29.900
  24567093.598    24567092.417    24567091.673      453801.066 1    353626.536 1
        11.000           6.500
  24147427.764    24147427.598    24147426.667     -868478.398 2   -676736.189 2
        17.000          15.100
  21565332.654    21565332.392    21565330.786   -16052112.391 6 -12508132.073 5
        40.600          34.800
  20980442.335    20980441.583    20980440.000   -18923930.130 7 -14745912.090 6
        46.200          41.000
  20804914.243    20804913.477    20804912.213   -20418238.920 7 -15910307.676 7
        45.500          42.500
 07  1  1  0 28  0.0000000  0 11G16G21G29G22G18G26G10G 3G 6G15G 7
  22562240.714    22562240.215    22562237.973    -9076175.254 5  -7072339.257 4
        35.800          28.100
  20382518.938    20382518.348    20382515.236   -24090625.697 7 -18771907.588 7
        44.200          47.300
  22488667.071    22488666.715    22488664.764   -10139370.836 5  -7900799.750 4
        31.600          29.700
  23994622.844    23994621.988    23994619.261    -3231833.760 3  -2518310.697 3
        20.500          18.600
  21585158.873    21585158.247    21585155.513   -17245222.767 7 -13437825.620 6
        44.200          36.900
  22073356.714    22073356.654    22073354.851   -12158532.016 5  -9474173.445 4
        33.200          29.500
  24588177.045    24588176.256    24588176.093      564597.463 2    439961.392 9
        17.000          -3.000
  24127733.247    24127732.892    24127732.181     -971976.045 3   -757383.639 1
        20.500           9.000
  21580256.038    21580255.943    21580254.440   -15973688.568 6 -12447022.607 5
        40.600          34.800
  20969276.222    20969275.440    20969273.976   -18982607.921 7 -14791635.020 6
        46.200          41.100
  20814421.088    20814420.372    20814419.162   -20368279.940 7 -15871378.602 7
        45.400          42.400
 07  1  1  0 28 30.0000000  0 11G16G21G29G22G18G26G10G 3G 6G15G 7
  22565073.401    22565072.728    22565069.690    -9061292.917 6  -7060742.640 4
        36.100          27.600
  20378629.762    20378629.169    20378625.915   -24111063.777 7 -18787833.348 7
        44.100          47.200
  22487973.812    22487973.501    22487971.797   -10143013.791 5  -7903638.410 5
        32.100          30.100
  23974317.446    23974317.176    23974314.007    -3338540.479 3  -2601458.734 2
        23.000          17.800
  21571614.815    21571614.292    21571611.574   -17316396.309 7 -13493285.503 6
        44.200          37.200
  22065490.407    22065490.273    22065488.213   -12199870.727 5  -9506385.408 4
        33.600          29.500
  24609276.088    24609275.715    24609274.887      675473.892 3    526358.620 9
        18.600          -3.000
  24108068.439    24108067.838    24108067.138    -1075317.843 3   -837909.696
        22.600           3.000
  21595247.424    21595247.140    21595245.520   -15894909.524 6 -12385636.343 5
        40.700          34.500
  20958161.780    20958161.064    20958159.603   -19041014.082 7 -14837146.295 6
        46.100          41.100
  20824013.147    20824012.419    20824011.284   -20317872.752 7 -15832100.277 7
        45.500          42.200
 07  1  1  0 29  0.0000000  0 11G16G21G29G22G18G26G10G 3G 6G15G 7
  22568014.607    22568014.025    22568011.396    -9045835.731 6  -7048698.080 4
        36.400          27.100
  20374803.021    20374802.475    20374799.227   -24131172.965 7 -18803502.830 7
        44.100          47.300
  22487395.996    22487395.573    22487393.958   -10146049.364 5  -7906003.768 4
        31.800          29.700
  23954039.917    23954039.793    23954036.641    -3445100.608 4  -2684492.566 3
        25.300          21.100
  21558143.146    21558142.730    21558140.086   -17387189.294 7 -13548448.847 6
        44.100          36.900
  22057747.630    22057747.600    22057745.688   -12240559.307 5  -9538090.775 4
        34.000          29.200
  24630390.854    24630390.035                      786431.671 2
        17.800
  24088433.725    24088432.719                    -1178498.018 3
        22.600
  21610306.289    21610306.192    21610304.512   -15815773.201 6 -12323971.682 5
        40.700          34.700
  20947099.970    20947099.252    20947097.757   -19099144.184 7 -14882442.458 6
        45.900          41.000
  20833691.289    20833690.503    20833689.154   -20267014.741 7 -15792470.659 7
        45.500          42.000
 07  1  1  0 29 30.0000000  0 11G16G21G29G22G18G26G10G 3G 6G15G 7
  22571066.141    22571065.592    22571063.495    -9029799.069 6  -7036201.984 4
        36.400          28.400
  20371040.038    20371039.546    20371036.352   -24150947.161 7 -18818911.284 7
        44.000          47.300
  22486934.733    22486934.336    22486932.915   -10148471.792 5  -7907891.362 4
        31.000          29.500
  23933791.048    23933790.682    23933788.276    -3551506.551 4  -2767406.257 3
        25.900          22.100
  21544745.871    21544745.198    21544742.349   -17457594.695 7 -13603310.170 6
        44.100          37.200
  22050129.875    22050129.975    22050127.980   -12280589.891 5  -9569283.421 4
        34.500          29.900
  24651522.024    24651521.214    24651520.883      897474.229 2    699345.941 9
        16.100          -3.000
  24068831.331    24068830.851                    -1281508.853 3
        18.600
  21625434.488    21625434.205    21625432.397   -15736275.540 6 -12262025.459 5
        40.300          34.500
  20936091.969    20936091.262    20936089.687   -19156991.782 7 -14927518.490 6
        46.100          41.100
  20843455.908    20843455.127    20843453.971   -20215701.083 7 -15752485.986 7
        45.600          42.400
 07  1  1  0 30  0.0000000  0 11G16G21G29G22G18G26G10G 3G 6G15G 7
  22574228.142    22574227.226    22574224.874    -9013184.762 6  -7023255.771 4
        36.500          28.800
  20367341.104    20367340.391    20367337.135   -24170386.378 7 -18834058.712 7
        43.800          47.300
  22486590.642    22486590.209    22486588.380   -10150281.450 5  -7909301.465 4
        31.300          29.700
  23913571.819    23913571.491    23913568.744    -3657757.432 4  -2850199.123 2
        24.600          17.000
  21531421.902    21531421.346    21531418.441   -17527612.229 7 -13657869.266 6
        44.200          37.000
  22042638.286    22042638.109    22042635.979   -12319961.235 5  -9599962.374 4
        35.400          29.500
  24672668.793    24672667.828    24672667.401     1008598.591 3    785936.335 1
        19.900           9.000
  24049261.655    24049261.009    24049260.818    -1384348.481 2  -1078712.815 9
        16.100          -3.000
  21640630.581    21640630.353    21640628.846   -15656418.591 6 -12199799.271 5
        39.900          34.700
  20925137.578    20925136.904    20925135.481   -19214556.760 7 -14972374.306 6
        46.000          41.200
  20853307.030    20853306.265    20853305.090   -20163933.302 7 -15712147.455 7
        45.700          42.200
 07  1  1  0 30 30.0000000  0 11G16G21G29G22G18G26G10G 3G 6G15G 7
  22577498.480    22577497.882    22577495.842    -8995995.787 6  -7009861.771 4
        36.200          28.800
  20363705.249    20363704.639    20363701.293   -24189492.574 7 -18848946.642 7
        44.100          47.400
  22486362.427    22486362.201    22486360.797   -10151480.218 5  -7910235.553 4
        31.100          29.900
  23893382.895    23893382.567    23893378.929    -3763853.629 4  -2932871.493 2
        24.600          13.900
  21518171.449    21518170.939    21518168.017   -17597243.105 7 -13712127.076 6
        44.700          37.300
  22035271.322    22035271.291    22035269.086   -12358673.524 5  -9630127.770 4
        34.500          29.900
  24693829.432    24693828.824    24693827.770     1119800.387 2    872587.088
        17.800           3.000
  24029724.606    24029723.453    24029722.996    -1487016.980 2  -1158714.185 1
        15.100          11.000
  21655894.527    21655894.360    21655892.848   -15576206.201 6 -12137296.130 5
        39.500          34.800
  20914236.865    20914236.129    20914234.739   -19271840.458 7 -15017010.939 6
        45.900          41.500
  20863243.843    20863243.112    20863242.013   -20111714.409 7 -15671457.406 7
        45.700          42.100
 07  1  1  0 31  0.0000000  0 11G16G21G29G22G18G26G10G 3G 6G15G 7
  22580878.082    22580877.800    22580876.034    -8978234.081 5  -6996021.478 4
        35.800          29.900
  20360132.526    20360132.056    20360128.781   -24208266.246 7 -18863575.463 7
        43.900          47.300
  22486250.385    22486250.085    22486248.374   -10152069.054 5  -7910694.364 5
        31.800          30.100
  23873222.632    23873222.771    23873220.136    -3869794.362 4  -3015422.703 3
        27.100          18.600
  21504994.791    21504994.284    21504991.283   -17666486.916 7 -13766083.274 6
        44.700          37.200
  22028030.390    22028030.200    22028027.986   -12396725.856 5  -9659778.906 5
        35.400          30.100
  24715004.481    24715003.941    24715003.037     1231076.467 2    959295.743 9
        17.800          -3.000
  24010219.591    24010219.010    24010218.709    -1589513.301 3  -1238581.380 2
        19.900          17.000
  21671225.578    21671225.242    21671223.836   -15495640.975 6 -12074518.043 5
        39.000          34.500
  20903389.407    20903388.792    20903387.439   -19328843.223 7 -15061428.664 6
        46.100          41.500
  20873266.291    20873265.555    20873264.351   -20059046.418 7 -15630417.411 7
        45.500          42.000
 07  1  1  0 31 30.0000000  0 10G16G21G29G22G18G26G 3G 6G15G 7
  22584367.563    22584367.117    22584364.676    -8959898.726 6  -6981734.192 4
        36.100          28.400
  20356623.926    20356623.281    20356619.948   -24226704.937 7 -18877943.262 7
        43.900          47.400
  22486254.915    22486254.558    22486252.521   -10152045.680 5  -7910676.139 4
        31.300          29.500
  23853093.408    23853093.242    23853090.440    -3975576.090 4  -3097849.975 3
        27.600          22.600
  21491892.323    21491891.872    21491888.919   -17735340.157 7 -13819735.133 6
        44.800          37.300
  22020915.064    22020915.145    22020913.298   -12434114.298 5  -9688912.724 5
        34.800          31.000
  23990748.704    23990748.842    23990748.133    -1691832.872 4  -1318310.875 2
        24.600          15.100
  21686623.987    21686623.577    21686622.146   -15414722.254 6 -12011464.505 5
        38.700          34.100
  20892596.204    20892595.460    20892594.247   -19385562.112 7 -15105625.191 6
        45.800          41.500
  20883374.530    20883373.668    20883372.450   -20005928.242 7 -15589026.624 7
        45.500          42.100
 07  1  1  0 32  0.0000000  0 10G16G21G29G22G18G26G 3G 6G15G 7
  22587962.968    22587962.624    22587960.651    -8941003.799 6  -6967010.869 4
        36.100          28.600
  20353176.377    20353175.822    20353172.510   -24244821.721 7 -18892060.225 7
        43.900          47.400
  22486373.269    22486373.062    22486370.958   -10151422.933 5  -7910190.875 4
        31.800          29.500
  23832992.327    23832992.054    23832988.800    -4081210.176 4  -3180162.224 3
        27.400          23.000
  21478862.072    21478861.504    21478858.672   -17803814.970 7 -13873092.119 6
        44.600          37.700
  22013924.882    22013924.639    22013922.847   -12470849.909 5  -9717537.857 5
        35.100          30.800
  23971310.115    23971309.961    23971308.356    -1793986.606 3  -1397911.170 1
        23.400          11.000
  21702086.442    21702086.312    21702085.020   -15333464.903 6 -11948147.102 5
        38.800          34.400
  20881854.629    20881853.963    20881852.702   -19442009.403 7 -15149610.079 6
        45.900          41.600
  20893565.558    20893564.746    20893563.562   -19952373.780 7 -15547295.876 7
        45.400          42.000
 07  1  1  0 32 30.0000000  0 10G16G21G29G22G18G26G 3G 6G15G 7
  22591669.423    22591668.802    22591666.287    -8921527.767 6  -6951834.745 4
        36.100          27.600
  20349794.653    20349794.089    20349790.793   -24262593.319 7 -18905908.213 7
        44.100          47.600
  22486610.410    22486610.116    22486607.953   -10150178.134 5  -7909220.889 4
        32.000          29.000
  23812922.811    23812922.745    23812919.621    -4186672.413 4  -3262340.521 3
        25.600          22.600
  21465908.147    21465907.723    21465904.945   -17871887.661 7 -13926135.759 6
        44.700          37.900
  22007062.929    22007062.945    22007061.001   -12506908.486 5  -9745635.431 5
        35.100          30.400
  23951907.145    23951906.665    23951905.768    -1895949.781 3  -1477362.977 2
        22.600          12.600
  21717617.837    21717617.771    21717616.472   -15251847.745 6 -11884549.331 5
        39.400          34.300
  20871169.330    20871168.674    20871167.228   -19498161.687 7 -15193365.097 6
        46.200          41.900
  20903843.725    20903843.021    20903841.658   -19898361.320 7 -15505208.246 7
        45.300          42.000
 07  1  1  0 33  0.0000000  0 10G16G21G29G22G18G26G 3G 6G15G 7
  22595484.078    22595483.494    22595481.126    -8901481.749 5  -6936214.470 4
        35.900          27.900
  20346476.673    20346476.036    20346472.725   -24280029.882 7 -18919495.136 7
        44.000          47.700
  22486963.506    22486963.291    22486960.827   -10148321.598 5  -7907774.221 4
        31.800          29.000
  23792885.276    23792885.068    23792881.650    -4291971.113 4  -3344391.372 3
        25.300          20.500
  21453029.277    21453028.776    21453026.036   -17939567.138 7 -13978872.999 6
        44.800          38.100
  22000328.402    22000328.507    22000326.401   -12542298.376 5  -9773211.950 5
        35.800          31.100
  23932538.946    23932538.511    23932537.936    -1997730.410 3  -1556672.531 1
        19.300           9.000
  21733215.315    21733215.001    21733213.610   -15169882.865 6 -11820680.600 5
        39.000          33.800
  20860538.042    20860537.462    20860536.058   -19554028.652 7 -15236897.790 6
        46.200          41.800
  20914206.768    20914206.065    20914204.936   -19843902.276 7 -15462772.624 6
        45.200          41.900
 07  1  1  0 33 30.0000000  0 10G16G21G29G22G18G26G 3G 6G15G 7
  22599406.562    22599405.854    22599403.585    -8880869.862 6  -6920153.260 4
        36.100          28.600
  20343221.786    20343221.202    20343217.960   -24297133.578 7 -18932822.684 7
        44.100          47.700
  22487432.741    22487432.523    22487430.175   -10145855.869 5  -7905852.864 4
        31.800          29.500
  23772878.446    23772878.697    23772874.998    -4397107.257 4  -3426315.590 3
        26.500          20.500
  21440224.414    21440224.104    21440221.462   -18006854.953 7 -14031305.056 6
        44.700          38.300
  21993721.388    21993721.253    21993718.896   -12577020.637 5  -9800268.226 5
        35.600          30.800
  23913205.470    23913204.650    23913203.971    -2099329.021 3  -1635840.276
        19.300           3.000
  21748878.110    21748877.875    21748876.159   -15087574.504 6 -11756544.223 5
        39.500          33.200
  20849961.027    20849960.296    20849958.853   -19609612.163 7 -15280209.605 7
        46.400          42.100
  20924654.319    20924653.596    20924652.393   -19789000.453 7 -15419991.990 6
        45.300          41.800
 07  1  1  0 34  0.0000000  0 10G16G21G29G22G18G26G 3G 6G15G 7
  22603436.288    22603435.727    22603433.654    -8859690.979 5  -6903650.234 4
        35.700          27.900
  20340030.585    20340030.146    20340027.016   -24313902.021 7 -18945888.997 7
        44.100          47.800
  22488018.453    22488018.144    22488015.965   -10142778.672 5  -7903455.034 4
        32.000          29.700
  23752903.073    23752903.129    23752899.827    -4502076.964 4  -3508110.100 3
        26.800          20.500
  21427495.180    21427494.832    21427492.064   -18073747.864 7 -14083429.388 6
        44.700          38.400
  21987241.916    21987241.653    21987239.474   -12611070.988 5  -9826800.950 5
        35.400          31.100
  23893907.388    23893906.357    23893905.638    -2200740.787 3  -1714862.438
        19.300           3.000
  21764606.607    21764606.341    21764604.524   -15004921.920 6 -11692139.615 5
        39.600          33.100
  20839438.492    20839437.755    20839436.276   -19664908.978 7 -15323298.022 6
        46.600          41.900
  20935186.328    20935185.608    20935184.401   -19733654.331 7 -15376865.136 6
        45.000          41.600
 07  1  1  0 34 30.0000000  0 10G16G21G29G22G18G26G 3G 6G15G 7
  22607575.639    22607575.001    22607572.860    -8837940.735 6  -6886701.990 4
        36.200          28.100
  20336904.844    20336904.354    20336901.171   -24330328.611 7 -18958688.931 7
        43.900          47.800
  22488721.511    22488721.176    22488718.880   -10139084.227 5  -7900576.241 4
        31.800          29.700
  23732961.159    23732960.975    23732957.891    -4606872.979 4  -3589769.231 3
        27.100          23.400
  21414842.496    21414842.085    21414839.200   -18140238.915 7 -14135240.588 6
        44.800          38.400
  21980890.883    21980890.836    21980889.248   -12644442.184 5  -9852804.466 5
        35.100          32.000
  23874646.010    23874645.213    23874644.584    -2301957.863 3  -1793732.886 2
        19.900          12.600
  21780401.133    21780400.795    21780399.120   -14921921.069 6 -11627463.641 5
        39.200          33.400
  20828971.493    20828970.856    20828969.433   -19719912.699 7 -15366158.056 6
        46.400          41.900
  20945803.764    20945803.022    20945801.963   -19677859.246 7 -15333388.446 6
        45.000          41.500
 07  1  1  0 35  0.0000000  0 10G16G21G29G22G18G26G 3G 6G15G 7
  22611820.642    22611820.043    22611817.912    -8815633.023 6  -6869319.353 4
        36.300          28.100
  20333841.354    20333840.988    20333837.807   -24346426.641 7 -18971232.847 7
        44.000          47.900
  22489539.048    22489538.716    22489536.659   -10134785.866 5  -7897226.853 4
        31.800          28.800
  23713050.219    23713049.974    23713046.565    -4711506.720 4  -3671301.938 3
        28.100          22.100
  21402264.166    21402263.570    21402260.691   -18206340.273 7 -14186748.126 6
        44.900          38.900
  21974667.610    21974667.668    21974666.057   -12677145.724 5  -9878287.732 5
        35.200          32.300
  23855420.421    23855419.206    23855418.644    -2402991.216 2  -1872460.129 2
        17.800          17.800
  21796258.891    21796258.801    21796256.997   -14838586.821 6 -11562527.869 5
        39.100          33.200
  20818558.026    20818557.360    20818555.929   -19774635.809 7 -15408799.434 6
        46.600          41.900
  20956504.228    20956503.392    20956502.210   -19621629.483 7 -15289573.050 6
        45.100          41.600
 07  1  1  0 35 30.0000000  0 10G16G21G29G22G18G26G 3G 6G15G 7
  22616172.795    22616172.220    22616170.127    -8792761.214 6  -6851497.168 4
        36.000          27.900
  20330842.360    20330841.801    20330838.633   -24362187.466 7 -18983514.005 7
        43.900          47.900
  22490473.773    22490473.359    22490471.319   -10129875.573 5  -7893400.649 4
        32.100          29.700
  23693171.378    23693171.298    23693168.008    -4815968.473 4  -3752700.629 3
        27.400          19.300
  21389761.291    21389760.710    21389758.000   -18272042.844 7 -14237944.923 6
        44.800          38.900
  21968573.486    21968573.324    21968571.687   -12709171.888 5  -9903243.171 5
        35.300          32.400
  23836231.023    23836230.240    23836229.892    -2503830.652 4  -1951036.265 3
        25.300          20.500
  21812181.470    21812181.361    21812179.684   -14754912.852 6 -11497327.383 5
        39.000          33.200
  20808199.616    20808198.983    20808197.358   -19829069.519 7 -15451215.307 6
        46.400          41.900
  20967288.286    20967287.499    20967286.342   -19564958.218 7 -15245413.618 6
        44.800          41.300
 07  1  1  0 36  0.0000000  0 10G16G21G29G22G18G26G 3G 6G15G 7
  22620632.292    22620631.752    22620629.523    -8769326.410 6  -6833236.279 4
        36.000          28.100
  20327907.729    20327907.082    20327903.770   -24377610.245 7 -18995531.749 7
        43.900          47.800
  22491524.465    22491524.244    22491522.161   -10124353.070 5  -7889097.394 5
        32.100          30.200
  23673325.660    23673325.684    23673322.334    -4920256.185 4  -3833963.740 3
        25.900          18.600
  21377334.447    21377333.991    21377331.325   -18337345.017 7 -14288829.722 6
        44.800          39.000
  21962608.329    21962608.244    21962606.578   -12740518.620 5  -9927669.188 5
        35.200          32.400
  23817079.352    23817079.112    23817078.446    -2604473.313 4  -2029459.101 3
        26.200          22.600
  21828168.580    21828168.253    21828166.703   -14670900.527 6 -11431863.238 5
        38.400          32.800
  20797896.429    20797895.774    20797894.307   -19883212.667 7 -15493404.764 7
        46.400          42.000
  20978156.009    20978155.350    20978154.381   -19507846.013 7 -15200910.605 6
        45.000          41.200
 07  1  1  0 36 30.0000000  0 10G16G21G29G22G18G26G 3G 6G15G 7
  22625198.479    22625197.870    22625195.953    -8745330.744 5  -6814538.351 4
        35.900          27.900
  20325036.897    20325036.302    20325032.983   -24392696.024 7 -19007286.899 7
        44.100          47.900
  22492691.622    22492691.391    22492689.263   -10118219.589 5  -7884318.050 4
        31.600          29.700
  23653514.319    23653513.931    23653510.572    -5024369.366 4  -3915090.843 3
        24.900          20.500
  21364984.042    21364983.540    21364980.710   -18402247.073 7 -14339402.743 6
        44.900          39.100
  21956772.389    21956772.588    21956770.477   -12771185.677 6  -9951565.588 5
        36.000          31.500
  23797964.734    23797964.349    23797964.057    -2704918.148 3  -2107727.743 3
        23.400          22.100
  21844219.243    21844219.019    21844217.608   -14586552.519 6 -11366137.534 5
        37.800          32.600
  20787648.799    20787647.958    20787646.546   -19937065.503 7 -15535367.999 7
        46.400          42.200
  20989107.592    20989106.992    20989105.835   -19450295.134 7 -15156065.763 6
        45.200          41.100
 07  1  1  0 37  0.0000000  0 10G16G21G29G22G18G26G 3G 6G15G 7
  22629872.232    22629871.721    22629869.949    -8720769.414 5  -6795399.659 4
        35.800          27.900
  20322231.497    20322230.922    20322227.660   -24407438.147 7 -19018774.266 7
        44.000          47.900
  22493976.146    22493975.967    22493973.835   -10111468.817 5  -7879057.707 4
        31.500          29.200
  23633736.815    23633736.531    23633733.227    -5128300.215 4  -3996075.864 3
        27.600          23.000
  21352711.096    21352710.577    21352707.850   -18466741.435 7 -14389658.078 6
        45.000          39.100
  21951067.973    21951067.810    21951065.680   -12801164.893 5  -9974926.000 5
        35.500          32.100
  23778889.667    23778889.215    23778888.961    -2805156.599 3  -2185835.524 2
        22.600          16.100
  21860335.065    21860334.732    21860333.462   -14501864.108 6 -11300146.575 5
        37.900          33.200
  20777457.297    20777456.598    20777455.279   -19990620.896 7 -15577099.460 7
        46.400          42.200
  21000143.805    21000143.133    21000141.899   -19392300.200 7 -15110874.903 6
        44.900          40.900
 07  1  1  0 37 30.0000000  0 10G16G21G29G22G18G26G 3G 6G15G 7
  22634651.157    22634650.612    22634648.540    -8695657.087 5  -6775831.610 4
        35.600          27.900
  20319489.044    20319488.445    20319485.247   -24421849.874 7 -19030004.181 7
        43.800          47.900
  22495375.763    22495375.480    22495373.447   -10104114.841 5  -7873327.323 4
        32.400          29.200
  23613991.758    23613991.794    23613987.610    -5232060.804 4  -4076928.235 3
        29.900          20.500
  21340513.381    21340512.892    21340510.148   -18530840.911 7 -14439605.711 6
        45.100          39.200
  21945491.783    21945491.530    21945489.238   -12830468.490 5  -9997759.957 5
        35.400          31.600
  23759852.300    23759851.664    23759851.081    -2905200.053 3  -2263791.412
        22.600           3.000
  21876512.484    21876512.271    21876510.995   -14416850.742 6 -11233902.408 5
        37.700          32.700
  20767320.288    20767319.539    20767318.128   -20043891.828 7 -15618609.265 7
        46.500          42.200
  21011261.824    21011261.010    21011259.731   -19333876.196 7 -15065349.705 6
        45.000          40.800
 07  1  1  0 38  0.0000000  0 10G16G21G29G22G18G26G 3G 6G15G 7
  22639536.251    22639535.890    22639533.648    -8669985.275 5  -6755827.603 4
        35.800          28.400
  20316811.242    20316810.758    20316807.582   -24435921.067 7 -19040968.745 8
        43.800          48.000
  22496892.007    22496891.732    22496889.601   -10096147.665 5  -7867119.120 4
        32.300          29.900
  23594281.743    23594281.367    23594277.308    -5335639.270 4  -4157638.713 3
        28.600          21.100
  21328392.993    21328392.514    21328389.649   -18594534.430 7 -14489237.008 6
        45.200          39.300
  21940045.721    21940045.732    21940043.770   -12859085.247 5 -10020058.714 5
        34.800          31.800
  23740854.560    23740854.141    23740853.072    -3005036.150 3  -2341585.753 1
        20.500           9.000
  21892753.395    21892753.239    21892751.842   -14331504.393 6 -11167398.761 5
        37.600          33.200
  20757239.260    20757238.556    20757237.122   -20096867.588 7 -15659889.067 7
        46.500          42.500
  21022463.037    21022462.123    21022460.591   -19275014.292 7 -15019483.286 6
        44.900          40.600
 07  1  1  0 38 30.0000000  0 10G16G21G29G22G18G26G 3G 6G15G 7
  22644526.954    22644526.448    22644523.949    -8643758.234 5  -6735390.944 4
        34.700          26.500
  20314197.981    20314197.457    20314194.306   -24449653.801 7 -19051669.571 8
        43.700          48.100
  22498524.162    22498523.952    22498521.670   -10087570.462 5  -7860435.576 4
        32.100          29.200
  23574605.722    23574605.260    23574601.612    -5439036.563 4  -4238207.984 3
        27.600          22.600
  21316349.593    21316348.991    21316346.103   -18657823.668 7 -14538553.291 6
        45.100          39.400
  21934730.870    21934730.703    21934728.762   -12887016.254 5 -10041823.120 5
        35.100          32.000
  23721896.226    23721895.553    23721894.470    -3104665.465 4  -2419218.927 1
        24.900          11.000
  21909057.183    21909056.655    21909055.408   -14245829.235 6 -11100638.910 5
        37.700          33.000
  20747213.885    20747213.271    20747212.009   -20149550.116 7 -15700940.365 7
        46.500          42.400
  21033746.258    21033745.544    21033744.223   -19215718.165 7 -14973278.513 6
        44.800          40.300
 07  1  1  0 39  0.0000000  0 10G16G21G29G22G18G26G 3G 6G15G 7
  22649625.330    22649624.579    22649622.145    -8616968.418 5  -6714515.756 4
        35.100          26.200
  20311650.918    20311650.357    20311647.125   -24463039.212 7 -19062099.755 8
        43.800          48.000
  22500274.255    22500273.849    22500271.731   -10078374.497 5  -7853269.891 4
        32.100          29.900
  23554966.591    23554966.313    23554962.839    -5542242.277 4  -4318627.967 4
        28.600          26.500
  21304384.781    21304384.221    21304381.286   -18720698.974 7 -14587547.020 6
        45.400          39.500
  21929548.211    21929547.960    21929545.863   -12914251.245 5 -10063045.179 5
        34.900          31.800
  23702978.417    23702977.810    23702976.676    -3204076.807 4  -2496682.269 1
        25.300          11.000
  21925424.486    21925424.112    21925422.692   -14159818.313 6 -11033617.424 5
        37.400          32.800
  20737246.366    20737245.755    20737244.490   -20201929.872 7 -15741755.744 7
        46.500          42.300
  21045114.021    21045113.296    21045112.017   -19155980.310 7 -14926729.532 6
        44.700          40.500
 07  1  1  0 39 30.0000000  0 10G16G21G29G22G18G26G 3G 6G15G 7
  22654827.344    22654826.994    22654824.571    -8589628.609 5  -6693212.009 4
        35.400          26.200
  20309167.650    20309167.178    20309163.967   -24476088.315 7 -19072267.882 8
        43.600          48.000
  22502139.334    22502139.170    22502137.215   -10068571.526 5  -7845631.209 5
        32.100          30.100
  23535361.918    23535361.701    23535357.838    -5645266.697 5  -4398906.690 4
        30.600          26.500
  21292496.890    21292496.399    21292493.386   -18783170.425 7 -14636226.063 6
        45.400          39.500
  21924495.701    21924495.688    21924493.803   -12940800.371 5 -10083732.788 5
        35.100          31.800
  23684100.273    23684099.768    23684099.344    -3303279.463 3  -2573982.986 2
        23.800          13.900
  21941853.244    21941852.860    21941851.352   -14073484.639 6 -10966344.442 5
        37.400          32.600
  20727334.373    20727333.823    20727332.462   -20254017.524 7 -15782343.507 7
        46.700          42.400
  21056563.543    21056562.768    21056561.519   -19095813.378 7 -14879846.209 6
        44.700          40.400
 07  1  1  0 40  0.0000000  0 10G16G21G29G22G18G26G 3G 6G15G 7
  22660134.664    22660133.932    22660131.629    -8561740.834 5  -6671481.272 4
        35.500          26.800
  20306748.667    20306748.070    20306744.810   -24488801.079 7 -19082173.922 8
        43.900          48.100
  22504120.269    22504120.097    22504117.996   -10058162.478 5  -7837520.243 5
        32.700          30.200
  23515790.318    23515790.902    23515787.322    -5748108.462 5  -4479043.090 3
        30.100          22.100
  21280685.787    21280685.227    21280682.350   -18845237.997 7 -14684590.391 6
        45.400          39.700
  21919574.443    21919574.356    21919572.379   -12966662.756 5 -10103885.280 5
        35.400          31.600
  23665263.141    23665262.718    23665261.593    -3402271.756 3  -2651119.760 3
        23.400          20.500
  21958343.101    21958342.680    21958341.110   -13986830.869 6 -10898822.040 5
        37.500          32.400
  20717478.096    20717477.503    20717476.020   -20305812.881 7 -15822703.504 7
        46.800          42.500
  21068094.041    21068093.391    21068092.217   -19035219.151 7 -14832629.931 6
        44.700          40.300
 07  1  1  0 40 30.0000000  0 10G16G21G29G22G18G26G 3G 6G15G 7
  22665546.952    22665546.220    22665543.912    -8533300.326 5  -6649319.824 4
        35.100          27.600
  20304394.600    20304394.068    20304390.818   -24501171.280 7 -19091813.036 8
        43.700          48.200
  22506217.584    22506217.271    22506215.282   -10047141.444 5  -7828932.424 4
        32.600          29.700
  23496256.529    23496256.753    23496253.142    -5850759.769 4  -4559031.113 3
        28.600          19.900
  21268952.674    21268952.187    21268949.356   -18906894.981 7 -14732634.781 6
        45.200          39.800
  21914785.259    21914785.090    21914783.002   -12991830.858 5 -10123496.771 5
        35.200          32.300
  23646466.977    23646466.577    23646465.489    -3501045.022 4  -2728085.861 3
        24.200          20.500
  21974894.307    21974893.992    21974892.547   -13899852.409 6 -10831046.622 5
        37.300          32.000
  20707678.841    20707678.157    20707676.606   -20357308.993 7 -15862830.322 7
        46.600          42.400
  21079707.104    21079706.463    21079705.077   -18974192.553 7 -14785076.738 6
        44.400          40.200
 07  1  1  0 41  0.0000000  0 10G16G21G29G22G18G26G 3G 6G15G 7
  22671063.618    22671062.991    22671060.429    -8504309.772 5  -6626729.784 4
        35.800          27.600
  20302105.735    20302105.138    20302101.921   -24513199.583 7 -19101185.733 8
        43.900          48.200
  22508430.742    22508430.473    22508428.548   -10035510.035 5  -7819868.974 4
        32.700          29.500
  23476759.999    23476759.698    23476755.689    -5953220.191 4  -4638870.393 3
        29.900          22.100
  21257298.012    21257297.476    21257294.634   -18968140.822 7 -14780358.797 6
        45.300          40.000
  21910127.500    21910127.560    21910125.710   -13016304.707 5 -10142567.276 5
        34.800          32.300
  23627713.230    23627712.543    23627711.578    -3599598.326 4  -2804880.556 3
        24.200          19.900
  21991506.743    21991506.646    21991505.089   -13812552.180 6 -10763020.482 5
        37.200          32.300
  20697936.458    20697935.692    20697934.072   -20408506.194 7 -15902724.223 7
        46.700          42.500
  21091401.937    21091401.183    21091399.784   -18912736.110 7 -14737188.597 6
        44.400          39.900
 07  1  1  0 41 30.0000000  0 10G16G21G29G22G18G26G 3G 6G15G 7
  22676684.473    22676683.935    22676681.689    -8474770.862 5  -6603712.448 4
        35.300          26.200
  20299881.923    20299881.371    20299878.073   -24524885.863 7 -19110291.920 8
        43.800          48.200
  22510760.568    22510760.206    22510757.620   -10023268.499 5  -7810330.108 4
        33.100          28.800
  23457299.506    23457299.032    23457295.134    -6055488.032 5  -4718559.593 4
        30.600          26.500
  21245721.795    21245721.246    21245718.284   -19028974.653 7 -14827761.764 6
        45.100          40.000
  21905602.752    21905602.671    21905600.830   -13040082.873 5 -10161095.699 5
        34.800          32.000
  23609001.463    23609001.003    23608999.308    -3697929.021 4  -2881501.820 3
        25.600          18.600
  22008180.734    22008180.323    22008178.663   -13724931.922 6 -10694744.959 5
        37.300          31.500
  20688250.816    20688250.105    20688248.606   -20459403.664 7 -15942384.562 7
        46.700          42.500
  21103178.382    21103177.647    21103176.228   -18850850.799 7 -14688966.277 6
        44.300          39.800
 07  1  1  0 42  0.0000000  0 10G16G21G29G22G18G26G 3G 6G15G 7
  22682409.655    22682409.088    22682406.412    -8444684.996 5  -6580268.905 4
        35.600          25.900
  20297723.281    20297722.771    20297719.456   -24536229.432 7 -19119131.053 8
        43.900          48.200
  22513206.105    22513205.889    22513203.262   -10010416.967 5  -7800315.919 4
        32.400          28.800
  23437874.575    23437874.435    23437871.190    -6157561.531 4  -4798097.373 4
        28.800          27.100
  21234223.925    21234223.540    21234220.660   -19089395.336 7 -14874842.802 6
        45.500          40.400
  21901210.465    21901210.387    21901208.693   -13063163.876 5 -10179080.885 5
        35.200          31.500
  23590332.802    23590331.661    23590330.251    -3796034.825 4  -2957947.862 2
        26.200          15.100
  22024914.799    22024914.375    22024912.743   -13636993.095 6 -10626221.198 5
        36.900          31.100
  20678622.577    20678621.863    20678620.357   -20510000.521 7 -15981810.660 7
        46.800          42.900
  21115035.818    21115035.182    21115034.012   -18788537.807 7 -14640410.702 6
        44.000          39.900
 07  1  1  0 42 30.0000000  0 10G16G21G29G22G18G26G 3G 6G15G 7
  22688238.654    22688238.278    22688235.404    -8414053.110 5  -6556399.902 4
        35.100          25.600
  20295630.004    20295629.416    20295626.196   -24547229.952 7 -19127702.880 8
        44.000          48.300
  22515767.409    22515767.108    22515765.095    -9996955.809 5  -7789826.693 4
        32.600          29.700
  23418488.412    23418487.834    23418484.290    -6259439.018 4  -4877482.402 4
        27.900          24.600
  21222805.015    21222804.580    21222801.828   -19149401.780 7 -14921601.055 6
        45.200          40.400
  21896951.687    21896951.618    21896949.660   -13085546.325 5 -10196521.742 5
        35.700          31.500
  23571706.150    23571705.602    23571704.985    -3893913.181 4  -3034216.662 2
        24.600          16.100
  22041709.283    22041709.000    22041707.386   -13548737.537 6 -10557450.644 5
        36.700          31.100
  20669051.704    20669051.003    20669049.496   -20560295.778 7 -16021001.744 7
        46.900          42.800
  21126974.582    21126973.960    21126973.030   -18725798.278 7 -14591522.756 6
        44.000          39.900
 07  1  1  0 43  0.0000000  0 10G16G21G29G22G18G26G 3G 6G15G 7
  22694170.536    22694170.028    22694167.350    -8382880.772 5  -6532109.760 4
        35.200          25.900
  20293601.263    20293600.710    20293597.381   -24557891.195 7 -19136010.335 8
        44.100          48.300
  22518444.190    22518443.898    22518441.767    -9982889.508 5  -7778865.929 4
        32.800          29.900
  23399138.393    23399138.058    23399134.567    -6361122.681 4  -4956716.408 3
        28.600          22.600
  21211464.245    21211463.856    21211461.128   -19208997.435 7 -14968039.207 6
        45.300          40.500
  21892824.843    21892824.691    21892822.646   -13107233.262 5 -10213420.639 5
        35.600          31.800
  23553123.846    23553123.229    23553121.788    -3991565.826 4  -3110309.577 2
        24.600          17.000
  22058562.750    22058562.556    22058561.151   -13460170.841 6 -10488437.641 5
        36.400          31.500
  20659537.434    20659536.787    20659535.368   -20610292.668 7 -16059960.331 7
        46.700          43.000
  21138994.004    21138993.215    21138992.217   -18662637.329 7 -14542306.434 6
        43.800          40.000
 07  1  1  0 43 30.0000000  0 10G16G21G29G22G18G26G 3G 6G15G 7
  22700205.779    22700205.486    22700202.699    -8351164.854 5  -6507396.072 4
        35.600          25.900
  20291638.197    20291637.535    20291634.212   -24568207.550 7 -19144049.048 8
        43.900          48.300
  22521236.699    22521236.363    22521234.502    -9968213.507 5  -7767430.065 4
        32.300          29.500
  23379828.149    23379827.293    23379822.951    -6462606.033 5  -5035794.349 3
        31.000          23.400
  21200203.077    21200202.523    21200199.776   -19268176.006 7 -15014152.358 6
        45.100          40.600
  21888831.160    21888831.132    21888829.158   -13128218.467 5 -10229772.731 5
        35.300          31.600
  23534583.680    23534584.130    23534583.745    -4088985.528 4  -3186220.999 2
        24.200          17.800
  22075476.404    22075476.136    22075474.530   -13371289.927 6 -10419179.808 5
        36.400          31.500
  20650081.383    20650080.611    20650079.121   -20659985.433 7 -16098681.944 7
        46.600          42.800
  21151093.996    21151093.281    21151092.202   -18599051.287 7 -14492758.871 6
        43.800          39.800
 07  1  1  0 44  0.0000000  0 10G16G21G29G22G18G26G 3G 6G15G 7
  22706343.564    22706343.169    22706340.781    -8318908.840 5  -6482261.502 4
        34.900          26.200
  20289740.136    20289739.604    20289736.320   -24578180.774 7 -19151820.385 8
        43.800          48.300
  22524145.063    22524144.752    22524142.934    -9952930.466 5  -7755521.193 4
        32.300          29.900
  23360553.556    23360553.162    23360549.825    -6563889.552 4  -5114716.564 4
        29.500          25.600
  21189020.866    21189020.333    21189017.531   -19326938.783 7 -15059941.505 6
        45.300          40.700
  21884970.869    21884970.816    21884969.171   -13148502.767 5 -10245578.678 5
        34.900          31.600
  23516090.425    23516090.557    23516089.722    -4186171.857 4  -3261950.559 3
        24.600          19.900
  22092448.903    22092448.618    22092447.088   -13282098.692 6 -10349680.147 5
        36.300          31.500
  20640682.722    20640681.994    20640680.479   -20709375.379 7 -16137167.597 7
        46.800          43.000
  21163274.139    21163273.548    21163272.335   -18535043.689 7 -14442882.825 6
        44.000          39.700
 07  1  1  0 44 30.0000000  0 10G16G21G29G22G18G26G 3G 6G15G 7
  22712584.585    22712584.203    22712582.153    -8286112.465 5  -6456705.887 4
        34.800          26.800
  20287908.089    20287907.468    20287904.154   -24587808.972 7 -19159322.867 8
        43.700          48.100
  22527169.153    22527168.787    22527166.958    -9937039.124 5  -7743138.317 4
        32.800          29.700
  23341318.086    23341317.888    23341314.833    -6664970.064 4  -5193480.574 4
        29.900          24.900
  21177918.117    21177917.675    21177914.911   -19385283.307 7 -15105404.745 6
        45.100          40.700
  21881245.144    21881244.975    21881243.073   -13168083.505 5 -10260836.379 5
        35.200          31.100
  23497641.706    23497641.493    23497640.688    -4283120.912 3  -3337495.235 2
        22.600          17.000
  22109480.396    22109480.139    22109478.786   -13192597.166 6 -10279938.716 5
        36.100          31.300
  20631342.234    20631341.498    20631339.930   -20758459.974 7 -16175415.312 7
        46.800          42.900
  21175534.984    21175534.229    21175532.963   -18470613.997 7 -14392677.880 6
        43.900          39.800
 07  1  1  0 45  0.0000000  0 10G16G21G29G22G18G26G 3G 6G15G 7
  22718929.450    22718928.731    22718926.784    -8252771.903 5  -6430726.218 4
        34.500          26.500
  20286142.533    20286142.015    20286138.685   -24597086.335 7 -19166551.973 8
        43.800          48.200
  22530310.059    22530309.829    22530307.592    -9920534.184 5  -7730277.313 5
        32.700          30.200
  23322124.002    23322123.671    23322119.517    -6765839.981 5  -5272080.502 4
        32.300          24.200
  21166896.346    21166895.935    21166893.182   -19443202.900 7 -15150536.870 6
        45.100          41.000
  21877654.741    21877654.455    21877651.865   -13186953.742 5 -10275540.456 5
        35.800          30.600
  23479239.577    23479239.027    23479238.405    -4379824.516 3  -3412848.647 2
        22.600          16.100
  22126571.762    22126571.627    22126570.046   -13102781.402 6 -10209952.415 5
        36.400          30.400
  20622061.180    20622060.409    20622058.723   -20807232.646 7 -16213419.975 7
        46.600          42.900
  21187876.766    21187875.954    21187874.682   -18405757.779 7 -14342140.568 6
        43.600          39.500
 07  1  1  0 45 30.0000000  0 10G16G21G29G22G18G26G 3G 6G15G 7
  22725373.904    22725373.569    22725371.321    -8218904.066 5  -6404335.690 4
        34.900          26.800
  20284441.181    20284440.568    20284437.189   -24606027.686 7 -19173519.255 8
        43.900          48.200
  22533564.213    22533564.054    22533562.166    -9903431.547 5  -7716950.570 4
        32.700          29.500
  23302965.969    23302965.678    23302961.262    -6866513.205 5  -5350527.179 3
        31.600          19.900
  21155952.993    21155952.375    21155949.589   -19500712.014 7 -15195349.138 6
        45.100          41.100
  21874195.872    21874195.913    21874193.725   -13205127.810 5 -10289702.055 5
        35.800          31.300
  23460883.487    23460882.512    23460880.671    -4476295.498 4  -3488020.828 2
        24.200          15.100
  22143719.872    22143719.415    22143717.936   -13012668.509 6 -10139734.588 5
        36.000          30.600
  20612836.632    20612835.883    20612834.202   -20855707.977 7 -16251192.948 7
        46.700          42.900
  21200296.373    21200295.655    21200294.469   -18340491.664 7 -14291283.862 6
        43.700          39.500
 07  1  1  0 46  0.0000000  0 10G16G21G29G22G18G26G 3G 6G15G 7
  22731921.952    22731921.343    22731918.964    -8184495.360 5  -6377523.698 4
        35.100          26.800
  20282806.310    20282805.895    20282802.727   -24614617.337 7 -19180212.486 8
        43.800          48.300
  22536935.678    22536935.316    22536933.295    -9885716.776 5  -7703146.832 4
        33.100          29.700
  23283848.558    23283848.442    23283844.828    -6966972.898 4  -5428807.437 4
        29.900          25.900
  21145090.375    21145089.867    21145087.074   -19557794.635 7 -15239829.075 6
        45.300          41.200
  21870873.061    21870873.080    21870870.960   -13222589.484 6 -10303308.550 5
        36.000          31.100
  23442572.344    23442571.921    23442570.140    -4572516.542 4  -3562998.275 2
        26.800          13.900
  22160926.386    22160926.367    22160925.143   -12922245.218 5 -10069274.886 5
        35.900          31.000
  20603671.745    20603670.961    20603669.358   -20903870.009 7 -16288721.791 7
        46.800          43.100
  21212796.964    21212796.149    21212794.903   -18274801.804 7 -14240096.964 6
        43.900          39.500
 07  1  1  0 46 30.0000000  0 10G16G21G29G22G18G26G 3G 6G15G 7
  22738570.565    22738569.895    22738567.165    -8149557.951 5  -6350299.748 4
        35.100          25.600
  20281236.796    20281236.362    20281233.163   -24622865.309 7 -19186639.470 8
        43.800          48.300
  22540420.593    22540420.582    22540418.542    -9867400.891 5  -7688874.708 4
        32.600          29.700
  23264770.611    23264770.441    23264766.920    -7067227.927 5  -5506928.186 4
        30.400          25.900
  21134307.268    21134306.725    21134303.898   -19614460.400 7 -15283984.191 6
        45.300          41.400
  21867684.076    21867684.095    21867681.458   -13239348.438 6 -10316367.462 5
        36.000          31.100
  23424307.904    23424307.485    23424306.022    -4668495.736 4  -3637787.236 2
        27.400          17.000
  22178190.469    22178190.092    22178188.854   -12831523.878 5  -9998582.946 5
        35.400          31.000
  20594564.378    20594563.685    20594562.261   -20951728.388 7 -16326014.021 7
        46.900          43.200
  21225375.568    21225374.853    21225373.611   -18208700.062 7 -14188589.115 6
        43.600          39.000
 07  1  1  0 47  0.0000000  0 10G16G21G29G22G18G26G 3G 6G15G 7
  22745319.804    22745319.071    22745316.491    -8114090.353 5  -6322662.651 4
        34.700          25.600
  20279732.975    20279732.474    20279729.268   -24630768.072 7 -19192797.465 8
        43.600          48.300
  22544021.074    22544020.764    22544018.802    -9848481.323 5  -7674132.176 4
        32.100          29.900
  23245732.435    23245732.366    23245728.771    -7167273.404 5  -5584885.667 4
        31.300          24.600
  21123604.191    21123603.750    21123600.828   -19670705.212 7 -15327811.292 6
        45.400          41.400
  21864629.288    21864629.269    21864627.117   -13255400.464 6 -10328875.521 5
        36.000          31.500
  23406090.963    23406090.316    23406089.110    -4764227.483 4  -3712383.398 2
        25.600          17.000
  22195511.083    22195510.896    22195509.769   -12740503.014 5  -9927657.617 5
        35.500          32.000
  20585515.763    20585515.148    20585513.639   -20999279.159 7 -16363066.561 7
        47.100          43.500
  21238033.129    21238032.276    21238031.122   -18142184.539 7 -14136758.839 6
        43.600          39.100
 07  1  1  0 47 30.0000000  0 10G16G21G29G22G18G26G 3G 6G15G 7
  22752170.224    22752169.663    22752166.944    -8078091.611 5  -6294611.684 4
        34.800          25.600
  20278295.401    20278294.833    20278291.544   -24638323.272 7 -19198684.629 8
        43.800          48.200
  22547736.719    22547736.500    22547734.233    -9828956.371 5  -7658917.919 4
        32.600          29.200
  23226734.636    23226734.663    23226730.955    -7267105.718 4  -5662677.034 3
        29.900          21.600
  21112981.879    21112981.401    21112978.463   -19726525.749 7 -15371307.786 6
        45.400          41.400
  21861710.024    21861710.084    21861707.874   -13270742.264 6 -10340830.155 5
        36.400          31.800
  23387921.944    23387921.183    23387919.990    -4859706.890 4  -3786782.918 3
        25.900          21.100
  22212889.407    22212888.945    22212887.354   -12649182.120 5  -9856498.492 5
        35.700          31.000
  20576526.464    20576525.739    20576524.084   -21046519.100 7 -16399876.897 7
        47.300          43.400
  21250769.558    21250768.676    21250767.501   -18075254.126 7 -14084605.278 6
        43.300          39.000
 07  1  1  0 48  0.0000000  0 10G16G21G29G22G18G26G 3G 6G15G 7
  22759120.132    22759119.684    22759117.535    -8041566.087 5  -6266150.235 4
        34.100          25.900
  20276923.612    20276923.128    20276919.748   -24645532.133 7 -19204301.927 8
        43.700          48.200
  22551566.814    22551566.515    22551564.116    -9808828.464 5  -7643233.827 4
        32.600          29.700
  23207777.874    23207777.974    23207774.363    -7366724.978 5  -5740302.412 3
        30.400          23.800
  21102440.264    21102439.650    21102436.628   -19781923.175 7 -15414474.592 6
        45.300          41.300
  21858925.533    21858925.490    21858923.337   -13285374.691 6 -10352232.036 5
        36.400          31.500
  23369800.255    23369799.681    23369799.209    -4954933.482 4  -3860985.427 3
        24.200          21.100
  22230323.375    22230323.017    22230321.302   -12557564.874 5  -9785108.443 4
        35.200          29.500
  20567595.909    20567595.270    20567593.592   -21093449.228 7 -16436445.818 7
        47.200          43.600
  21263584.279    21263583.563    21263582.184   -18007912.270 7 -14032131.107 6
        43.300          38.700
 07  1  1  0 48 30.0000000  0 10G16G21G29G22G18G26G 3G 6G15G 7
  22766171.940    22766171.420    22766169.206    -8004510.404 5  -6237275.661 4
        33.600          26.500
  20275618.690    20275618.105    20275614.790   -24652389.709 7 -19209645.492 8
        43.700          48.300
  22555512.725    22555512.272    22555510.002    -9788093.800 5  -7627076.938 4
        32.700          29.200
  23188862.996    23188863.056    23188859.382    -7466124.774 5  -5817756.767 4
        31.500          25.900
  21091979.952    21091979.449    21091976.440   -19836891.914 7 -15457307.348 6
        45.300          41.600
  21856276.719    21856276.726    21856274.807   -13299292.411 5 -10363076.989 5
        35.800          32.100
  23351728.887    23351728.408    23351727.840    -5049900.333 4  -3934985.521 3
        26.200          19.900
  22247814.534    22247814.128    22247812.467   -12465648.409 5  -9713485.233 5
        34.700          30.200
  20558725.404    20558724.707    20558723.125   -21140064.052 7 -16472769.053 7
        47.300          43.700
  21276477.841    21276477.094    21276475.888   -17940155.415 7 -13979333.561 6
        43.200          38.500
 07  1  1  0 49  0.0000000  0 10G16G21G29G22G18G26G 3G 6G15G 7
  22773322.840    22773322.270    22773320.183    -7966931.283 5  -6207993.229 4
        34.000          25.900
  20274379.672    20274379.031    20274375.861   -24658900.685 7 -19214718.982 8
        43.600          48.300
  22559572.352    22559572.150    22559570.224    -9766757.773 5  -7610451.452 4
        32.100          29.900
  23169989.015    23169989.137    23169985.653    -7565308.524 5  -5895042.766 4
        32.300          27.100
  21081600.344    21081599.902    21081597.042   -19891436.281 7 -15499809.434 6
        45.300          41.900
  21853763.487    21853763.607    21853761.718   -13312499.411 6 -10373368.146 5
        36.100          31.800
  23333706.509    23333705.481    23333704.652    -5144609.893 3  -4008785.148 3
        23.800          19.900
  22265361.165    22265360.806    22265359.340   -12373439.553 5  -9641634.190 4
        34.600          29.200
  20549914.097    20549913.446    20549911.915   -21186367.677 7 -16508849.796 7
        47.400          43.800
  21289449.333    21289448.632    21289447.269   -17871989.953 7 -13926217.623 6
        43.000          38.400
 07  1  1  0 49 30.0000000  0 10G16G21G29G22G18G26G 3G 6G15G 7
  22780574.281    22780573.628    22780571.289    -7928827.798 5  -6178302.201 4
        34.600          26.200
  20273207.119    20273206.572    20273203.373   -24665062.157 7 -19219520.127 8
        43.700          48.300
  22563747.366    22563747.106    22563745.189    -9744818.683 5  -7593356.045 4
        32.800          28.800
  23151157.166    23151156.791    23151153.303    -7664271.996 5  -5972157.120 4
        31.600          26.800
  21071302.560    21071302.002    21071299.060   -19945552.602 7 -15541977.973 6
        45.300          41.900
  21851386.181    21851385.967    21851384.283   -13324992.363 5 -10383102.900 5
        35.800          32.100
  23315733.503    23315732.955    23315732.339    -5239057.167 4  -4082380.377 3
        26.500          22.100
  22282963.656    22282963.319    22282961.791   -12280937.498 5  -9569554.678 4
        35.100          28.800
  20541162.804    20541162.077    20541160.409   -21232356.891 7 -16544685.544 7
        47.300          43.700
  21302498.664    21302498.016    21302496.703   -17803414.843 7 -13872782.471 6
        42.900          38.100
 07  1  1  0 50  0.0000000  0 10G16G21G29G22G18G26G 3G 6G15G 7
  22787922.155    22787921.710    22787919.729    -7890210.377 5  -6148210.706 4
        34.000          26.500
  20272099.725    20272099.137    20272095.830   -24670882.039 7 -19224055.102 8
        43.900          48.300
  22568035.308    22568035.084    22568032.807    -9722285.846 5  -7575797.986 4
        32.400          29.000
  23132366.112    23132365.498    23132361.839    -7763022.357 5  -6049105.427 4
        32.300          27.900
  21061084.362    21061083.871    21061080.886   -19999249.160 7 -15583819.427 7
        45.300          42.100
  21849143.424    21849143.227    21849141.250   -13336779.131 5 -10392287.377 5
        35.700          32.100
  23297809.686    23297809.374    23297808.234    -5333248.269 4  -4155775.984 3
        28.100          21.100
  22300620.212    22300619.844    22300618.189   -12188152.823 5  -9497254.947 4
        34.700          29.900
  20532469.788    20532468.953    20532467.259   -21278039.203 7 -16580282.145 7
        47.200          43.800
  21315624.240    21315623.484    21315622.212   -17734439.969 7 -13819035.816 6
        42.800          38.100
 07  1  1  0 50 30.0000000  0 10G16G21G29G22G18G26G 3G 6G15G 7
  22795370.653    22795370.240    22795368.337    -7851067.211 5  -6117709.541 4
        33.200          26.200
  20271059.910    20271059.411    20271055.988   -24676346.293 7 -19228312.965 8
        43.800          48.200
  22572438.697    22572438.473    22572436.290    -9699146.051 5  -7557766.983 4
        33.000          29.200
  23113617.445    23113617.184    23113613.438    -7861544.080 5  -6125875.577 4
        31.500          28.100
  21050948.951    21050948.377    21050945.390   -20052510.972 7 -15625322.126 7
        45.300          42.200
  21847037.510    21847037.529    21847035.496   -13347844.787 5 -10400909.951 5
        35.800          31.600
  23279937.665    23279937.077    23279935.791    -5427166.804 4  -4228959.245 3
        27.600          22.600
  22318332.502    22318332.360    22318330.885   -12095073.245 5  -9424725.418 4
        34.600          29.900
  20523837.612    20523836.974    20523835.402   -21323399.790 7 -16615628.053 7
        47.100          43.800
  21328828.095    21328827.423    21328826.317   -17665052.650 7 -13764967.780 6
        42.600          38.200
 07  1  1  0 51  0.0000000  0 10G16G21G29G22G18G26G 3G 6G15G 7
  22802916.800    22802916.252    22802914.397    -7811412.621 5  -6086809.856 4
        32.800          25.900
  20270085.442    20270084.908    20270081.461   -24681467.232 7 -19232303.311 8
        43.800          48.200
  22576954.822    22576954.666    22576952.432    -9675413.064 5  -7539273.724 4
        32.800          29.500
  23094910.562    23094910.280    23094906.605    -7959848.353 5  -6202476.287 4
        31.000          27.600
  21040893.713    21040893.314    21040890.395   -20105350.155 7 -15666495.500 7
        45.300          42.000
  21845066.718    21845066.627    21845064.632   -13358201.775 6 -10408980.305 5
        36.200          31.600
  23262115.375    23262114.858    23262113.369    -5520823.394 4  -4301938.333 3
        26.500          20.500
  22336098.570    22336098.108    22336096.778   -12001713.515 5  -9351977.588 4
        34.600          29.700
  20515264.663    20515263.978    20515262.464   -21368450.874 7 -16650732.794 7
        47.200          43.700
  21342107.910    21342107.155    21342105.956   -17595267.358 7 -13710589.636 6
        42.700          38.100
 07  1  1  0 51 30.0000000  0 10G16G21G29G22G18G26G 3G 6G15G 7
  22810561.105    22810560.527    22810558.243    -7771243.924 5  -6055509.567 4
        33.500          26.200
  20269176.889    20269176.405    20269173.154   -24686240.625 7 -19236022.839 8
        43.900          48.200
  22581584.886    22581584.528    22581582.333    -9651083.136 5  -7520315.341 4
        32.600          29.200
  23076246.480    23076246.180    23076242.468    -8057928.943 5  -6278902.697 4
        31.100          26.500
  21030920.370    21030919.892    21030917.016   -20157760.979 7 -15707335.093 7
        45.300          42.400
  21843232.005    21843231.956    21843229.717   -13367844.684 6 -10416494.246 5
        36.500          32.100
  23244344.202    23244343.695    23244341.522    -5614210.806 4  -4374707.719 2
        27.600          13.900
  22353917.529    22353917.608    22353916.092   -11908071.002 5  -9279009.422 4
        34.300          29.200
  20506751.581    20506750.964    20506749.479   -21413186.957 7 -16685592.075 7
        47.000          43.800
  21355464.065    21355463.314    21355462.165   -17525080.900 7 -13655898.891 6
        42.700          38.400
 07  1  1  0 52  0.0000000  0 10G16G21G29G22G18G26G 3G 6G15G 7
  22818303.241    22818302.952    22818300.374    -7730558.855 5  -6023806.923 4
        34.800          26.200
  20268335.754    20268335.240    20268331.989   -24690661.547 7 -19239467.713 8
        43.600          48.200
  22586328.728    22586328.416    22586326.663    -9626152.827 5  -7500889.124 4
        31.800          29.700
  23057626.389    23057626.217    23057622.221    -8155780.176 5  -6355150.400 4
        34.100          26.800
  21021029.324    21021028.827    21021025.994   -20209738.870 7 -15747837.334 7
        45.300          42.600
  21841533.498    21841533.501    21841531.640   -13376768.924 6 -10423448.171 5
        36.100          32.300
  23226625.282    23226624.688    23226623.689    -5707322.745 4  -4447262.441 3
        26.500          19.300
  22371791.999    22371791.576    22371789.897   -11814143.350 5  -9205819.055 4
        34.700          28.800
  20498299.585    20498298.924    20498297.387   -21457603.066 7 -16720202.029 7
        47.100          43.900
  21368896.935    21368896.153    21368895.105   -17454490.591 7 -13600893.458 6
        42.500          38.400
 07  1  1  0 52 30.0000000  0 10G16G21G29G22G18G26G 3G 6G15G 7
  22826143.337    22826142.890    22826140.714    -7689357.439 5  -5991701.914 4
        33.900          25.600
  20267562.050    20267561.491    20267558.302   -24694727.632 7 -19242636.093 8
        43.700          48.300
  22591187.414    22591187.091    22591184.773    -9600621.820 5  -7480994.827 4
        32.700          28.800
  23039049.827    23039049.616    23039045.846    -8253399.201 5  -6431217.170 4
        33.600          27.600
  21011221.376    21011220.657    21011217.608   -20261281.839 7 -15788000.678 7
        45.400          42.400
  21839972.459    21839972.386    21839970.441   -13384972.467 6 -10429840.527 5
        36.000          32.000
  23208960.216    23208959.806    23208957.603    -5800155.272 4  -4519599.408 3
        29.000          19.300
  22389719.714    22389719.514    22389717.929   -11719931.094 5  -9132406.923 4
        34.400          28.600
  20489908.582    20489908.028    20489906.540   -21501697.080 7 -16754561.000 7
        47.000          43.700
  21382406.791    21382405.997    21382404.602   -17383496.548 7 -13545573.432 6
        42.700          38.100
 07  1  1  0 53  0.0000000  0 10G16G21G29G22G18G26G 3G 6G15G 7
  22834080.783    22834080.209    22834077.857    -7647647.970 5  -5959201.030 4
        34.400          24.600
  20266854.762    20266854.160    20266850.912   -24698444.555 7 -19245532.391 8
        43.900          48.300
  22596158.833    22596158.460    22596156.067    -9574496.393 5  -7460637.340 4
        33.000          28.800
  23020516.530    23020516.395    23020512.770    -8350790.132 5  -6507106.174 4
        32.700          25.300
  21001494.847    21001494.244    21001491.159   -20312394.432 7 -15827828.667 7
        45.400          42.500
  21838547.742    21838547.546    21838545.423   -13392460.160 6 -10435675.085 5
        36.300          32.300
  23191346.894    23191346.453    23191345.319    -5892711.685 4  -4591721.277 3
        27.400          22.100
  22407700.504    22407700.358    22407698.630   -11625441.701 5  -9058778.840 4
        34.300          28.800
  20481578.263    20481577.608    20481576.089   -21545473.672 7 -16788672.627 7
        46.900          43.800
  21395992.205    21395991.325    21395989.844   -17312105.699 7 -13489944.201 6
        42.600          37.800
 07  1  1  0 53 30.0000000  0 10G16G21G29G22G18G26G 3G 6G15G 7
  22842114.191    22842113.697    22842111.366    -7605429.552 5  -5926303.573 4
        33.500          24.900
  20266214.332    20266213.744    20266210.500   -24701809.677 7 -19248154.564 8
        43.800          48.300
  22601243.752    22601243.444    22601241.214    -9547774.955 5  -7439815.430 4
        33.000          28.800
  23002028.113    23002027.969    23002024.051    -8447948.482 5  -6582813.969 4
        33.000          24.200
  20991850.923    20991850.329    20991847.287   -20363073.532 7 -15867318.866 7
        45.300          42.900
  21837259.441    21837259.424    21837257.245   -13399228.962 6 -10440949.454 5
        36.000          32.300
  23173787.965    23173787.204    23173785.927    -5984986.714 4  -4663623.844 3
        27.600          23.000
  22425734.302    22425734.061    22425732.282   -11530674.334 5  -8984934.154 4
        34.300          28.800
  20473309.102    20473308.316    20473306.805   -21588929.369 7 -16822534.206 7
        46.900          43.900
  21409652.917    21409652.162    21409650.950   -17240316.945 7 -13434004.914 6
        42.400          38.000
 07  1  1  0 54  0.0000000  0 10G16G21G29G22G18G26G 3G 6G15G 7
  22850244.285    22850243.955    22850241.604    -7562705.348 5  -5893011.974 4
        34.100          24.200
  20265640.734    20265640.190    20265636.962   -24704823.756 7 -19250503.192 8
        43.900          48.300
  22606441.377    22606441.012    22606439.053    -9520459.729 5  -7418530.837 4
        32.100          28.400
  22983583.863    22983583.735    22983579.426    -8544874.166 5  -6658340.460 4
        33.900          25.300
  20982289.398    20982288.852    20982285.709   -20413319.840 7 -15906471.826 7
        45.400          42.800
  21836108.432    21836108.133    21836105.831   -13405279.671 5 -10445664.277 5
        35.800          31.800
  23156281.727    23156281.110    23156280.313    -6076979.285 4  -4735306.330 3
        25.900          20.500
  22443820.016    22443819.761    22443818.317   -11435632.212 5  -8910875.372 4
        33.500          28.800
  20465100.767    20465099.974    20465098.437   -21632064.628 7 -16856146.094 7
        46.900          44.100
  21423388.822    21423388.042    21423387.064   -17168133.057 7 -13377757.734 6
        42.100          37.900
 07  1  1  0 54 30.0000000  0 10G16G21G29G22G18G26G 3G 6G15G 7
  22858470.551    22858470.087    22858467.402    -7519478.673 5  -5859328.849 4
        34.500          24.900
  20265133.801    20265133.285    20265130.032   -24707487.746 7 -19252579.027 8
        43.700          48.300
  22611751.799    22611751.672    22611749.194    -9492552.871 5  -7396785.232 4
        32.100          28.800
  22965183.820    22965183.542    22965180.001    -8641566.793 5  -6733685.334 4
        33.200          27.400
  20972810.225    20972809.618    20972806.424   -20463133.691 7 -15945287.811 7
        45.500          42.900
  21835093.138    21835092.969    21835091.159   -13410612.964 5 -10449820.080 5
        35.700          32.400
  23138830.377    23138829.693    23138828.928    -6168688.310 4  -4806767.842 3
        27.100          22.100
  22461957.939    22461957.539    22461955.865   -11340318.552 5  -8836605.003 4
        33.200          28.800
  20456952.975    20456952.420    20456950.958   -21674879.812 7 -16889508.572 7
        47.000          44.000
  21437199.594    21437198.877    21437197.863   -17095556.899 7 -13321204.891 6
        42.200          37.400
 07  1  1  0 55  0.0000000  0 10G16G21G29G22G18G26G 3G 6G15G 7
  22866791.611    22866790.945    22866788.382    -7475750.487 5  -5825254.941 3
        33.900          23.000
  20264693.750    20264693.184    20264689.990   -24709800.384 7 -19254381.078 8
        43.700          48.400
  22617175.075    22617174.799    22617172.319    -9464054.651 5  -7374578.820 4
        32.400          27.600
  22946828.230    22946828.138    22946824.938    -8738024.362 5  -6808847.028 4
        33.600          29.200
  20963413.568    20963412.906    20963409.712   -20512513.579 7 -15983765.646 7
        45.300          43.000
  21834215.048    21834214.839    21834212.956   -13415227.765 6 -10453416.014 5
        36.000          32.300
  23121433.745    23121432.977    23121430.994    -6260110.403 4  -4878005.829 3
        28.600          22.600
  22480146.707    22480146.488    22480145.074   -11244734.296 5  -8762123.790 4
        33.200          28.600
  20448866.919    20448866.282    20448864.739   -21717373.300 7 -16922620.383 7
        47.100          44.000
  21451085.100    21451084.239    21451083.154   -17022588.900 6 -13264346.708 6
        41.600          37.200
 07  1  1  0 55 30.0000000  0 10G16G21G29G22G18G26G 3G 6G15G 7
  22875207.236    22875206.565    22875204.425    -7431526.054 5  -5790794.346 4
        33.500          24.600
  20264319.970    20264319.410    20264316.168   -24711764.708 7 -19255911.718 8
        43.800          48.300
  22622710.089    22622709.722    22622706.977    -9434969.161 5  -7351914.794 4
        32.300          28.100
  22928517.034    22928517.038    22928513.928    -8834248.183 5  -6883826.592 4
        32.800          28.800
  20954098.822    20954098.277    20954095.102   -20561462.105 7 -16021907.352 7
        45.200          43.100
  21833472.974    21833472.945    21833470.970   -13419126.716 6 -10456454.143 5
        36.000          32.100
  23104090.598    23104090.106    23104088.645    -6351246.336 4  -4949020.800 3
        28.800          22.600
  22498386.123    22498386.008    22498384.936   -11148884.722 5  -8687435.833 4
        33.100          29.200
  20440841.630    20440840.823    20440839.195   -21759547.529 7 -16955483.416 7
        47.100          44.100
  21465043.792    21465043.162    21465042.139   -16949233.952 6 -13207187.014 6
        41.800          37.400
 07  1  1  0 56  0.0000000  0 10G16G21G29G22G18G26G 3G 6G15G 7
  22883718.110    22883717.416    22883714.799    -7386801.398 5  -5755943.960 3
        34.300          23.800
  20264013.807    20264013.157    20264009.952   -24713373.863 7 -19257165.600 8
        43.800          48.400
  22628357.651    22628357.158    22628354.473    -9405291.453 5  -7328789.302 4
        32.600          28.400
  22910252.592    22910252.301    22910249.148    -8930230.660 5  -6958618.081 4
        32.300          29.500
  20944867.559    20944867.045    20944863.920   -20609972.443 7 -16059707.612 7
        45.200          43.200
  21832868.880    21832868.684    21832866.431   -13422303.438 6 -10458929.493 5
        36.500          32.600
  23086804.464    23086804.138    23086802.693    -6442087.619 5  -5019806.204 3
        30.600          22.100
  22516677.055    22516676.991    22516675.821   -11052765.525 5  -8612537.778 4
        32.400          28.600
  20432878.052    20432877.412    20432875.754   -21801395.523 7 -16988092.239 7
        47.300          44.100
  21479077.563    21479076.730    21479075.558   -16875487.578 6 -13149722.313 6
        41.400          37.100
 07  1  1  0 56 30.0000000  0 10G16G21G29G22G18G26G 3G 6G15G 7
  22892323.480    22892322.793    22892320.245    -7341581.425 5  -5720707.629 4
        33.500          25.300
  20263774.565    20263773.987    20263770.725   -24714630.864 7 -19258145.072 8
        43.800          48.200
  22634116.469    22634116.217    22634114.027    -9375025.549 5  -7305205.465 4
        31.800          27.400
  22892033.552    22892033.236    22892029.960    -9025973.303 5  -7033222.685 4
        33.100          29.900
  20935719.208    20935718.598    20935715.653   -20658047.243 7 -16097168.491 7
        45.000          43.200
  21832400.838    21832400.776    21832398.780   -13424760.603 6 -10460844.156 5
        36.000          32.100
  23069573.499    23069573.398    23069571.582    -6532634.911 4  -5090362.515 3
        29.500          21.100
  22535018.529    22535018.256    22535016.892   -10956381.780 5  -8537433.585 4
        33.600          28.600
  20424976.398    20424975.706    20424974.054   -21842919.463 7 -17020448.556 7
        47.300          44.100
  21493184.486    21493183.887    21493182.629   -16801354.263 6 -13091956.100 6
        41.700          36.900
 07  1  1  0 57  0.0000000  0 10G16G21G29G22G18G26G 3G 6G15G 7
  22901023.390    22901022.728    22901020.061    -7295862.613 5  -5685082.585 4
        33.400          24.900
  20263603.319    20263602.899    20263599.671   -24715529.929 7 -19258845.640 8
        43.800          48.300
  22639988.274    22639988.169    22639986.617    -9344167.021 5  -7281159.849 4
        32.000          29.000
  22873861.548    22873861.340    22873857.436    -9121469.036 5  -7107634.901 4
        34.800          28.600
  20926654.953    20926654.416    20926651.412   -20705680.006 7 -16134284.927 7
        45.100          43.300
  21832071.050    21832071.026    21832069.226   -13426492.396 5 -10462193.589 5
        35.800          32.400
  23052399.721    23052399.639    23052398.226    -6622880.213 4  -5160683.515 3
        28.600          20.500
  22553410.685    22553410.445    22553409.130   -10859729.762 5  -8462120.340 4
        33.200          27.400
  20417137.816    20417136.990    20417135.294   -21884112.925 7 -17052547.356 7
        47.200          44.300
  21507366.068    21507365.311    21507364.164   -16726830.054 6 -13033885.294 6
        41.100          36.800
 07  1  1  0 57 30.0000000  0 10G16G21G29G22G18G26G 3G 6G15G 7
  22909815.734    22909815.068    22909812.875    -7249657.376 5  -5649078.517 4
        33.400          24.200
  20263498.624    20263498.047    20263494.802   -24716081.101 7 -19259275.120 8
        43.800          48.300
  22645971.401    22645971.224    22645969.338    -9312727.409 5  -7256661.445 4
        32.300          28.800
  22855734.224    22855734.083    22855730.138    -9216726.992 5  -7181861.836 4
        34.500          28.100
  20917672.873    20917672.323    20917669.358   -20752881.068 7 -16171064.972 7
        44.800          43.500
  21831877.919    21831877.662    21831875.752   -13427509.026 5 -10462985.764 5
        35.800          32.700
  23035283.010    23035282.929    23035281.265    -6712831.439 5  -5230775.353 3
        30.100          23.400
  22571851.487    22571851.380    22571849.976   -10762821.880 5  -8386607.723 4
        32.700          28.100
  20409359.817    20409359.088    20409357.502   -21924985.570 7 -17084396.166 7
        47.300          44.300
  21521619.452    21521618.875    21521617.711   -16651926.810 6 -12975519.140 6
        41.000          36.500
 07  1  1  0 58  0.0000000  0 10G16G21G29G22G18G26G 3G 6G15G 7
  22918702.712    22918702.074    22918700.150    -7202954.328 5  -5612686.544 4
        32.400          24.200
  20263462.665    20263462.020    20263458.915   -24716269.945 7 -19259422.265 8
        43.800          48.300
  22652067.694    22652067.370    22652064.900    -9280694.084 5  -7231700.415 4
        32.600          28.600
  22837655.410    22837655.246    22837650.857    -9311731.668 5  -7255891.417 4
        34.700          26.800
  20908775.713    20908775.256    20908772.241   -20799635.730 7 -16207497.179 7
        44.900          43.500
  21831823.216    21831823.041    21831821.262   -13427796.322 6 -10463209.627 5
        36.500          32.700
  23018224.848    23018224.864    23018223.193    -6802472.547 5  -5300625.537 4
        30.600          24.900
  22590343.588    22590343.237    22590341.899   -10665646.392 5  -8310886.578 4
        32.100          27.600
  20401645.907    20401645.123    20401643.452   -21965522.917 7 -17115983.706 7
        47.400          44.300
  21535947.814    21535947.053    21535945.806   -16576632.554 6 -12916848.295 6
        41.200          36.500
 07  1  1  0 58 30.0000000  0 10G16G21G29G22G18G26G 3G 6G15G 7
  22927683.303    22927682.533    22927680.242    -7155763.408 5  -5575914.399 4
        32.700          24.200
  20263494.100    20263493.529    20263490.313   -24716104.640 7 -19259293.454 8
        43.900          48.300
  22658274.441    22658274.159    22658272.281    -9248076.226 5  -7206283.899 4
        32.000          28.600
  22819623.155    22819623.204    22819619.490    -9406489.754 5  -7329728.846 4
        34.700          28.100
  20899962.158    20899961.705    20899958.649   -20845951.331 7 -16243587.256 7
        45.000          43.800
  21831906.049    21831905.736    21831903.811   -13427362.362 6 -10462871.462 5
        36.000          32.100
  23001224.387    23001224.154    23001222.631    -6891808.982 4  -5370238.319 3
        28.800          22.100
  22608885.107    22608884.476    22608882.784   -10568213.152 5  -8234964.592 4
        32.100          26.800
  20393994.176    20393993.519    20393991.922   -22005732.056 7 -17147315.500 7
        47.400          44.600
  21550348.240    21550347.613    21550346.390   -16500956.899 6 -12857880.264 6
        41.200          36.500
 07  1  1  0 59  0.0000000  0 10G16G21G29G22G18G26G 3G 6G15G 7
  22936754.787    22936754.213    22936751.392    -7108093.763 5  -5538769.244 3
        33.400          22.600
  20263591.716    20263591.212    20263587.872   -24715591.748 7 -19258893.793 8
        44.100          48.300
  22664591.270    22664590.945    22664588.621    -9214881.904 5  -7180418.182 4
        32.300          28.400
  22801637.662    22801637.161    22801633.473    -9501006.616 5  -7403378.292 4
        33.600          28.800
  20891230.874    20891230.456    20891227.470   -20891834.235 7 -16279340.161 7
        45.100          43.900
  21832124.079    21832124.171    21832122.159   -13426213.721 6 -10461976.399 5
        36.000          31.800
  22984281.447    22984280.978    22984279.880    -6980845.296 4  -5439617.231 3
        28.800          23.800
  22627472.918    22627472.691    22627470.910   -10470531.029 5  -8158848.694 4
        31.800          26.200
  20386403.928    20386403.229    20386401.690   -22045619.005 7 -17178396.238 7
        47.400          44.500
  21564820.034    21564819.224    21564817.944   -16424908.223 6 -12798621.566 6
        41.000          36.000
 07  1  1  0 59 30.0000000  0 10G16G21G29G22G18G26G 3G 6G15G 7
  22945917.584    22945917.305    22945915.607    -7059937.529 5  -5501244.919 4
        33.000          24.600
  20263757.266    20263756.801    20263753.632   -24714720.880 7 -19258215.191 8
        44.000          48.200
  22671019.384    22671019.112    22671016.623    -9181102.254 5  -7154096.379 4
        32.800          26.800
  22783699.558    22783699.537    22783695.520    -9595270.745 5  -7476830.792 4
        34.600          28.600
  20882583.674    20882583.337    20882580.537   -20937273.882 7 -16314747.674 7
        44.900          44.000
  21832480.771    21832480.541    21832478.556   -13424340.399 5 -10460516.659 5
        35.800          32.400
  22967398.506    22967397.808    22967395.850    -7069568.876 4  -5508752.470 3
        29.500          23.000
  22646110.044    22646109.876    22646107.930   -10372592.108 5  -8082532.667 4
        31.300          27.400
  20378877.040    20378876.338    20378874.829   -22085172.941 7 -17209217.483 7
        47.300          44.400
  21579363.946    21579363.247    21579362.394   -16348478.273 6 -12739065.763 6
        41.200          36.500
                            4  1
other post-header comments skipped                          COMMENT
 07  1  1  1  0  0.0000000  0 10G16G21G29G22G18G26G 3G 6G15G 7
  22955173.569    22955173.120    22955170.560    -7011300.343 5  -5463345.827 3
        33.400          23.000
  20263990.430    20263989.947    20263986.841   -24713495.302 7 -19257260.190 8
        44.100          48.300
  22677557.815    22677557.463    22677554.909    -9146742.089 5  -7127322.212 4
        31.800          26.800
  22765809.794    22765809.542    22765805.331    -9689283.988 5  -7550087.798 4
        35.200          28.800
  20874020.841    20874020.332    20874017.408   -20982273.392 7 -16349812.220 7
        45.000          44.000
  21832974.166    21832974.282    21832972.450   -13421745.701 5 -10458494.808 5
        35.800          32.600
  22950574.203    22950573.377    22950572.425    -7157981.012 4  -5577645.014 4
        28.600          24.600
  22664795.078    22664794.919    22664792.973   -10274401.685 5  -8006020.670 4
        32.100          26.200
  20371413.037    20371412.330    20371410.822   -22124396.542 7 -17239781.320 7
        47.300          44.600
  21593980.111    21593979.176    21593978.044   -16271672.075 6 -12679216.782 6
        41.200          36.300
 07  1  1  1  0 30.0000000  0 10G16G21G29G22G18G26G 3G 6G15G 7
  22964521.167    22964520.305    22964517.724    -6962180.729 5  -5425070.810 3
        33.100          23.000
  20264292.021    20264291.497    20264288.319   -24711910.993 7 -19256025.657 8
        43.800          48.300
  22684206.818    22684206.598    22684204.356    -9111799.056 5  -7100093.876 4
        31.600          27.900
  22747967.586    22747967.585    22747963.596    -9783041.638 5  -7623145.632 4
        35.100          28.400
  20865542.188    20865541.774    20865538.891   -21026828.805 7 -16384530.719 7
        44.900          44.300
  21833606.232    21833606.139    21833604.184   -13418426.170 6 -10455908.147 5
        36.000          33.100
  22933811.085    22933810.237    22933808.721    -7246075.696 5  -5646290.181 4
        30.400          26.800
  22683528.202    22683528.071    22683526.660   -10175958.207 5  -7929311.491 4
        32.000          27.400
  20364012.853    20364012.061    20364010.437   -22163285.496 7 -17270084.396 7
        47.300          44.400
  21608667.655    21608666.947    21608665.649   -16194487.759 6 -12619073.167 6
        41.100          36.300
 07  1  1  1  1  0.0000000  0 10G16G21G29G22G18G26G 3G 6G15G 7
  22973958.087    22973957.770    22973955.173    -6912585.416 5  -5386425.111 3
        33.100          22.600
  20264661.018    20264660.519    20264657.249   -24709972.327 7 -19254515.000 8
        44.100          48.200
  22690965.731    22690965.654    22690963.504    -9076279.123 5  -7072415.997 4
        31.500          27.400
  22730174.650    22730174.443    22730170.471    -9876546.576 5  -7696006.566 4
        35.600          29.900
  20857147.384    20857146.887    20857144.051   -21070943.868 7 -16418906.090 7
        44.900          44.300
  21834374.403    21834374.543    21834373.098   -13414386.262 6 -10452760.160 5
        36.100          32.600
  22917106.636    22917106.081    22917104.294    -7333854.857 5  -5714689.483 3
        30.200          23.800
  22702308.437    22702307.914    22702306.843   -10077268.219 5  -7852410.230 4
        31.600          26.800
  20356675.395    20356674.683    20356673.013   -22201843.521 7 -17300129.606 7
        47.300          44.400
  21623426.230    21623425.484    21623424.148   -16116931.570 6 -12558639.780 6
        41.300          36.100
 07  1  1  1  1 30.0000000  0 10G16G21G29G22G18G26G 3G 6G15G 7
  22983485.939    22983485.435    22983482.627    -6862518.747 5  -5347412.128 3
        33.000          22.100
  20265097.058    20265096.449    20265093.196   -24707681.040 7 -19252729.578 8
        44.000          48.100
  22697834.664    22697834.403    22697831.800    -9040185.334 5  -7044290.967 4
        32.300          27.400
  22712429.571    22712429.155    22712424.779    -9969799.365 5  -7768670.998 4
        35.800          29.500
  20848836.074    20848835.652    20848832.615   -21114620.076 7 -16452939.494 7
        44.600          44.300
  21835280.618    21835280.294    21835278.458   -13409627.846 6 -10449052.297 5
        36.200          32.800
  22900463.151    22900462.658    22900460.500    -7421318.212 5  -5782842.736 4
        31.600          24.600
  22721134.511    22721134.248    22721132.857    -9978335.706 5  -7775319.981 4
        31.000          25.900
  20349400.830    20349400.147    20349398.457   -22240071.719 7 -17329917.809 7
        47.400          44.500
  21638254.611    21638253.859    21638252.570   -16039007.008 6 -12497919.350 5
        40.600          35.800
 07  1  1  1  2  0.0000000  0 10G16G21G29G22G18G26G 3G 6G15G 7
  22993103.266    22993102.689    22993100.051    -6811978.948 5  -5308030.483 3
        32.800          19.900
  20265600.927    20265600.419    20265597.118   -24705032.853 7 -19250666.050 8
        44.100          48.100
  22704812.988    22704812.561    22704810.293    -9003515.105 5  -7015716.759 4
        32.100          27.600
  22694732.690    22694732.332    22694728.495   -10062794.765 6  -7841134.881 5
        36.000          30.400
  20840609.418    20840608.876    20840605.677   -21157852.883 7 -16486627.391 7
        44.900          44.300
  21836323.536    21836323.523    21836321.577   -13404147.214 6 -10444781.669 5
        36.600          32.700
  22883880.367    22883879.799    22883878.417    -7508459.360 5  -5850744.891 4
        32.000          25.300
  22740006.780    22740006.742    22740006.032    -9879158.607 5  -7698039.143 4
        30.100          27.100
  20342190.000    20342189.285    20342187.598   -22277965.326 7 -17359445.291 7
        47.400          44.600
  21653153.448    21653152.730    21653151.607   -15960711.919 6 -12436910.197 5
        40.500          35.600
 07  1  1  1  2 30.0000000  0 10G16G21G29G22G18G26G 3G 6G15G 7
  23002810.040    23002809.605    23002807.311    -6760967.798 5  -5268281.547 3
        32.100          22.100
  20266172.985    20266172.499    20266169.102   -24702026.999 7 -19248323.819 8
        44.100          48.000
  22711900.046    22711899.953    22711897.726    -8966269.330 5  -6986694.063 4
        31.600          27.400
  22677085.852    22677085.374    22677081.254   -10155530.825 6  -7913396.676 5
        36.200          30.800
  20832466.817    20832466.328    20832463.233   -21200641.813 7 -16519969.410 7
        44.600          44.300
  21837503.892    21837503.812    21837501.989   -13397943.725 6 -10439947.767 5
        36.600          33.000
  22867359.812    22867359.196    22867357.307    -7595275.387 5  -5918393.712 4
        30.400          24.200
  22758925.462    22758925.569    22758924.735    -9779738.614 5  -7620569.046 4
        30.600          25.600
  20335042.864    20335042.143    20335040.532   -22315523.055 7 -17388711.044 7
        47.200          44.600
  21668123.001    21668122.172    21668121.051   -15882047.537 6 -12375613.286 5
        40.100          35.600
 07  1  1  1  3  0.0000000  0 10G16G21G29G22G18G26G 3G 6G15G 7
  23012607.768    23012607.084    23012604.163    -6709483.534 5  -5228163.959 3
        32.400          21.600
  20266813.864    20266813.345    20266810.073   -24698658.837 7 -19245699.274 8
        44.100          48.000
  22719098.060    22719097.568    22719095.739    -8928445.242 5  -6957220.733 4
        31.600          27.900
  22659488.963    22659488.622    22659484.416   -10248001.768 6  -7985451.892 5
        36.700          30.400
  20824409.686    20824409.215    20824406.161   -21242982.042 7 -16552961.793 7
        44.600          44.400
  21838822.128    21838822.401    21838820.603   -13391013.647 6 -10434547.706 5
        36.500          32.600
  22850901.959    22850901.906    22850900.209    -7681759.848 5  -5985784.157 4
        31.300          24.900
  22777892.225    22777891.607    22777890.590    -9680073.420 5  -7542907.885 4
        30.400          25.300
  20327960.618    20327959.934    20327958.388   -22352740.003 7 -17417711.260 7
        47.400          44.600
  21683162.984    21683162.150    21683161.197   -15803011.419 6 -12314026.710 5
        39.700          35.500
 07  1  1  1  3 30.0000000  0 10G16G21G29G22G18G26G 3G 6G15G 7
  23022492.899    23022492.128    23022489.226    -6657537.743 5  -5187686.720 3
        32.300          21.600
  20267521.992    20267521.441    20267518.141   -24694937.664 7 -19242799.656 8
        44.100          48.000
  22726403.836    22726403.620    22726401.600    -8890053.786 5  -6927305.317 4
        32.100          27.400
  22641940.749    22641940.630    22641936.426   -10340215.658 6  -8057306.817 4
        36.300          29.200
  20816436.465    20816435.959    20816432.762   -21284882.303 7 -16585611.341 7
        44.800          44.500
  21840277.912    21840277.781    21840275.567   -13383366.528 6 -10428588.909 5
        36.000          32.400
  22834505.792    22834505.941    22834504.355    -7767919.698 5  -6052921.692 3
        31.100          23.000
  22796902.119    22796901.721    22796900.423    -9580174.668 5  -7465064.719 4
        31.000          24.600
  20320941.690    20320941.018    20320939.430   -22389624.842 7 -17446452.684 7
        47.300          44.700
  21698271.735    21698270.844    21698269.804   -15723614.776 6 -12252159.207 5
        39.600          35.400
 07  1  1  1  4  0.0000000  0 10G16G21G29G22G18G26G 3G 6G15G 7
  23032466.682    23032466.236    23032463.772    -6605123.115 5  -5146844.183 4
        32.000          24.600
  20268299.215    20268298.559    20268295.242   -24690853.978 7 -19239617.559 7
        44.100          47.900
  22733818.798    22733818.694    22733816.818    -8851086.682 5  -6896941.336 4
        31.600          28.400
  22624444.234    22624444.035    22624439.845   -10432161.520 6  -8128952.888 4
        36.000          29.500
  20808548.564    20808548.001    20808545.027   -21326332.742 7 -16617910.378 7
        44.400          44.500
  21841871.712    21841871.576    21841869.056   -13374993.043 6 -10422064.103 5
        36.500          32.400
  22818174.868    22818174.497    22818173.169    -7853742.800 5  -6119796.807 4
        31.600          25.600
  22815958.170    22815958.011    22815956.786    -9480034.662 5  -7387033.571 4
        30.200          26.800
  20313987.983    20313987.283    20313985.591   -22426167.128 7 -17474927.184 7
        47.300          44.600
  21713450.536    21713449.630    21713448.550   -15643849.625 6 -12190004.548 5
        39.900          35.100
 07  1  1  1  4 30.0000000  0 10G16G21G29G22G18G26G 3G 6G15G 7
  23042528.427    23042527.979    23042525.877    -6552246.360 5  -5105641.516 4
        31.300          24.600
  20269144.425    20269143.862    20269140.596   -24686411.585 7 -19236155.949 7
        44.200          47.800
  22741342.540    22741342.332    22741340.167    -8811549.725 5  -6866133.312 4
        32.100          27.900
  22606997.731    22606997.576    22606993.624   -10523842.674 5  -8200392.699 5
        35.300          30.400
  20800745.495    20800745.036    20800742.206   -21367337.231 7 -16649861.922 7
        44.600          44.800
  21843602.156    21843602.133    21843599.813   -13365897.659 6 -10414976.784 5
        37.000          32.300
  22801906.983    22801906.521    22801904.944    -7939231.294 5  -6186411.197 4
        31.000          25.300
  22835058.888    22835058.781    22835057.142    -9379659.812 5  -7308819.429 4
        31.000          25.300
  20307098.581    20307097.963    20307096.373   -22462370.416 7 -17503137.532 7
        47.300          44.700
  21728698.361    21728697.493    21728696.352   -15563722.200 6 -12127567.594 5
        39.900          35.100
 07  1  1  1  5  0.0000000  0 10G16G21G29G22G18G26G 3G 6G15G 7
  23052678.195    23052677.487    23052675.413    -6498910.258 5  -5064080.924 4
        31.000          24.200
  20270058.186    20270057.582    20270054.210   -24681610.341 7 -19232414.716 7
        44.100          47.800
  22748974.151    22748973.916    22748971.743    -8771444.756 5  -6834882.691 4
        32.300          26.500
  22589602.067    22589601.701    22589597.749   -10615257.823 5  -8271625.235 4
        35.800          29.900
  20793027.813    20793027.236    20793024.149   -21407895.933 7 -16681466.107 7
        44.600          44.800
  21845469.824    21845469.979    21845467.902   -13356081.018 6 -10407327.445 5
        36.400          32.300
  22785703.094    22785702.706    22785701.157    -8024383.030 5  -6252763.155 4
        31.600          24.900
  22854203.988    22854203.538    22854201.939    -9279052.589 5  -7230424.203 4
        30.600          24.200
  20300274.153    20300273.430    20300271.721   -22498234.192 7 -17531083.322 7
        47.200          44.700
  21744014.417    21744013.840    21744012.744   -15483234.509 6 -12064849.920 5
        39.900          34.900
 07  1  1  1  5 30.0000000  0 10G16G21G29G22G18G26G 3G 6G15G 7
  23062914.558    23062913.732    23062911.528    -6445118.296 5  -5022165.124 3
        30.800          22.600
  20271039.847    20271039.294    20271035.836   -24676451.430 7 -19228394.780 7
        44.300          47.700
  22756713.946    22756713.493    22756711.104    -8730774.392 5  -6803191.497 4
        32.600          27.100
  22572256.904    22572256.622    22572252.899   -10706406.568 6  -8342650.192 5
        36.000          30.600
  20785394.549    20785393.903    20785390.719   -21448009.670 7 -16712723.556 7
        44.600          44.900
  21847474.692    21847474.818    21847472.950   -13345544.642 6 -10399117.285 5
        36.200          32.600
  22769563.138    22769562.855    22769561.526    -8109196.952 5  -6318851.913 4
        31.100          25.900
  22873391.854    22873391.789    22873390.788    -9178216.201 4  -7151850.410 3
        29.000          23.400
  20293513.979    20293513.243    20293511.617   -22533758.912 7 -17558764.914 7
        47.100          44.800
  21759398.886    21759398.131    21759396.900   -15402389.541 6 -12001853.850 5
        39.900          34.600
 07  1  1  1  6  0.0000000  0 10G16G21G29G22G18G26G 3G 6G15G 7
  23073236.893    23073236.421    23073234.696    -6390872.034 5  -4979895.310 4
        30.800          24.600
  20272089.800    20272089.196    20272085.860   -24670933.874 7 -19224095.382 7
        44.100          47.600
  22764560.037    22764560.031    22764558.078    -8689539.638 5  -6771060.507 4
        32.100          27.900
  22554962.815    22554962.785    22554958.667   -10797287.064 6  -8413466.141 5
        36.700          30.200
  20777845.743    20777845.234    20777842.206   -21487677.482 7 -16743633.533 7
        44.500          45.000
  21849617.305    21849617.023    21849615.035   -13334288.490 6 -10390346.255 5
        36.200          32.700
  22753488.613    22753488.453    22753486.377    -8193670.000 5  -6384675.037 4
        33.400          25.900
  22892623.384    22892623.648    22892622.789    -9077152.024 4  -7073099.110 4
        29.000          24.900
  20286818.432    20286817.776    20286816.350   -22568943.262 7 -17586181.278 7
        47.100          45.000
  21774851.159    21774850.275    21774848.980   -15321188.449 6 -11938580.277 5
        39.800          34.600
 07  1  1  1  6 30.0000000  0 10G16G21G29G22G18G26G 3G 6G15G 7
  23083645.861    23083645.409    23083643.593    -6336173.009 5  -4937272.712 4
        31.000          24.200
  20273208.246    20273207.647    20273204.388   -24665056.340 7 -19219515.477 7
        44.400          47.700
  22772513.996    22772513.830    22772511.601    -8647740.650 5  -6738489.859 4
        32.000          27.100
  22537720.431    22537720.097    22537716.084   -10887896.715 6  -8484071.033 5
        36.400          30.600
  20770382.241    20770381.829    20770378.946   -21526897.402 7 -16774194.505 7
        44.300          45.200
  21851895.932    21851896.029    21851894.065   -13322311.379 5 -10381013.434 5
        35.900          32.600
  22737479.054    22737479.266    22737477.762    -8277798.328 5  -6450229.571 4
        32.700          26.800
  22911899.658    22911899.062    22911897.675    -8975860.887 4  -6994170.999 4
        29.700          25.600
  20280188.347    20280187.711    20280186.144   -22603784.941 7 -17613330.631 7
        47.200          45.000
  21790370.553    21790369.771    21790368.762   -15239631.765 6 -11875029.622 5
        39.200          34.400
 07  1  1  1  7  0.0000000  0 10G16G21G29G22G18G26G 3G 6G15G 7
  23094138.843    23094138.268    23094136.122    -6281033.014 5  -4894306.477 3
        31.100          23.400
  20274393.429    20274392.860    20274389.577   -24658828.052 7 -19214662.258 7
        44.100          47.700
  22780573.609    22780573.243    22780571.001    -8605388.607 5  -6705488.270 4
        31.600          27.400
  22520528.261    22520527.989    22520523.541   -10978243.682 6  -8554471.233 5
        36.900          30.100
  20763002.284    20763001.890    20762999.027   -21565679.091 7 -16804413.998 7
        44.300          45.200
  21854310.607    21854310.487    21854308.434   -13309623.368 6 -10371126.668 5
        36.300          32.300
  22721534.653    22721534.191    22721532.611    -8361589.244 5  -6515521.177 4
        32.000          25.600
  22931215.030    22931215.129    22931213.943    -8874354.423 4  -6915075.057 4
        29.700          25.300
  20273621.847    20273621.075    20273619.494   -22638293.010 7 -17640220.024 7
        47.100          45.100
  21805955.717    21805955.046    21805954.058   -15157730.926 6 -11811210.791 5
        39.400          34.700
 07  1  1  1  7 30.0000000  0 10G16G21G29G22G18G26G 3G 6G15G 7
  23104718.570    23104717.961    23104715.586    -6225438.451 5  -4850986.052 3
        32.100          23.400
  20275648.523    20275647.901    20275644.586   -24652232.622 7 -19209522.957 7
        44.200          47.600
  22788741.308    22788741.124    22788738.794    -8562468.849 5  -6672044.305 4
        32.400          27.900
  22503389.402    22503389.017    22503384.370   -11068310.500 6  -8624653.150 5
        37.300          30.400
  20755709.037    20755708.559    20755705.632   -21604005.761 7 -16834278.929 7
        44.100          45.300
  21856863.171    21856863.197    21856861.245   -13296208.764 6 -10360673.728 5
        36.400          32.400
  22705657.789    22705657.043    22705655.746    -8445024.250 5  -6580535.456 4
        31.600          27.600
  22950574.700    22950574.632    22950573.575    -8772618.494 4  -6835800.319 3
        29.200          23.800
  20267121.562    20267121.059    20267119.588   -22672450.296 7 -17666836.082 7
        47.100          45.000
  21821609.200    21821608.492    21821607.426   -15075471.595 6 -11747112.622 5
        39.000          34.300
 07  1  1  1  8  0.0000000  0 10G16G21G29G22G18G26G 3G 6G15G 7
  23115381.395    23115381.034    23115378.455    -6169402.087 5  -4807321.374 3
        31.800          23.400
  20276971.438    20276970.818    20276967.498   -24645280.418 7 -19204105.651 7
        44.300          47.500
  22797013.905    22797013.753    22797011.877    -8518993.549 5  -6638167.436 4
        32.400          27.900
  22486301.490    22486301.179    22486296.720   -11158106.314 6  -8694623.908 5
        37.000          31.000
  20748500.256    20748499.847    20748496.874   -21641887.619 7 -16863797.254 7
        44.100          45.400
  21859552.481    21859552.338    21859550.344   -13282078.620 6 -10349663.222 5
        36.500          32.400
  22689846.782    22689846.048    22689844.755    -8528111.417 5  -6645278.659 4
        31.300          27.600
  22969975.688    22969975.644    22969974.784    -8670665.745 4  -6756356.646 4
        29.200          25.300
  20260686.642    20260685.932    20260684.530   -22706266.599 7 -17693186.441 7
        47.100          45.100
  21837329.027    21837328.100    21837326.653   -14992865.952 6 -11682744.596 5
        38.900          34.100
 07  1  1  1  8 30.0000000  0 10G16G21G29G22G18G26G 3G 6G15G 7
  23126129.009    23126128.346    23126126.175    -6112924.021 5  -4763312.496 3
        31.100          22.100
  20278362.501    20278362.014    20278358.781   -24637969.189 7 -19198408.584 7
        44.200          47.500
  22805392.777    22805392.637    22805390.773    -8474962.356 5  -6603857.410 4
        32.100          27.900
  22469265.870    22469265.695    22469261.564   -11247627.953 6  -8764381.004 5
        37.800          31.500
  20741376.796    20741376.257    20741373.278   -21679322.658 7 -16892967.408 7
        44.000          45.400
  21862377.150    21862377.162    21862375.637   -13267231.450 5 -10338093.996 5
        35.900          32.100
  22674102.904    22674102.466    22674100.855    -8610846.438 5  -6709747.493 4
        33.100          26.500
  22989418.136    22989418.209    22989417.070    -8568496.250 4  -6676744.074 4
        29.700          24.200
  20254316.822    20254316.210    20254314.794   -22739739.236 7 -17719269.007 7
        46.900          45.000
  21853113.846    21853113.130    21853112.015   -14909914.164 6 -11618106.844 5
        38.500          34.100
 07  1  1  1  9  0.0000000  0 10G16G21G29G22G18G26G 3G 6G15G 7
  23136961.534    23136960.793    23136958.309    -6056000.638 5  -4718956.617 3
        32.400          22.100
  20279823.446    20279822.873    20279819.724   -24630292.131 7 -19192426.455 7
        44.000          47.400
  22813878.445    22813877.943    22813876.119    -8430370.222 5  -6569110.291 4
        31.600          27.100
  22452284.101    22452283.980    22452280.041   -11336866.759 6  -8833917.732 5
        37.400          31.800
  20734339.367    20734338.903    20734336.060   -21716303.693 7 -16921783.793 7
        44.000          45.600
  21865340.494    21865340.344    21865338.125   -13251661.002 6 -10325961.174 5
        36.300          32.100
  22658427.548    22658427.016    22658425.405    -8693220.298 5  -6773934.905 4
        33.100          26.500
  23008902.776    23008902.499    23008901.225    -8466105.426 4  -6596959.025 3
        29.200          22.600
  20248013.972    20248013.413    20248011.944   -22772860.747 7 -17745077.964 7
        47.000          45.000
  21868966.342    21868965.384    21868964.140   -14826611.170 6 -11553195.429 5
        38.600          34.000
 07  1  1  1  9 30.0000000  0 10G16G21G29G22G18G26G 3G 6G15G 7
  23147875.930    23147875.451    23147872.807    -5998643.642 5  -4674262.857 3
        31.600          20.500
  20281352.049    20281351.652    20281348.477   -24622258.039 7 -19186166.117 7
        44.000          47.400
  22822468.631    22822468.493    22822466.121    -8385227.950 5  -6533934.499 4
        31.500          27.400
  22435354.900    22435354.497    22435350.523   -11425831.495 6  -8903240.897 5
        37.400          31.600
  20727386.901    20727386.346    20727383.493   -21752839.771 7 -16950253.460 7
        44.100          45.700
  21868439.736    21868439.419    21868437.103   -13235377.091 6 -10313272.406 5
        36.400          31.600
  22642819.678    22642819.118    22642817.850    -8775239.622 5  -6837846.054 4
        33.000          27.400
  23028427.173    23028426.864    23028425.358    -8363504.376 4  -6517010.178 3
        28.600          22.600
  20241776.750    20241775.955    20241774.354   -22805639.345 7 -17770619.724 7
        47.100          44.700
  21884882.796    21884881.987    21884880.876   -14742967.970 6 -11488018.918 5
        38.900          33.900
 07  1  1  1 10  0.0000000  0 10G16G21G29G22G18G26G 3G 6G15G 7
  23158874.248    23158873.733    23158871.413    -5940847.336 5  -4629226.771 3
        32.100          21.100
  20282950.768    20282950.095    20282946.696   -24613859.000 7 -19179621.407 7
        44.100          47.200
  22831164.888    22831164.656    22831162.510    -8339529.282 5  -6498325.152 4
        31.300          26.800
  22418479.644    22418479.354    22418475.348   -11514512.445 6  -8972342.926 5
        37.700          31.800
  20720520.582    20720520.060    20720517.133   -21788922.781 7 -16978370.085 7
        43.800          45.800
  21871675.198    21871675.058    21871673.083   -13218372.599 6 -10300022.149 5
        36.300          32.300
  22627280.835    22627280.733    22627279.229    -8856894.333 5  -6901473.078 4
        33.000          27.100
  23047992.888    23047992.353    23047990.648    -8260687.554 4  -6436893.185 3
        29.900          22.100
  20235605.996    20235605.325    20235603.639   -22838066.658 7 -17795887.750 7
        47.100          45.000
  21900865.587    21900864.654    21900863.260   -14658978.651 6 -11422572.702 5
        38.600          33.500
 07  1  1  1 10 30.0000000  0 10G16G21G29G22G18G26G 3G 6G15G 7
  23169954.069    23169953.381    23169951.677    -5882620.997 5  -4583855.599 3
        30.600          22.600
  20284617.108    20284616.618    20284613.230   -24605101.331 7 -19172797.242 7
        44.200          47.300
  22839965.145    22839964.961    22839963.128    -8293282.783 5  -6462288.903 4
        32.000          27.400
  22401656.800    22401656.594    22401652.504   -11602915.446 6  -9041228.374 5
        37.700          32.000
  20713739.112    20713738.632    20713735.778   -21824559.123 7 -17006138.657 7
        43.800          46.000
  21875046.840    21875046.726    21875044.702   -13200655.032 6 -10286216.245 5
        36.400          32.600
  22611812.047    22611811.196    22611808.670    -8938188.800 5  -6964819.426 4
        33.500          25.600
  23067597.531    23067596.796    23067595.043    -8157663.803 4  -6356614.939 3
        27.100          22.100
  20229500.981    20229500.262    20229498.776   -22870148.489 7 -17820886.572 7
        47.000          45.100
  21916912.301    21916911.540    21916910.263   -14574651.877 6 -11356863.535 5
        38.900          33.500
 07  1  1  1 11  0.0000000  0 10G16G21G29G22G18G26G 3G 6G15G 7
  23181116.653    23181115.913    23181113.388    -5823962.702 5  -4538147.855 3
        30.400          21.100
  20286352.867    20286352.308    20286348.935   -24595980.332 7 -19165689.965 7
        44.200          47.200
  22848870.716    22848870.487    22848868.310    -8246485.631 5  -6425823.590 4
        31.500          27.100
  22384888.568    22384888.369    22384884.144   -11691034.146 6  -9109892.298 5
        38.200          32.000
  20707043.670    20707043.098    20707040.281   -21859744.177 7 -17033555.574 7
        43.600          46.100
  21878554.559    21878554.426    21878552.742   -13182220.175 5 -10271851.415 5
        35.900          32.000
  22596412.181    22596411.305    22596409.396    -9019116.182 5  -7027879.707 4
        33.200          28.600
  23087240.829    23087241.023    23087240.153    -8054430.538 4  -6276173.448 3
        26.500          23.400
  20223462.570    20223461.937    20223460.507   -22901879.571 7 -17845612.082 7
        47.100          45.200
  21933024.048    21933023.099    21933021.800   -14489984.872 6 -11290889.253 5
        38.300          33.600
 07  1  1  1 11 30.0000000  0 10G16G21G29G22G18G26G 3G 6G15G 7
  23192360.352    23192359.762    23192357.759    -5764875.895 4  -4492106.195 3
        29.900          22.600
  20288157.465    20288156.926    20288153.650   -24586496.777 7 -19158300.176 7
        44.400          47.100
  22857880.110    22857879.929    22857877.696    -8199140.267 5  -6388931.092 4
        31.100          27.600
  22368174.101    22368174.091    22368169.895   -11778868.294 6  -9178334.484 5
        38.500          31.800
  20700433.933    20700433.370    20700430.536   -21894478.370 7 -17060621.171 7
        43.600          46.100
  21882198.993    21882198.907    21882196.856   -13163069.845 6 -10256929.082 5
        36.300          32.000
  22581081.755    22581081.084    22581079.009    -9099674.844 5  -7090652.669 4
        33.600          25.900
  23106925.295    23106925.379    23106924.296    -7950990.786 4  -6195571.071 3
        27.400          23.800
  20217491.367    20217490.621    20217488.923   -22933259.990 7 -17870064.353 7
        47.300          45.200
  21949199.557    21949198.768    21949197.665   -14404980.487 6 -11224652.076 5
        38.100          33.500
 07  1  1  1 12  0.0000000  0 10G16G21G29G22G18G26G 3G 6G15G 7
  23203685.811    23203685.397    23203683.245    -5705359.645 5  -4445729.898 3
        31.300          23.000
  20290031.810    20290031.289    20290028.043   -24576646.730 7 -19150624.808 7
        44.300          47.200
  22866994.225    22866993.967    22866992.232    -8151244.967 5  -6351610.081 4
        31.600          28.600
  22351515.010    22351514.842    22351510.397   -11866412.896 6  -9246551.059 5
        38.500          31.000
  20693910.706    20693910.213    20693907.318   -21928757.992 7 -17087332.557 7
        43.500          46.100
  21885979.807    21885979.759    21885977.836   -13143201.149 6 -10241446.980 5
        36.300          32.300
  22565822.922    22565822.431    22565820.966    -9179858.858 5  -7153133.724 4
        33.200          26.200
  23126648.964    23126648.837    23126648.077    -7847343.019 4  -6114806.595 4
        27.100          24.200
  20211587.409    20211586.759    20211585.082   -22964285.352 7 -17894239.952 7
        47.200          45.300
  21965439.646    21965439.124    21965438.114   -14319637.021 6 -11158150.683 5
        37.900          33.600
 07  1  1  1 12 30.0000000  0 10G16G21G29G22G18G26G 3G 6G15G 7
  23215092.403    23215091.944    23215089.706    -5645419.117 5  -4399023.007 3
        31.800          21.100
  20291975.338    20291974.901    20291971.625   -24566433.122 7 -19142666.150 7
        44.300          47.100
  22876212.214    22876211.917    22876209.952    -8102804.358 5  -6313864.159 4
        30.800          27.900
  22334910.448    22334910.250    22334906.014   -11953669.898 6  -9314543.516 5
        38.500          31.100
  20687473.526    20687472.943    20687470.123   -21962585.728 7 -17113691.824 7
        43.700          46.300
  21889896.193    21889896.252    21889894.534   -13122617.898 6 -10225408.076 5
        36.100          32.000
  22550635.732    22550635.122    22550633.724    -9259668.910 5  -7215323.354 4
        33.100          27.400
  23146411.187    23146411.193    23146409.922    -7743492.323 4  -6033883.994 3
        28.100          23.800
  20205750.603    20205749.988    20205748.275   -22994957.854 7 -17918140.597 7
        47.300          45.200
  21981743.714    21981743.054    21981741.860   -14233959.275 6 -11091388.811 5
        38.000          33.000
 07  1  1  1 13  0.0000000  0 10G16G21G29G22G18G26G 3G 6G15G 7
  23226578.284    23226577.634    23226575.467    -5585061.057 5  -4351990.754 3
        31.100          22.100
  20293987.538    20293986.951    20293983.619   -24555859.846 7 -19134427.229 7
        44.400          47.100
  22885532.751    22885532.424    22885530.229    -8053824.318 5  -6275697.889 4
        30.800          27.100
  22318360.161    22318359.927    22318355.824   -12040642.214 6  -9382314.144 5
        38.200          32.000
  20681121.598    20681121.074    20681118.175   -21995965.539 7 -17139702.062 7
        43.600          46.300
  21893948.259    21893948.350    21893946.299   -13101324.856 5 -10208816.087 5
        35.900          31.800
  22535519.007    22535518.424    22535517.174    -9339106.594 5  -7277222.844 4
        31.800          27.600
  23166210.596    23166210.835    23166209.520    -7639444.802 4  -5952808.013 3
        29.500          23.400
  20199980.116    20199979.552    20199977.910   -23025280.772 7 -17941768.837 7
        47.300          45.200
  21998110.147    21998109.346    21998108.280   -14147953.304 6 -11024371.182 5
        37.000          32.600
 07  1  1  1 13 30.0000000  0 10G16G21G29G22G18G26G 3G 6G15G 7
  23238142.900    23238142.331    23238140.285    -5524287.424 5  -4304634.695 3
        30.100          21.100
  20296068.292    20296067.699    20296064.372   -24544925.521 7 -19125906.971 7
        44.400          47.000
  22894956.101    22894955.790    22894953.169    -8004306.011 5  -6237112.186 4
        30.800          26.500
  22301864.467    22301864.354    22301860.339   -12127327.430 6  -9449861.042 5
        38.400          33.000
  20674855.070    20674854.549    20674851.526   -22028896.418 7 -17165362.479 7
        43.800          46.300
  21898135.544    21898135.458    21898133.427   -13079322.206 6 -10191671.162 5
        36.300          31.500
  22520474.365    22520473.785    22520472.500    -9418168.929 5  -7338829.834 4
        33.500          28.800
  23186047.883    23186047.513    23186046.499    -7535201.908 4  -5871579.792 3
        27.600          23.000
  20194276.912    20194276.187    20194274.547   -23055252.547 7 -17965123.465 7
        47.300          45.300
  22014539.019    22014538.239    22014537.072   -14061620.089 6 -10957098.554 5
        37.400          32.600
 07  1  1  1 14  0.0000000  0 10G16G21G29G22G18G26G 3G 6G15G 7
  23249785.586    23249785.418    23249783.060    -5463101.635 4  -4256957.458 3
        29.500          19.900
  20298217.542    20298216.943    20298213.576   -24533631.072 7 -19117106.098 7
        44.400          47.000
  22904480.397    22904480.366    22904478.556    -7954251.862 5  -6198108.952 4
        31.500          26.200
  22285423.646    22285423.430    22285419.558   -12213725.036 6  -9517183.823 5
        38.500          33.400
  20668673.766    20668673.291    20668670.278   -22061378.897 7 -17190673.498 7
        43.800          46.400
  21902456.907    21902456.994    21902455.439   -13056611.444 5 -10173974.460 5
        35.900          32.000
  22505501.176    22505500.746    22505498.984    -9496854.202 5  -7400143.024 4
        35.100          29.000
  23205921.152    23205920.785    23205919.667    -7430766.519 4  -5790201.582 3
        27.900          23.000
  20188640.143    20188639.544    20188637.948   -23084873.223 7 -17988204.507 7
        47.400          45.400
  22031029.502    22031028.578    22031027.144   -13974962.518 6 -10889573.179 5
        37.500          31.600
 07  1  1  1 14 30.0000000  0 10G16G21G29G22G18G26G 3G 6G15G 7
  23261508.239    23261507.629    23261504.841    -5401501.935 4  -4208957.708 3
        29.700          19.300
  20300435.997    20300435.445    20300432.171   -24521972.178 7 -19108021.244 7
        44.200          46.900
  22914108.089    22914107.800    22914105.984    -7903659.566 5  -6158686.379 4
        31.100          27.400
  22269038.654    22269038.338    22269034.236   -12299829.586 6  -9584278.260 5
        39.100          32.700
  20662578.757    20662578.294    20662575.289   -22093408.782 7 -17215631.839 7
        43.600          46.600
  21906914.383    21906914.215    21906912.421   -13033189.416 6 -10155723.529 5
        36.300          32.100
  22490601.276    22490600.392    22490598.378    -9575155.972 5  -7461157.374 4
        34.300          27.100
  23225831.686    23225831.258    23225829.875    -7326136.415 4  -5708671.648 2
        27.100          16.100
  20183071.399    20183070.763    20183069.135   -23114137.766 7 -18011008.041 7
        47.400          45.600
  22047581.485    22047580.888    22047579.963   -13887978.244 6 -10821793.237 5
        37.100          32.000
 07  1  1  1 15  0.0000000  0 10G16G21G29G22G18G26G 3G 6G15G 7
  23273309.103    23273308.350    23273305.899    -5339489.422 5  -4160636.281 3
        30.100          21.600
  20302724.248    20302723.745    20302720.459   -24509946.863 7 -19098650.862 7
        44.200          46.700
  22923838.047    22923837.759    22923835.370    -7852529.451 5  -6118844.727 4
        31.100          25.900
  22252709.335    22252709.332    22252705.555   -12385638.334 6  -9651142.190 5
        39.100          33.100
  20656570.056    20656569.541    20656566.693   -22124984.606 7 -17240236.372 7
        43.500          46.600
  21911506.784    21911506.782    21911504.554   -13009055.486 6 -10136917.860 5
        36.300          30.800
  22475774.142    22475773.640    22475771.791    -9653070.414 5  -7521869.933 4
        35.500          26.800
  23245778.751    23245778.461    23245776.637    -7221312.292 4  -5626990.492 2
        24.600          17.800
  20177570.886    20177570.175    20177568.451   -23143043.959 7 -18033532.344 7
        47.300          45.600
  22064196.532    22064195.662    22064194.901   -13800667.737 6 -10753759.083 5
        36.900          32.700
 07  1  1  1 15 30.0000000  0 10G16G21G29G22G18G26G 3G 6G15G 7
  23285187.837    23285187.288    23285184.763    -5277065.647 5  -4111994.381 3
        31.000          19.300
  20305082.516    20305082.078    20305078.746   -24497554.082 7 -19088994.147 7
        44.400          46.800
  22933669.754    22933669.587    22933667.765    -7800862.195 5  -6078584.538 4
        30.800          27.400
  22236437.337    22236437.140    22236432.963   -12471149.153 6  -9717773.973 5
        39.000          32.600
  20650647.892    20650647.493    20650644.617   -22156105.157 7 -17264486.143 7
        43.700          46.700
  21916234.538    21916234.608    21916232.505   -12984209.597 6 -10117557.421 5
        36.500          31.100
  22461021.843    22461021.206    22461019.839    -9730594.014 5  -7582277.910 4
        34.600          29.200
  23265763.101    23265762.425    23265761.273    -7116295.182 4  -5545158.969 3
        25.300          18.600
  20172138.576    20172137.916    20172136.380   -23171589.867 7 -18055775.908 7
        47.400          45.600
  22080872.704    22080872.106    22080871.292   -13713031.894 6 -10685471.429 5
        36.700          32.700
 07  1  1  1 16  0.0000000  0 10G16G21G29G22G18G26G 3G 6G15G 7
  23297142.785    23297142.231    23297139.895    -5214241.186 5  -4063040.271 3
        31.300          21.100
  20307509.436    20307508.800    20307505.582   -24484801.610 7 -19079057.155 7
        44.500          46.700
  22943601.834    22943601.661    22943599.778    -7748667.867 5  -6037913.635 4
        30.200          25.600
  22220220.604    22220220.490    22220216.583   -12556368.716 6  -9784178.801 5
        39.500          33.400
  20644811.201    20644810.694    20644807.638   -22186778.163 7 -17288387.176 7
        43.500          46.700
  21921096.751    21921096.499    21921094.586   -12958660.849 6 -10097649.301 5
        36.500          31.800
  22446342.782    22446342.234    22446340.713    -9807732.442 5  -7642385.790 4
        33.900          28.100
  23285781.962    23285781.651    23285780.304    -7011095.361 4  -5463185.105 3
        25.600          22.600
  20166773.742    20166773.048    20166771.430   -23199782.838 7 -18077744.455 7
        47.300          45.500
  22097609.707    22097608.823    22097607.880   -13625080.706 6 -10616938.050 5
        36.800          32.700
 07  1  1  1 16 30.0000000  0 10G16G21G29G22G18G26G 3G 6G15G 7
  23309175.231    23309174.547    23309172.120    -5151011.396 5  -4013770.319 3
        30.600          19.900
  20310005.863    20310005.312    20310002.105   -24471682.254 7 -19068834.278 7
        44.500          46.800
  22953635.438    22953635.195    22953633.419    -7695940.892 4  -5996827.683 4
        29.500          25.900
  22204060.876    22204060.679    22204056.693   -12641288.232 6  -9850349.831 5
        39.200          32.400
  20639061.025    20639060.455    20639057.341   -22216995.915 7 -17311933.471 7
        43.400          46.700
  21926093.424    21926093.347    21926091.293   -12932402.657 6 -10077188.372 5
        36.500          31.600
  22431739.300    22431738.712    22431736.803    -9884476.008 5  -7702185.946 4
        35.200          28.100
  23305837.497    23305836.826    23305835.061    -6905707.278 4  -5381064.532 3
        26.800          20.500
  20161477.329    20161476.710    20161475.158   -23227614.620 7 -18099431.557 7
        47.300          45.500
  22114407.194    22114406.423    22114405.267   -13536808.665 6 -10548154.655 5
        36.500          32.300
 07  1  1  1 17  0.0000000  0 10G16G21G29G22G18G26G 3G 6G15G 7
  23321282.701    23321282.199    23321279.845    -5087384.758 4  -3964191.111 3
        29.700          18.600
  20312571.254    20312570.815    20312567.697   -24458200.287 7 -19058328.846 7
        44.500          46.700
  22963769.190    22963769.079    22963766.398    -7642688.680 5  -5955332.438 4
        30.600          24.200
  22187957.936    22187957.481    22187953.313   -12725912.244 6  -9916290.603 5
        39.500          33.400
  20633396.268    20633395.753    20633392.724   -22246763.808 7 -17335129.226 7
        43.500          46.800
  21931223.928    21931223.855    21931221.368   -12905441.836 6 -10056179.936 5
        36.500          30.800
  22417209.230    22417208.830    22417207.477    -9960827.849 5  -7761680.879 4
        33.900          29.700
  23325926.154    23325925.635    23325924.269    -6800138.806 4  -5298803.390 3
        27.400          22.600
  20156249.022    20156248.358    20156246.738   -23255089.941 7 -18120840.896 7
        47.200          45.600
  22131264.305    22131263.574    22131262.619   -13448223.176 6 -10479127.005 5
        36.200          31.600
 07  1  1  1 17 30.0000000  0 10G16G21G29G22G18G26G 3G 6G15G 7
  23333466.377    23333465.840    23333462.637    -5023360.762 5  -3914302.299 2
        30.100          16.100
  20315206.412    20315205.914    20315202.653   -24444353.242 7 -19047538.937 7
        44.600          46.800
  22974003.107    22974002.861    22974000.106    -7588910.322 5  -5913427.222 4
        30.600          24.600
  22171911.177    22171911.017    22171906.885   -12810236.502 6  -9981997.797 5
        39.900          32.800
  20627817.854    20627817.252    20627814.284   -22276079.014 7 -17357972.233 7
        43.400          46.800
  21936488.602    21936488.502    21936485.856   -12877776.339 6 -10034622.399 5
        36.400          30.200
  22402755.602    22402755.167    22402753.519   -10036782.816 5  -7820866.565 4
        34.700          27.600
  23346049.035    23346049.329    23346047.724    -6694389.061 4  -5216401.000 3
        28.100          22.600
  20151089.107    20151088.495    20151086.866   -23282205.210 7 -18141969.677 7
        47.200          45.500
  22148181.595    22148180.780    22148179.898   -13359323.499 6 -10409854.536 5
        36.200          32.100
 07  1  1  1 18  0.0000000  0 10G16G21G29G22G18G26G 3G 6G15G 7
  23345725.223    23345724.619    23345721.544    -4958941.255 4  -3864105.309 3
        29.900          18.600
  20317911.087    20317910.477    20317907.229   -24430140.386 7 -19036463.982 7
        44.600          46.600
  22984336.415    22984336.304    22984334.390    -7534607.115 5  -5871113.023 4
        30.800          25.900
  22155922.078    22155921.925    22155917.853   -12894259.130 6 -10047469.952 5
        39.900          33.400
  20622325.358    20622324.900    20622321.983   -22304941.046 7 -17380462.119 7
        43.200          46.800
  21941887.098    21941886.892    21941884.613   -12849406.796 5 -10012516.259 5
        35.700          30.200
  22388378.501    22388377.756    22388376.195   -10112338.079 5  -7879740.770 5
        34.700          30.100
  23366206.946    23366206.601    23366205.464    -6588459.696 4  -5133858.640 3
        27.600          21.100
  20145998.254    20145997.537    20145995.768   -23308959.000 7 -18162816.784 7
        47.100          45.500
  22165158.300    22165157.518    22165156.510   -13270110.959 6 -10340338.279 5
        36.500          31.500
 07  1  1  1 18 30.0000000  0 10G16G21G29G22G18G26G 3G 6G15G 7
  23358058.198    23358057.676    23358055.034    -4894129.154 5  -3813602.379 2
        30.100          17.800
  20320685.215    20320684.712    20320681.495   -24415561.605 7 -19025103.888 7
        44.600          46.700
  22994769.578    22994769.175    22994767.520    -7479780.953 5  -5828391.332 4
        30.400          26.800
  22139990.694    22139990.577    22139986.507   -12977978.841 6 -10112706.072 5
        40.200          33.500
  20616919.540    20616918.913    20616915.932   -22333349.821 7 -17402598.817 7
        43.300          46.900
  21947418.905    21947418.938    21947416.956   -12820334.392 5  -9989862.430 5
        35.500          30.400
  22374077.384    22374076.655    22374075.021   -10187491.138 5  -7938301.585 5
        34.800          30.100
  23386398.828    23386398.199    23386396.861    -6482352.607 4  -5051177.805 3
        26.200          20.500
  20140976.145    20140975.408    20140973.618   -23335350.569 7 -18183381.638 7
        47.200          45.600
  22182193.783    22182193.163    22182192.045   -13180587.636 6 -10270579.853 5
        36.700          30.800
 07  1  1  1 19  0.0000000  0 10G16G21G29G22G18G26G 3G 6G15G 7
  23370465.275    23370464.480    23370461.955    -4828929.873 4  -3762797.757 2
        28.800          15.100
  20323528.650    20323528.158    20323524.863   -24400619.648 7 -19013460.799 7
        44.800          46.600
  23005301.106    23005301.017    23005298.518    -7424436.598 5  -5785265.864 4
        30.600          25.900
  22124116.849    22124116.656    22124112.509   -13061397.163 6 -10177707.345 5
        40.300          33.900
  20611599.122    20611598.633    20611595.685   -22361307.676 7 -17424384.151 7
        43.100          46.800
  21953084.747    21953084.422    21953082.039   -12790562.906 5  -9966663.866 5
        35.700          30.100
  22359852.505    22359851.796    22359850.316   -10262242.365 5  -7996549.275 5
        35.100          30.100
  23406622.922    23406622.768    23406621.133    -6376072.775 4  -4968362.359 3
        25.600          19.900
  20136022.418    20136021.755    20136020.052   -23361381.759 7 -18203665.682 7
        47.200          45.400
  22199287.649    22199287.102    22199286.081   -13090757.988 6 -10200582.734 5
        36.200          31.000
 07  1  1  1 19 30.0000000  0 10G16G21G29G22G18G26G 3G 6G15G 7
  23382946.006    23382945.614    23382943.398    -4763341.210 4  -3711689.699 2
        29.200          15.100
  20326442.172    20326441.619    20326438.294   -24385309.391 7 -19001530.728 7
        44.900          46.500
  23015931.869    23015931.687    23015929.194    -7368571.293 5  -5741734.458 4
        30.400          25.300
  22108301.369    22108301.091    22108296.915   -13144508.322 6 -10242469.283 5
        40.300          33.400
  20606365.841    20606365.174    20606362.145   -22388810.153 7 -17445814.641 7
        43.200          47.000
  21958883.495    21958883.421    21958881.207   -12760088.910 6  -9942917.887 5
        36.200          30.100
  22345705.210    22345705.040    22345703.258   -10336584.159 5  -8054477.936 4
        35.700          29.000
  23426881.105    23426880.202    23426879.056    -6269617.718 3  -4885410.374 3
        23.800          18.600
  20131138.484    20131137.810    20131136.077   -23387047.267 7 -18223664.782 7
        47.300          45.600
  22216440.688    22216439.858    22216439.015   -13000619.494 5 -10130344.957 5
        35.500          31.300
 07  1  1  1 20  0.0000000  0 10G16G21G29G22G18G26G 3G 6G15G 7
  23395500.813    23395500.288    23395498.184    -4697366.757 5  -3660281.038 3
        30.400          19.300
  20329425.701    20329425.076    20329421.817   -24369631.059 7 -18989313.843 7
        44.900          46.600
  23026661.064    23026660.883    23026658.712    -7312187.712 5  -5697799.188 4
        30.200          24.200
  22092544.560    22092544.206    22092539.988   -13227311.852 6 -10306991.497 5
        40.200          33.800
  20601218.548    20601218.111    20601215.139   -22415857.886 7 -17466890.791 7
        42.900          46.900
  21964815.704    21964815.586    21964813.370   -12728914.349 5  -9918626.021 4
        35.900          29.700
  22331637.084    22331636.782    22331634.838   -10410512.980 5  -8112084.802 4
        35.200          28.600
  23447171.028    23447170.787    23447169.297    -6162990.051 3  -4802323.898 3
        23.400          18.600
  20126324.247    20126323.444    20126321.742   -23412346.865 7 -18243378.749 7
        47.100          45.600
  22233651.866    22233650.994    22233649.896   -12910174.839 5 -10059868.616 5
        35.100          31.300
 07  1  1  1 20 30.0000000  0 10G16G21G29G22G18G26G 3G 6G15G 7
  23408127.228    23408126.676    23408123.831    -4631015.775 5  -3608578.993 3
        31.100          19.300
  20332477.903    20332477.311    20332474.006   -24353591.417 7 -18976815.417 7
        44.900          46.400
  23037488.135    23037487.867    23037485.485    -7255294.590 5  -5653466.878 4
        30.400          25.600
  22076844.713    22076844.601    22076840.588   -13309813.018 6 -10371278.105 5
        40.200          34.100
  20596156.764    20596156.364    20596153.365   -22442457.265 7 -17487617.566 7
        43.100          47.000
  21970879.813    21970879.721    21970877.571   -12697047.038 5  -9893794.345 4
        35.700          29.900
  22317645.931    22317645.416    22317643.533   -10484037.841 5  -8169376.902 4
        35.100          28.600
  23467492.429    23467492.420    23467490.749    -6056198.507 3  -4719109.704 2
        23.400          16.100
  20121578.275    20121577.547    20121575.902   -23437286.414 7 -18262812.162 7
        47.100          45.600
  22250919.606    22250918.603    22250917.642   -12819432.698 5  -9989160.470 5
        34.800          31.100
 07  1  1  1 21  0.0000000  0 10G16G21G29G22G18G26G 3G 6G15G 7
  23420824.705    23420824.305    23420821.953    -4564288.783 4  -3556583.945 3
        29.500          21.100
  20335599.484    20335598.924    20335595.521   -24337187.693 7 -18964033.286 7
        44.900          46.300
  23048411.517    23048411.415    23048408.749    -7197891.399 5  -5608737.122 4
        30.800          25.300
  22061203.670    22061203.459    22061199.335   -13392008.233 6 -10435326.313 5
        40.200          34.300
  20591180.847    20591180.409    20591177.417   -22468606.227 7 -17507993.373 7
        42.900          47.000
  21977076.069    21977075.925    21977074.019   -12664485.806 5  -9868421.956 5
        35.400          30.400
  22303732.829    22303732.113    22303730.648   -10557152.518 5  -8226349.351 4
        35.300          29.500
  23487845.948    23487845.473    23487844.080    -5949242.994 4  -4635767.737 1
        25.600          11.000
  20116901.492    20116900.792    20116899.168   -23461862.776 7 -18281962.573 7
        47.100          45.600
  22268243.838    22268242.999    22268242.222   -12728392.577 5  -9918220.134 5
        34.600          31.100
 07  1  1  1 21 30.0000000  0 10G16G21G29G22G18G26G 3G 6G15G 7
  23433595.606    23433595.018    23433592.914    -4497177.838 4  -3504289.707 3
        29.700          21.600
  20338792.367    20338791.740    20338788.416   -24320409.340 7 -18950959.242 7
        45.000          46.400
  23059433.385    23059433.281    23059431.325    -7139969.851 5  -5563603.438 4
        30.600          25.900
  22045622.868    22045622.551    22045618.585   -13473886.142 6 -10499127.276 5
        40.400          34.500
  20586292.750    20586292.264    20586289.201   -22494293.989 7 -17528009.799 7
        42.900          47.100
  21983406.446    21983406.364    21983403.926   -12631221.606 6  -9842501.791 5
        36.100          30.400
  22289900.549    22289899.888    22289897.625   -10629843.038 6  -8282991.309 4
        36.500          28.100
  23508231.574    23508231.352    23508229.746    -5842114.994 4  -4552291.354 2
        24.900          15.100
  20112296.128    20112295.385    20112293.556   -23486064.646 7 -18300821.170 7
        47.100          45.500
  22285626.503    22285625.525    22285624.813   -12637045.927 5  -9847040.943 5
        34.600          30.400
 07  1  1  1 22  0.0000000  0 10G16G21G29G22G18G26G 3G 6G15G 7
  23446436.238    23446435.694    23446433.678    -4429700.362 5  -3451709.888 3
        30.200          23.400
  20342053.542    20342053.019    20342049.711   -24303270.926 7 -18937604.630 7
        45.100          46.300
  23070551.259    23070550.954    23070548.814    -7081546.594 4  -5518078.824 4
        29.200          25.600
  22030099.665    22030099.361    22030095.329   -13555459.828 6 -10562691.176 5
        40.300          34.400
  20581489.530    20581488.969    20581485.882   -22519535.343 7 -17547678.379 7
        42.800          47.200
  21989866.978    21989866.986    21989864.545   -12597270.657 5  -9816046.504 5
        35.800          30.600
  22276146.043    22276145.545    22276143.506   -10702122.300 6  -8339312.802 4
        36.300          29.200
  23528647.091    23528646.648    23528645.751    -5734831.691 4  -4468693.970 2
        24.900          17.000
  20107759.291    20107758.522    20107756.733   -23509906.041 7 -18319398.878 7
        47.000          45.500
  22303064.201    22303063.429    22303062.313   -12545409.696 5  -9775636.106 4
        35.600          29.500
 07  1  1  1 22 30.0000000  0 10G16G21G29G22G18G26G 3G 6G15G 7
  23459345.942    23459345.550    23459344.394    -4361856.181 4  -3398844.299 4
        27.900          24.200
  20345383.873    20345383.426    20345380.212   -24285769.066 7 -18923966.811 7
        45.100          46.300
  23081764.109    23081763.743    23081761.756    -7022620.498 4  -5472162.386 4
        29.500          24.600
  22014635.260    22014635.233    22014631.130   -13636724.908 6 -10626014.603 5
        40.600          34.300
  20576771.447    20576771.083    20576768.219   -22544327.057 7 -17566996.588 7
        42.600          47.300
  21996458.492    21996458.571    21996456.108   -12562630.769 6  -9789054.383 5
        36.000          30.200
  22262471.342    22262470.580    22262468.542   -10773984.668 6  -8395309.446 4
        36.300          28.800
  23549092.589    23549091.749    23549090.817    -5627391.511 4  -4384974.361 3
        25.300          19.300
  20103291.595    20103290.961    20103289.307   -23533382.891 7 -18337692.522 7
        47.000          45.500
  22320557.454    22320556.582    22320555.609   -12453482.597 5  -9704004.600 5
        35.100          30.400
 07  1  1  1 23  0.0000000  0 10G16G21G29G22G18G26G 3G 6G15G 7
  23472328.215    23472327.619    23472325.472    -4293637.095 4  -3345686.598 3
        28.100          21.600
  20348785.887    20348785.306    20348781.962   -24267892.850 7 -18910037.287 7
        45.100          46.300
  23093075.137    23093074.898    23093072.063    -6963183.006 4  -5425847.453 4
        29.200          24.900
  21999232.583    21999232.158    21999227.986   -13717669.623 6 -10689088.399 5
        40.700          34.600
  20572141.486    20572140.912    20572138.132   -22568658.478 7 -17585956.130 7
        42.500          47.300
  22003182.645    22003182.883    22003180.838   -12527292.872 5  -9761518.348 4
        35.100          29.900
  22248877.980    22248877.387    22248875.719   -10845417.356 6  -8450971.274 4
        36.900          29.900
  23569568.819    23569568.538    23569567.724    -5519786.189 4  -4301126.066 3
        25.900          21.600
  20098895.754    20098895.042    20098893.338   -23556483.758 7 -18355693.192 7
        47.000          45.600
  22338107.608    22338106.794    22338105.741   -12361256.106 5  -9632139.811 4
        35.200          29.900
 07  1  1  1 23 30.0000000  0 10G16G21G29G22G18G26G 3G 6G15G 7
  23485379.215    23485378.410    23485376.982    -4225053.304 4  -3292244.699 3
        28.800          21.100
  20352257.419    20352256.851    20352253.488   -24249649.732 7 -18895821.865 7
        45.200          46.200
  23104481.022    23104480.818    23104478.523    -6903243.605 5  -5379141.422 4
        30.100          25.600
  21983888.861    21983888.625    21983884.539   -13798300.459 6 -10751917.620 5
        41.200          35.100
  20567597.495    20567596.991    20567594.173   -22592537.188 7 -17604562.908 7
        42.300          47.500
  22010038.443    22010038.656    22010036.678   -12491265.797 5  -9733445.305 4
        35.300          29.900
  22235365.618    22235364.935    22235363.272   -10916425.609 6  -8506302.374 5
        36.600          31.000
  23590074.512    23590074.355    23590073.857    -5412025.347 3  -4217156.589 3
        23.400          19.900
  20094570.002    20094569.286    20094567.644   -23579215.367 7 -18373406.132 7
        46.900          45.500
  22355712.908    22355712.254    22355711.217   -12268739.669 5  -9560049.094 4
        34.900          29.900
 07  1  1  1 24  0.0000000  0 10G16G21G29G22G18G26G 3G 6G15G 7
  23498498.710    23498498.334    23498495.601    -4156108.494 4  -3238521.491 2
        27.900          16.100
  20355798.524    20355798.015    20355794.711   -24231040.379 7 -18881321.070 7
        45.200          46.100
  23115981.381    23115981.283    23115979.611    -6842805.213 4  -5332046.567 4
        29.200          24.600
  21968605.026    21968604.779    21968600.611   -13878617.013 6 -10814501.945 5
        41.300          34.500
  20563139.624    20563139.038    20563136.136   -22615964.029 7 -17622817.578 7
        42.200          47.500
  22017025.495    22017025.160    22017023.142   -12454551.937 5  -9704837.094 5
        35.400          30.100
  22221933.882    22221933.527    22221931.744   -10987007.956 6  -8561301.584 5
        37.200          31.300
  23610610.360    23610609.811    23610609.048    -5304111.677 4  -4133068.019 3
        24.600          19.300
  20090314.541    20090313.900    20090312.221   -23601577.742 7 -18390831.358 7
        46.800          45.600
  22373372.943    22373372.058    22373370.995   -12175936.176 5  -9487734.698 5
        34.100          30.600
 07  1  1  1 24 30.0000000  0 10G16G21G29G22G18G26G 3G 6G15G 7
  23511686.933    23511686.179    23511683.599    -4086805.780 4  -3184519.386 2
        28.100          15.100
  20359409.430    20359408.839    20359405.577   -24212064.821 7 -18866534.917 7
        45.200          46.100
  23127577.500    23127577.139    23127575.108    -6781870.271 4  -5284564.792 4
        29.000          25.600
  21953381.357    21953381.097    21953377.023   -13958618.219 6 -10876840.531 5
        41.500          35.300
  20558767.460    20558766.909    20558763.971   -22638939.464 7 -17640720.512 7
        42.500          47.400
  22024141.638    22024141.585    22024139.855   -12417152.866 5  -9675694.959 5
        34.900          30.400
  22208583.813    22208583.323    22208581.906   -11057162.351 6  -8615967.319 5
        36.200          31.000
  23631173.862    23631173.786    23631173.040    -5196047.804 3  -4048862.437 3
        22.100          18.600
  20086129.474    20086128.771    20086127.138   -23623570.402 7 -18407968.489 7
        46.900          45.600
  22391086.975    22391086.204    22391085.115   -12082847.751 5  -9415198.290 4
        34.000          29.900
 07  1  1  1 25  0.0000000  0 10G16G21G29G22G18G26G 3G 6G15G 7
  23524942.636    23524942.386    23524939.514    -4017144.977 4  -3130238.255 2
        27.400          17.000
  20363090.633    20363090.077    20363086.815   -24192719.954 7 -18851460.991 7
        45.100          45.900
  23139268.011    23139267.776    23139265.108    -6720438.220 4  -5236695.667 3
        29.500          23.800
  21938218.449    21938218.085    21938213.784   -14038300.410 6 -10938930.537 5
        41.500          35.300
  20554481.616    20554481.194    20554478.306   -22661460.704 7 -17658269.520 7
        42.400          47.500
  22031389.352    22031389.159    22031387.118   -12379067.574 5  -9646018.098 4
        35.200          29.700
  22195316.262    22195315.996    22195314.100   -11126884.257 6  -8670296.071 5
        36.600          30.400
  23651766.548    23651766.501    23651765.269    -5087833.136 4  -3964539.316 2
        24.900          17.800
  20082015.480    20082014.724    20082013.113   -23645189.812 7 -18424814.779 7
        46.600          45.600
  22408855.429    22408854.696    22408853.443   -11989473.922 5  -9342439.477 4
        34.000          29.200
 07  1  1  1 25 30.0000000  0 10G16G21G29G22G18G26G 3G 6G15G 7
  23538264.648    23538264.070    23538261.792    -3947136.393 4  -3075686.118 2
        26.800          13.900
  20366840.731    20366840.202    20366836.919   -24173013.020 7 -18836104.935 7
        45.200          45.900
  23151050.627    23151050.625    23151048.272    -6658518.255 4  -5188446.331 4
        28.600          24.200
  21923114.505    21923114.423    21923110.305   -14117669.482 6 -11000776.549 5
        41.200          35.100
  20550280.926    20550280.573    20550277.782   -22683534.909 7 -17675470.197 7
        42.200          47.600
  22038766.145    22038765.783    22038763.368   -12340304.514 5  -9615813.125 5
        35.400          30.200
  22182130.312    22182129.913    22182127.870   -11196177.970 6  -8724291.169 5
        37.800          30.200
  23672386.270    23672386.005    23672384.923    -4979476.967 3  -3880105.933 2
        23.400          17.800
  20077971.209    20077970.532    20077968.866   -23666442.362 7 -18441375.205 7
        46.600          45.600
  22426676.651    22426676.001    22426674.618   -11895823.863 5  -9269465.423 4
        34.500          29.700
 07  1  1  1 26  0.0000000  0 10G16G21G29G22G18G26G 3G 6G15G 7
  23551655.036    23551654.609    23551652.220    -3876771.678 4  -3020856.455 2
        26.800          16.100
  20370661.626    20370661.198    20370657.887   -24152933.382 7 -18820458.462 7
        45.200          45.800
  23162927.709    23162927.648    23162925.556    -6596101.796 4  -5139810.131 4
        27.600          24.200
  21908073.077    21908072.973    21908068.704   -14196713.807 6 -11062369.507 5
        41.500          35.100
  20546167.729    20546167.199    20546164.219   -22705151.502 7 -17692314.287 7
        42.500          47.600
  22046272.813    22046272.779    22046270.547   -12300854.713 5  -9585073.004 5
        35.400          30.100
  22169027.662    22169027.216    22169025.725   -11265030.727 6  -8777942.645 5
        37.000          30.800
  23693034.183    23693034.211    23693032.813    -4870970.518 3  -3795555.474 2
        23.400          17.800
  20073999.080    20073998.363    20073996.587   -23687316.633 7 -18457640.867 7
        46.600          45.600
  22444551.821    22444550.986    22444549.764   -11801888.887 5  -9196269.352 4
        33.500          29.500
 07  1  1  1 26 30.0000000  0 10G16G21G29G22G18G26G 3G 6G15G 7
  23565109.842    23565109.694    23565107.631    -3806060.474 4  -2965756.816 2
        26.800          17.000
  20374552.455    20374551.924    20374548.633   -24132487.221 7 -18804526.384 7
        45.300          45.700
  23174898.364    23174898.120    23174895.546    -6533197.750 4  -5090793.990 3
        29.000          23.400
  21893092.535    21893092.234    21893087.840   -14275438.504 6 -11123713.406 5
        41.900          35.100
  20542140.110    20542139.539    20542136.526   -22726317.201 7 -17708807.034 7
        42.400          47.800
  22053909.372    22053909.248    22053906.430   -12260726.345 5  -9553804.134 4
        35.700          29.700
  22156008.558    22156008.136    22156006.061   -11333448.227 6  -8831254.982 5
        37.700          30.200
  23713709.077    23713708.814    23713707.218    -4762322.793 3  -3710894.908 1
        22.600          11.000
  20070097.539    20070096.912    20070095.304   -23707818.466 7 -18473616.315 7
        46.700          45.800
  22462479.012    22462478.479    22462477.570   -11707677.742 5  -9122858.086 4
        33.100          29.500
 07  1  1  1 27  0.0000000  0 10G16G21G29G22G18G26G 3G 6G15G 7
  23578633.171    23578632.538    23578630.239    -3735000.138 4  -2910385.151 2
        28.100          17.000
  20378514.203    20378513.699    20378510.233   -24111668.688 7 -18788304.145 7
        45.100          45.700
  23186962.006    23186962.008    23186959.476    -6469802.524 4  -5041395.116 4
        29.500          24.900
  21878173.855    21878173.588    21878169.232   -14353836.855 7 -11184803.007 5
        42.100          35.600
  20538199.076    20538198.615    20538195.701   -22747026.650 7 -17724944.257 7
        42.200          47.700
  22061674.913    22061675.041    22061672.538   -12219915.207 5  -9522003.249 4
        35.500          28.800
  22143073.793    22143073.309    22143071.804   -11401421.408 6  -8884221.081 5
        37.500          31.500
  23734411.655    23734411.226    23734410.044    -4653530.059 3  -3626121.343 2
        22.600          13.900
  20066268.286    20066267.588    20066266.003   -23727941.381 7 -18489296.503 7
        46.500          45.600
  22480460.066    22480459.448    22480459.055   -11613186.737 5  -9049228.740 4
        33.600          29.900
 07  1  1  1 27 30.0000000  0 10G16G21G29G22G18G26G 3G 6G15G 7
  23592221.189    23592220.567    23592218.384    -3663596.282 4  -2854745.781 3
        28.600          18.600
  20382546.095    20382545.628    20382542.233   -24090480.574 7 -18771793.926 7
        45.400          45.500
  23199118.293    23199117.901    23199115.556    -6405921.500 4  -4991617.688 3
        29.000          23.400
  21863316.451    21863316.309    21863312.171   -14431911.084 6 -11245640.039 5
        41.900          35.300
  20534344.495    20534343.964    20534340.997   -22767282.981 7 -17740728.405 7
        42.200          47.700
  22069570.540    22069570.386    22069567.972   -12178426.308 5  -9489674.231 5
        35.600          30.200
  22130223.338    22130222.768    22130221.403   -11468950.723 6  -8936841.313 5
        37.300          31.500
  23755141.248    23755140.735    23755139.608    -4544597.638 4  -3541238.949 2
        24.200          16.100
  20062510.673    20062509.977    20062508.302   -23747687.713 7 -18504683.252 7
        46.400          45.700
  22498493.667    22498492.777    22498492.088   -11518421.283 5  -8975385.550 4
        33.000          29.000
 07  1  1  1 28  0.0000000  0 10G16G21G29G22G18G26G 3G 6G15G 7
  23605874.060    23605873.405    23605870.666    -3591851.330 4  -2798840.638 3
        29.500          19.300
  20386648.389    20386647.927    20386644.662   -24068922.620 7 -18754995.514 7
        45.300          45.600
  23211366.107    23211365.983    23211364.082    -6341555.973 4  -4941462.739 3
        28.100          23.400
  21848521.461    21848521.318    21848517.131   -14509659.369 7 -11306223.093 5
        42.200          35.900
  20530576.158    20530575.675    20530572.705   -22787085.331 7 -17756158.804 7
        42.200          47.800
  22077594.498    22077594.356    22077591.872   -12136260.428 5  -9456817.701 5
        35.600          30.600
  22117457.940    22117457.288    22117455.381   -11536033.777 6  -8989113.812 5
        37.700          30.600
  23775895.914    23775896.074    23775894.681    -4435526.941 3  -3456248.792 2
        23.000          16.100
  20058824.959    20058824.258    20058822.681   -23767055.943 7 -18519775.375 7
        46.300          45.700
  22516578.861    22516578.122    22516577.093   -11423382.509 5  -8901329.385 4
        33.500          28.100
 07  1  1  1 28 30.0000000  0 10G16G21G29G22G18G26G 3G 6G15G 7
  23619588.901    23619588.005    23619585.989    -3519778.706 4  -2742680.169 3
        27.600          20.500
  20390819.195    20390818.752    20390815.494   -24047004.924 7 -18737916.789 7
        45.400          45.500
  23223704.691    23223704.536    23223702.030    -6276719.091 4  -4890940.486 3
        29.200          23.400
  21833786.643    21833786.471    21833782.387   -14587091.103 7 -11366559.487 5
        42.100          35.900
  20526892.154    20526891.707    20526888.739   -22806444.816 7 -17771244.113 7
        42.300          47.900
  22085744.712    22085744.602    22085742.288   -12093430.151 5  -9423443.450 5
        35.600          30.200
  22104775.769    22104775.101    22104773.406   -11602679.220 6  -9041045.322 5
        37.700          31.100
  23796675.300    23796675.356    23796674.867    -4326330.686 3  -3371160.823 3
        22.600          18.600
  20055209.343    20055208.710    20055207.129   -23786056.035 7 -18534580.636 7
        46.400          45.800
  22534713.904    22534713.191    22534711.892   -11328083.336 5  -8827070.295 4
        32.800          28.100
 07  1  1  1 29  0.0000000  0 10G16G21G29G22G18G26G 3G 6G15G 7
  23633367.972    23633367.466    23633365.646    -3447366.176 4  -2686254.818 3
        28.800          21.600
  20395061.532    20395060.922    20395057.609   -24024712.465 7 -18720546.040 7
        45.400          45.400
  23236135.162    23236134.940    23236132.027    -6211397.916 4  -4840040.861 3
        29.900          21.100
  21819115.228    21819115.041    21819110.940   -14664190.176 6 -11426636.655 6
        41.900          36.400
  20523295.335    20523294.825    20523291.929   -22825346.642 7 -17785972.801 8
        42.300          48.000
  22094023.827    22094023.733    22094021.558   -12049922.047 5  -9389541.028 5
        35.500          30.200
  22092180.090    22092179.411    22092177.601   -11668869.758 6  -9092622.357 5
        38.000          31.300
  23817481.072    23817480.824    23817480.181    -4216996.256 3  -3285965.182 2
        23.000          17.000
  20051666.935    20051666.142    20051664.583   -23804672.379 7 -18549086.869 7
        46.400          45.800
  22552900.508    22552899.716    22552899.076   -11232510.800 5  -8752598.203 4
        32.800          27.900
 07  1  1  1 29 30.0000000  0 10G16G21G29G22G18G26G 3G 6G15G 7
  23647210.283    23647209.942    23647207.831    -3374623.694 4  -2629572.387 3
        28.100          21.100
  20399373.396    20399372.861    20399369.613   -24002052.583 7 -18702888.989 7
        45.300          45.400
  23248655.076    23248654.897    23248652.621    -6145602.187 4  -4788771.450 3
        27.400          23.400
  21804505.976    21804505.696    21804501.411   -14740962.886 6 -11486459.513 6
        41.900          36.200
  20519784.078    20519783.584    20519780.724   -22843798.049 7 -17800350.514 8
        42.200          48.100
  22102430.192    22102430.233    22102428.102   -12005745.141 5  -9355117.467 5
        35.100          30.100
  22079669.683    22079669.174    22079667.391   -11734610.404 6  -9143848.826 5
        37.900          31.300
  23838311.308    23838311.309    23838310.367    -4107532.957 3  -3200669.125 2
        23.400          16.100
  20048195.882    20048195.358    20048193.840   -23822911.397 7 -18563299.087 7
        46.500          45.800
  22571138.062    22571137.209    22571136.213   -11136674.306 5  -8677920.445 4
        33.200          29.200
 07  1  1  1 30  0.0000000  0 11G16G21G29G22G18G26G19G 3G 6G15G 7
  23661114.822    23661114.239    23661112.282    -3301556.211 4  -2572636.701 3
        26.500          19.300
  20403754.816    20403754.459    20403751.190   -23979027.109 7 -18684947.056 7
        45.400          45.300
  23261265.175    23261264.980    23261262.693    -6079335.944 4  -4737135.403 3
        28.400          22.600
  21789958.441    21789958.218    21789953.896   -14817410.578 7 -11546029.120 5
        42.400          35.800
  20516358.157    20516357.654    20516354.802   -22861801.371 7 -17814379.069 8
        42.200          48.100
  22110963.604    22110963.407    22110961.292   -11960903.337 5  -9320175.800 4
        35.100          29.900
  24703338.924    24703338.575    24703334.802     -199375.109 2   -155357.115 2
        17.800          12.600
  22067245.389    22067244.879    22067243.421   -11799900.999 6  -9194724.609 5
        38.000          31.800
  23859165.093    23859165.103    23859164.270    -3997944.840 3  -3115275.798 2
        20.500          17.000
  20044796.891    20044796.216    20044794.623   -23840774.335 7 -18577218.255 7
        46.500          45.800
  22589424.776    22589423.882    22589422.604   -11040578.085 5  -8603040.291 4
        32.100          27.400
 07  1  1  1 30 30.0000000  0 11G16G21G29G22G18G26G19G 3G 6G15G 7
  23675081.774    23675080.773    23675079.380    -3228159.007 3  -2515444.092 3
        23.800          18.600
  20408207.608    20408207.156    20408203.770   -23955628.153 7 -18666714.103 7
        45.300          45.100
  23273966.363    23273965.965    23273963.419    -6012593.774 4  -4685128.530 3
        28.100          22.600
  21775474.629    21775474.270    21775470.120   -14893524.025 7 -11605338.281 6
        42.400          36.200
  20513019.025    20513018.518    20513015.590   -22879349.020 7 -17828052.555 8
        42.200          48.200
  22119624.150    22119624.106    22119622.054   -11915390.678 5  -9284711.383 4
        34.700          29.500
  24683753.318    24683752.903    24683749.302     -302297.099 2   -235556.024 1
        16.100           9.000
  22054908.863    22054908.292    22054906.306   -11864731.581 6  -9245241.924 5
        38.400          32.000
  23880043.507    23880043.716    23880042.316    -3888226.548 3  -3029781.047 1
        23.000          11.000
  20041470.802    20041470.092    20041468.541   -23858252.753 7 -18590837.794 7
        46.400          46.000
  22607761.236    22607760.531    22607759.640   -10944216.453 5  -8527953.314 4
        32.300          26.800
 07  1  1  1 31  0.0000000  0 11G16G21G29G22G18G26G19G 3G 6G15G 7
  23689109.671    23689108.964    23689107.234    -3154440.055 4  -2458000.753 3
        24.200          18.600
  20412730.630    20412730.036    20412726.660   -23931860.448 7 -18648193.809 7
        45.400          45.100
  23286756.109    23286755.722    23286753.077    -5945383.101 4  -4632756.563 3
        28.800          23.800
  21761053.658    21761053.312    21761048.807   -14969307.226 7 -11664390.105 6
        42.500          36.200
  20509765.492    20509765.014    20509762.095   -22896446.285 7 -17841375.093 8
        42.100          48.300
  22128411.373    22128411.304    22128409.276   -11869214.020 5  -9248729.569 5
        35.400          30.200
  24664193.701    24664194.023    24664190.418     -405080.357 3   -315646.811 9
        18.600          -3.000
  22042658.732    22042658.170    22042656.077   -11929104.999 6  -9295403.025 5
        37.900          31.000
  23900945.582    23900946.043    23900945.232    -3778384.993 3  -2944190.245 2
        19.900          15.100
  20038217.135    20038216.479    20038214.825   -23875350.837 7 -18604160.971 7
        46.500          45.800
  22626147.478    22626146.758    22626145.838   -10847596.535 5  -8452665.074 4
        32.700          27.600
 07  1  1  1 31 30.0000000  0 11G16G21G29G22G18G26G19G 3G 6G15G 7
  23703198.180    23703197.652    23703195.898    -3080402.045 3  -2400308.826 2
        23.800          16.100
  20417323.530    20417322.971    20417319.641   -23907724.043 7 -18629386.216 7
        45.500          45.000
  23299634.336    23299634.198    23299631.758    -5877705.981 4  -4580021.142 3
        28.400          23.400
  21746695.340    21746695.191    21746690.972   -15044758.941 7 -11723183.632 6
        42.900          36.100
  20506597.688    20506597.090    20506594.275   -22913093.345 7 -17854346.816 8
        42.300          48.400
  22137324.515    22137324.422    22137322.199   -11822375.082 5  -9212231.695 5
        35.600          30.200
  24644662.598    24644661.335    24644658.413     -507722.179 3   -395627.400 1
        18.600          11.000
  22030496.388    22030495.764    22030493.395   -11993019.019 6  -9345206.154 5
        38.200          30.400
  23921871.792    23921871.443    23921870.199    -3668422.470 3  -2858505.164 2
        20.500          13.900
  20035036.047    20035035.388    20035033.713   -23892067.878 7 -18617187.231 7
        46.500          45.800
  22644581.685    22644581.469    22644580.970   -10750720.428 5  -8377177.211 4
        32.000          28.400
 07  1  1  1 32  0.0000000  0 11G16G21G29G22G18G26G19G 3G 6G15G 7
  23717347.102    23717346.666    23717344.119    -3006052.390 4  -2342374.044 2
        26.800          15.100
  20421985.744    20421985.231    20421981.977   -23883223.461 7 -18610294.851 7
        45.500          44.900
  23312599.358    23312599.363    23312597.727    -5809569.462 4  -4526927.741 3
        27.600          23.400
  21732399.556    21732399.383    21732395.048   -15119883.100 7 -11781721.920 5
        42.700          35.900
  20503514.804    20503514.201    20503511.227   -22929294.807 7 -17866971.326 8
        42.200          48.400
  22146362.289    22146362.318    22146360.150   -11774880.435 5  -9175222.873 4
        34.900          29.700
  24625156.734    24625155.422    24625152.703     -610225.159 3   -475499.768 9
        19.900          -3.000
  22018420.723    22018420.211    22018418.173   -12056476.308 6  -9394653.388 5
        38.800          31.600
  23942818.619    23942818.450    23942817.442    -3558345.704 3  -2772731.072 2
        22.100          13.900
  20031926.761    20031926.081    20031924.371   -23908407.829 7 -18629919.656 7
        46.400          45.900
  22663064.523    22663063.928    22663062.915   -10653594.880 5  -8301494.990 4
        32.000          27.100
 07  1  1  1 32 30.0000000  0 11G16G21G29G22G18G26G19G 3G 6G15G 7
  23731556.415    23731555.805    23731553.081    -2931385.695 4  -2284192.227 2
        27.100          13.900
  20426719.014    20426718.506    20426715.262   -23858349.948 7 -18590912.889 7
        45.400          44.900
  23325654.097    23325654.039    23325652.521    -5740967.170 4  -4473471.428 4
        27.100          24.600
  21718168.080    21718167.879    21718163.628   -15194669.788 7 -11839997.247 5
        42.900          35.900
  20500518.015    20500517.549    20500514.452   -22945042.595 7 -17879242.322 8
        42.100          48.400
  22155526.159    22155525.969    22155523.949   -11726723.538 5  -9137698.017 4
        34.400          29.500
  24605678.924    24605677.987    24605675.346     -712578.201 3   -555255.374 1
        22.600           6.500
  22006433.957    22006433.592    22006431.791   -12119465.866 6  -9443736.156 5
        38.700          31.500
  23963789.036    23963788.608    23963787.378    -3448148.048 3  -2686862.812 2
        21.100          16.100
  20028890.967    20028890.262    20028888.559   -23924361.154 7 -18642350.811 7
        46.400          46.000
  22681595.496    22681595.142    22681594.136   -10556213.433 5  -8225613.352 4
        31.600          27.400
 07  1  1  1 33  0.0000000  0 11G16G21G29G22G18G26G19G 3G 6G15G 7
  23745824.724    23745824.226    23745821.722    -2856404.719 4  -2225765.477 1
        28.400          11.000
  20431523.427    20431522.803    20431519.485   -23833103.356 7 -18571240.217 7
        45.500          44.800
  23338797.753    23338797.410    23338795.233    -5671901.602 4  -4419654.106 3
        28.400          23.400
  21704001.011    21704000.746    21703996.668   -15269118.358 7 -11898009.113 6
        42.700          36.500
  20497607.510    20497606.951    20497603.920   -22960337.309 7 -17891160.271 8
        42.000          48.400
  22164815.709    22164815.581    22164813.832   -11677906.225 5  -9099658.545 4
        33.900          29.700
  24586230.751    24586230.469    24586227.047     -814779.669 3   -634892.844 1
        20.500           9.000
  21994537.208    21994536.541    21994535.096   -12181985.863 6  -9492453.024 5
        39.000          32.100
  23984782.071    23984781.001    23984779.183    -3337832.006 3  -2600902.281 2
        21.100          12.600
  20025928.676    20025928.037    20025926.366   -23939927.392 7 -18654480.341 7
        46.500          46.100
  22700174.845    22700174.377    22700173.550   -10458578.290 5  -8149534.028 4
        31.800          27.400
 07  1  1  1 33 30.0000000  0 11G16G21G29G22G18G26G19G 3G 6G15G 7
  23760151.398    23760150.389    23760148.257    -2781120.069 4  -2167102.106 1
        27.600          11.000
  20436397.139    20436396.612    20436393.284   -23807491.579 7 -18551282.985 7
        45.600          44.800
  23352026.809    23352026.356    23352024.199    -5602382.529 4  -4365483.390 3
        27.100          23.400
  21689897.060    21689896.954    21689892.746   -15343234.974 7 -11955762.310 6
        42.800          36.700
  20494781.540    20494781.161    20494778.259   -22975186.101 7 -17902730.751 8
        42.000          48.400
  22174229.733    22174229.562    22174227.372   -11628438.109 5  -9061111.964 4
        34.300          29.000
  24566811.055    24566810.007    24566807.029     -916834.523 3   -714416.058 1
        21.100          11.000
  21982728.665    21982727.932    21982726.267   -12244041.558 6  -9540808.104 5
        38.800          33.000
  24005793.987    24005794.373    24005792.697    -3227407.110 3  -2514856.919 2
        23.400          15.100
  20023039.072    20023038.373    20023036.680   -23955113.327 7 -18666313.532 7
        46.600          46.100
  22718801.122    22718800.402    22718799.311   -10360699.301 5  -8073264.703 4
        31.100          27.100
 07  1  1  1 34  0.0000000  0 11G16G21G29G22G18G26G19G 3G 6G15G 7
  23774535.633    23774534.977    23774532.755    -2705527.027 4  -2108198.435 2
        26.800          13.900
  20441341.779    20441341.315    20441338.018   -23781506.754 7 -18531035.066 7
        45.800          44.800
  23365342.630    23365342.639    23365340.242    -5532404.959 4  -4310955.420 3
        27.900          22.100
  21675858.162    21675857.857    21675853.602   -15417011.360 7 -12013250.393 6
        43.100          36.800
  20492042.358    20492041.827    20492038.928   -22989581.795 7 -17913948.167 8
        42.000          48.500
  22183767.528    22183767.501    22183765.590   -11578313.552 5  -9022053.865 4
        34.400          28.800
  24547421.088    24547419.375    24547416.795    -1018732.434 3   -793816.998
        21.100           3.000
  21971009.854    21971009.219    21971007.509   -12305623.438 6  -9588793.971 5
        38.900          32.600
  24026828.868    24026828.762    24026827.876    -3116867.852 3  -2428722.457 1
        20.500          11.000
  20020223.095    20020222.449    20020220.823   -23969910.666 7 -18677843.919 7
        46.500          46.100
  22737474.417    22737473.665    22737472.874   -10262570.928 5  -7996801.051 4
        31.500          27.100
 07  1  1  1 34 30.0000000  0 11G16G21G29G22G18G26G19G 3G 6G15G 7
  23788977.873    23788977.112    23788975.538    -2629632.718 4  -2049060.012 2
        27.100          16.100
  20446356.933    20446356.319    20446352.957   -23755153.050 7 -18510499.713 7
        45.600          44.600
  23378744.723    23378744.650    23378742.186    -5461975.383 4  -4256075.220 3
        26.800          22.100
  21661883.084    21661882.812    21661878.408   -15490450.913 7 -12070476.007 6
        43.400          36.800
  20489388.286    20489387.770    20489384.811   -23003529.412 7 -17924816.433 8
        42.200          48.500
  22193429.943    22193429.779    22193427.701   -11527538.970 5  -8982489.245 4
        34.000          29.000
  24528060.617    24528059.009    24528054.893    -1120475.737 3   -873097.481 2
        23.000          12.600
  21959380.674    21959380.094    21959378.529   -12366733.621 6  -9636412.289 5
        38.600          32.700
  24047884.595    24047884.357    24047883.243    -3006221.044 3  -2342504.176 1
        23.000           6.500
  20017480.458    20017479.777    20017478.169   -23984323.106 7 -18689074.392 7
        46.400          46.100
  22756193.899    22756193.015    22756191.930   -10164199.769 5  -7920148.219 4
        30.100          26.500
 07  1  1  1 35  0.0000000  0 11G16G21G29G22G18G26G19G 3G 6G15G 7
  23803476.315    23803476.050    23803474.075    -2553440.212 4  -1989689.238 3
        25.900          18.600
  20451441.776    20451441.243    20451438.038   -23728430.898 7 -18489677.253 7
        45.500          44.500
  23392232.883    23392232.568    23392230.273    -5391096.507 4  -4200844.951 3
        26.200          22.100
  21647972.216    21647971.966    21647967.671   -15563552.680 7 -12127438.414 6
        43.500          37.100
  20486819.338    20486818.778    20486815.740   -23017029.513 7 -17935335.985 8
        42.200          48.600
  22203214.918    22203215.025    22203212.590   -11476116.717 5  -8942419.954 4
        34.400          27.900
  24508728.413    24508727.376    24508723.359    -1222062.273 4   -952255.800 2
        24.200          13.900
  21947841.397    21947841.012    21947839.572   -12427370.387 6  -9683661.717 5
        38.700          32.300
  24068960.633    24068960.026    24068958.882    -2895468.901 3  -2256203.809 1
        19.900          11.000
  20014811.196    20014810.467    20014809.034   -23998350.085 7 -18700004.499 7
        46.400          46.200
  22774958.381    22774957.957    22774957.198   -10065588.168 5  -7843308.028 4
        31.100          24.900
 07  1  1  1 35 30.0000000  0 11G16G21G29G22G18G26G19G 3G 6G15G 7
  23818032.070    23818031.332    23818028.800    -2476954.062 4  -1930089.658 2
        26.200          15.100
  20456596.814    20456596.280    20456592.906   -23701341.495 7 -18468568.625 7
        45.600          44.300
  23405805.628    23405805.520    23405802.832    -5319772.146 4  -4145267.509 3
        27.600          22.100
  21634125.505    21634125.285    21634120.852   -15636317.417 7 -12184138.199 6
        43.100          36.800
  20484335.051    20484334.621    20484331.656   -23030083.777 7 -17945508.131 8
        42.200          48.600
  22213123.195    22213123.172    22213120.668   -11424050.304 5  -8901848.716 4
        34.100          27.600
  24489426.796    24489425.277    24489422.053    -1323491.232 3  -1031291.340 2
        23.400          15.100
  21936393.347    21936392.873    21936391.243   -12487532.987 6  -9730541.654 5
        39.300          33.000
  24090053.995    24090054.206    24090052.914    -2784615.244 3  -2169824.351 2
        20.500          12.600
  20012215.233    20012214.515    20012212.954   -24011992.389 7 -18710634.863 7
        46.600          46.200
  22793768.862    22793768.267    22793767.105    -9966739.725 5  -7766283.269 4
        31.100          25.600
 07  1  1  1 36  0.0000000  0 11G16G21G29G22G18G26G19G 3G 6G15G 7
  23832642.083    23832641.841    23832639.927    -2400173.045 3  -1870260.306 2
        23.400          17.800
  20461822.582    20461821.962    20461818.657   -23673880.085 7 -18447170.122 7
        45.700          44.300
  23419463.373    23419463.098    23419460.712    -5248000.323 4  -4089341.404 3
        26.500          21.100
  21620343.757    21620343.647    21620339.384   -15708739.530 7 -12240571.011 6
        43.200          37.100
  20481936.655    20481936.206    20481933.220   -23042687.827 7 -17955329.463 8
        42.200          48.800
  22223154.088    22223153.962    22223152.245   -11371337.369 5  -8860773.704 4
        34.500          29.700
  24470156.456    24470155.007    24470152.538    -1424755.992 4  -1110198.925 2
        24.200          15.100
  21925036.302    21925035.803    21925033.933   -12547215.072 6  -9777047.169 5
        39.400          33.000
  24111168.926    24111168.592    24111167.825    -2673657.561 2  -2083363.826 1
        17.000           9.000
  20009693.400    20009692.740    20009690.998   -24025244.828 7 -18720961.435 7
        46.600          46.000
  22812624.472    22812623.948    22812622.877    -9867652.401 5  -7689072.372 4
        30.100          24.900
 07  1  1  1 36 30.0000000  0 11G16G21G29G22G18G26G19G 3G 6G15G 7
  23847307.463    23847307.228    23847305.523    -2323103.881 3  -1810206.446 2
        23.400          17.800
  20467118.065    20467117.606    20467114.331   -23646051.171 7 -18425485.252 7
        45.800          44.200
  23433204.802    23433204.778    23433202.666    -5175787.333 4  -4033071.540 3
        26.800          22.100
  21606627.210    21606626.940    21606622.593   -15780821.909 7 -12296739.096 6
        43.400          37.000
  20479623.210    20479622.619    20479619.566   -23054846.062 7 -17964803.406 8
        42.400          48.700
  22233306.672    22233306.691    22233304.723   -11317983.947 5  -8819199.608 4
        34.000          28.600
  24450916.869    24450916.002    24450913.308    -1525858.160 4  -1188979.840 2
        27.600          17.000
  21913770.295    21913769.709    21913767.926   -12606418.570 6  -9823179.757 5
        39.400          32.300
  24132300.472    24132300.472    24132301.388    -2562601.999 2  -1996827.074 2
        16.100          12.600
  20007245.018    20007244.421    20007242.632   -24038110.778 7 -18730986.847 7
        46.700          46.000
  22831523.799    22831523.604    22831523.217    -9768332.088 4  -7611679.939 4
        29.900          25.300
 07  1  1  1 37  0.0000000  0 11G16G21G29G22G18G26G19G 3G 6G15G 7
  23862030.150    23862029.525    23862027.967    -2245738.771 3  -1749921.961 3
        23.800          18.600
  20472485.836    20472485.338    20472482.015   -23617843.750 7 -18403505.437 7
        45.800          44.100
  23447031.713    23447031.591    23447029.669    -5103124.930 4  -3976451.482 3
        27.100          20.500
  21592976.940    21592976.910    21592972.564   -15852552.975 7 -12352633.425 6
        43.400          37.100
  20477396.081    20477395.607    20477392.672   -23066548.209 6 -17973921.954 8
        41.900          48.600
  22243583.000    22243583.013    22243580.705   -11263981.673 5  -8777119.903 4
        33.500          28.100
  24431710.889    24431710.039    24431707.440    -1626784.584 4  -1267623.804 2
        25.900          17.800
  21902597.693    21902597.003    21902595.416   -12665130.691 6  -9868929.453 5
        39.400          32.600
  24153453.869    24153454.425    24153455.377    -2451440.118 3  -1910207.475 1
        18.600           9.000
  20004872.396    20004871.737    20004870.064   -24050578.781 7 -18740702.167 7
        46.500          46.100
  22850470.805    22850470.070    22850469.242    -9668770.469 5  -7534099.476 4
        30.400          26.200
 07  1  1  1 37 30.0000000  0 11G16G21G29G22G18G26G19G 3G 6G15G 7
  23876804.819    23876803.998    23876802.414    -2168097.890 3  -1689422.597 2
        23.000          13.900
  20477922.289    20477921.767    20477918.387   -23589275.057 7 -18381244.119 7
        45.800          44.000
  23460940.837    23460940.506    23460938.492    -5030032.966 4  -3919496.719 3
        26.500          22.100
  21579390.876    21579390.718    21579386.421   -15923949.250 7 -12408266.883 6
        43.800          37.500
  20475252.687    20475252.174    20475249.165   -23077812.324 7 -17982699.182 8
        42.000          48.800
  22253979.180    22253978.997    22253976.632   -11209349.922 5  -8734549.704 4
        33.600          27.600
  24412535.429    24412535.292    24412532.666    -1727550.266 4  -1346142.499 2
        24.900          17.000
  21891515.616    21891515.154    21891513.235   -12723366.877 6  -9914308.297 5
        39.400          32.300
  24174625.787    24174625.817    24174625.210    -2340191.502 3  -1823520.271 1
        21.100           9.000
  20002572.425    20002571.720    20002570.036   -24062665.608 7 -18750120.466 7
        46.500          46.100
  22869458.980    22869458.402    22869457.577    -9568987.205 4  -7456346.294 4
        29.500          26.500
 07  1  1  1 38  0.0000000  0 11G16G21G29G22G18G26G19G 3G 6G15G 7
  23891633.814    23891633.261    23891631.450    -2090170.513 4  -1628699.984 2
        25.300          13.900
  20483430.247    20483429.676    20483426.232   -23560331.183 7 -18358690.447 7
        45.800          43.900
  23474933.873    23474933.665    23474931.345    -4956499.856 4  -3862198.179 3
        27.100          22.100
  21565871.107    21565870.914    21565866.532   -15994995.965 7 -12463627.954 6
        43.500          37.500
  20473195.209    20473194.701    20473191.675   -23088624.596 6 -17991124.325 8
        41.800          48.700
  22264497.362    22264497.145    22264494.928   -11154076.960 5  -8691479.862 4
        33.600          28.100
  24393394.236    24393394.027    24393391.354    -1828138.895 4  -1424523.234 2
        28.400          17.000
  21880527.164    21880526.893    21880524.786   -12781111.151 6  -9959303.833 5
        40.100          32.400
  24195814.431    24195814.026    24195813.032    -2228844.133 3  -1736756.092 1
        18.600           6.500
  20000347.938    20000347.161    20000345.356   -24074356.503 7 -18759230.251 7
        46.500          46.100
  22888491.736    22888490.893    22888489.737    -9468970.367 4  -7378411.105 4
        29.200          25.600
 07  1  1  1 38 30.0000000  0 11G16G21G29G22G18G26G19G 3G 6G15G 7
  23906516.370    23906515.585    23906513.162    -2011967.118 4  -1567762.279 2
        27.600          16.100
  20489007.855    20489007.367    20489004.104   -23531019.766 7 -18335850.377 7
        45.800          43.900
  23489009.483    23489008.885    23489006.460    -4882535.426 4  -3804563.556 3
        27.100          20.500
  21552416.943    21552416.580    21552412.194   -16065699.515 7 -12518721.619 6
        43.800          37.700
  20471222.126    20471221.638    20471218.663   -23098992.772 6 -17999203.414 8
        41.900          48.800
  22275135.747    22275135.709    22275133.639   -11098172.462 5  -8647917.912 4
        34.100          29.000
  24374285.432    24374285.249    24374282.412    -1928555.750 4  -1502770.139 2
        28.600          16.100
  21869631.419    21869631.075    21869629.267   -12838368.887 6 -10003920.247 5
        40.000          32.600
  24217020.301    24217020.205    24217019.125    -2117407.855 3  -1649922.635 1
        21.100           6.500
  19998197.072    19998196.364    19998194.745   -24085658.261 7 -18768036.813 7
        46.400          46.100
  22907566.397    22907565.708    22907564.840    -9368729.575 4  -7300301.412 4
        29.200          25.300
 07  1  1  1 39  0.0000000  0 11G16G21G29G22G18G26G19G 3G 6G15G 7
  23921449.696    23921449.175    23921446.529    -1933490.826 4  -1506611.926 1
        29.000           6.500
  20494655.648    20494655.090    20494651.774   -23501341.004 7 -18312724.069 7
        46.000          43.800
  23503165.821    23503165.391    23503163.040    -4808142.659 4  -3746595.148 3
        26.500          22.100
  21539027.731    21539027.482    21539023.241   -16136059.458 7 -12573547.547 6
        43.800          37.900
  20469333.526    20469332.959    20469329.996   -23108917.645 6 -18006937.078 8
        41.900          48.800
  22285893.986    22285893.746    22285891.321   -11041639.085 5  -8603865.925 4
        34.100          28.100
  24355210.646    24355210.015    24355206.936    -2028798.740 4  -1580881.522 3
        28.400          18.600
  21858828.542    21858827.933    21858826.309   -12895138.588 6 -10048156.370 5
        39.600          32.800
  24238241.131    24238241.844    24238241.177    -2005885.133 3  -1563021.822 2
        19.300          12.600
  19996120.464    19996119.760    19996118.171   -24096570.627 7 -18776539.945 7
        46.400          46.100
  22926683.931    22926683.253    22926682.147    -9268267.521 4  -7222019.315 4
        29.900          24.200
 07  1  1  1 39 30.0000000  0 11G16G21G29G22G18G26G19G 3G 6G15G 7
  23936436.254    23936435.690    23936434.129    -1854735.619 4  -1445244.180 1
        27.400           9.000
  20500374.896    20500374.402    20500371.073   -23471285.648 7 -18289304.309 7
        46.000          43.800
  23517404.521    23517404.361    23517401.775    -4733314.828 4  -3688287.757 3
        26.500          21.100
  21525705.760    21525705.633    21525701.470   -16206065.586 7 -12628097.769 6
        44.000          37.500
  20467530.740    20467530.360    20467527.412   -23118390.285 7 -18014318.348 8
        42.000          48.700
  22296771.925    22296772.030    22296770.209   -10984470.032 5  -8559318.605 4
        33.100          28.100
  24336171.236    24336169.906    24336166.919    -2128856.377 4  -1658848.480 2
        27.900          17.800
  21848120.547    21848120.073    21848118.320   -12951409.090 6 -10092003.518 5
        40.000          33.000
  24259481.953    24259482.060    24259481.565    -1894268.897 2  -1476048.186 2
        15.100          16.100
  19994119.698    19994119.106    19994117.525   -24107083.781 7 -18784732.010 7
        46.400          46.100
  22945844.648    22945844.128    22945842.898    -9167577.358 5  -7143559.456 4
        30.200          24.900
 07  1  1  1 40  0.0000000  0 11G16G21G29G22G18G26G19G 3G 6G15G 7
  23951473.377    23951472.969    23951470.197    -1775713.917 4  -1383668.841 2
        25.300          15.100
  20506164.146    20506163.670    20506160.255   -23440863.125 7 -18265598.448 7
        46.000          43.500
  23531724.371    23531724.297    23531721.862    -4658063.758 4  -3629650.555 3
        26.200          19.900
  21512449.788    21512449.560    21512445.432   -16275726.572 7 -12682379.046 6
        43.800          37.800
  20465812.583    20465811.983    20465808.967   -23127420.769 7 -18021355.081 8
        42.000          48.800
  22307770.167    22307770.084    22307767.929   -10926676.806 5  -8514284.922 4
        33.200          29.000
  24317164.538    24317163.391    24317159.738    -2228735.630 4  -1736676.458 2
        24.900          17.000
  21837506.292    21837505.730    21837504.278   -13007187.849 6 -10135467.480 5
        40.000          33.400
  24280738.118    24280737.581    24280736.635    -1782570.889 3  -1389010.837 2
        19.300          16.100
  19992193.619    19992192.962    19992191.261   -24117206.434 7 -18792619.785 7
        46.400          46.100
  22965047.084    22965046.086    22965044.913    -9066670.610 4  -7064930.826 3
        29.000          23.000
 07  1  1  1 40 30.0000000  0 11G16G21G29G22G18G26G19G 3G 6G15G 7
  23966560.500    23966560.452    23966558.614    -1696425.957 3  -1321886.049 2
        22.100          16.100
  20512023.668    20512023.173    20512019.784   -23410071.089 7 -18241604.650 7
        46.000          43.500
  23546125.288    23546124.731    23546122.145    -4582389.205 4  -3570683.366 3
        26.500          21.600
  21499260.256    21499259.988    21499255.683   -16345038.593 7 -12736388.411 6
        44.200          37.600
  20464178.481    20464178.012    20464175.088   -23136006.822 7 -18028045.503 8
        42.000          48.800
  22318886.731    22318886.682    22318884.409   -10868259.102 5  -8468764.629 4
        33.200          28.400
  24298192.502    24298191.157    24298188.457    -2328431.433 4  -1814361.472 2
        25.900          17.000
  21826986.044    21826985.687    21826984.414   -13062470.207 6 -10178544.633 5
        40.000          33.800
  24302008.878    24302008.657    24302007.042    -1670790.405 2  -1301909.227 1
        17.800           6.500
  19990342.289    19990341.606    19990339.982   -24126935.212 7 -18800200.643 7
        46.400          46.100
  22984290.115    22984289.268    22984287.925    -8965546.732 4  -6986132.999 3
        28.600          22.600
 07  1  1  1 41  0.0000000  0 11G16G21G29G22G18G26G19G 3G 6G15G 7
  23981698.311    23981697.779    23981696.465    -1616877.355 3  -1259900.135 2
        22.600          12.600
  20517952.881    20517952.422    20517949.122   -23378912.199 7 -18217324.993 7
        46.000          43.500
  23560605.235    23560604.771    23560602.317    -4506296.654 4  -3511390.463 3
        26.500          20.500
  21486136.746    21486136.416    21486131.917   -16414004.002 7 -12790127.683 6
        44.000          38.000
  20462628.682    20462628.190    20462625.107   -23144151.783 7 -18034392.222 8
        42.100          48.900
  22330120.729    22330120.756    22330118.533   -10809222.240 5  -8422761.880 4
        33.200          27.900
  24279255.310    24279254.709    24279252.076    -2427944.336 4  -1891903.940 3
        26.500          21.600
  21816560.543    21816560.168    21816558.309   -13117257.178 6 -10221235.773 5
        40.300          33.000
  24323293.164    24323294.723    24323292.498    -1558932.742 3  -1214747.416 9
        22.600          -3.000
  19988565.382    19988564.694    19988563.105   -24136272.393 7 -18807476.364 7
        46.300          46.100
  23003573.782    23003572.978    23003571.811    -8864211.029 4  -6907170.118 3
        28.600          23.000
 07  1  1  1 41 30.0000000  0 11G16G21G29G22G18G26G19G 3G 6G15G 7
  23996886.589    23996885.701    23996883.886    -1537066.730 3  -1197710.075 2
        22.600          13.900
  20523953.162    20523952.542    20523949.171   -23347381.604 7 -18192755.699 7
        45.900          43.400
  23575164.523    23575164.416    23575162.217    -4429783.914 4  -3451770.160 3
        26.500          20.500
  21473079.892    21473079.760    21473075.369   -16482616.994 7 -12843592.337 6
        44.300          38.000
  20461163.387    20461162.980    20461159.964   -23151851.180 6 -18040391.741 8
        41.600          48.800
  22341473.531    22341473.503    22341471.459   -10749563.773 5  -8376274.762 4
        33.200          27.900
  24260355.441    24260354.609    24260351.775    -2527267.312 4  -1969298.417 3
        27.900          22.100
  21806230.746    21806230.165    21806228.193   -13171542.173 6 -10263535.775 5
        40.400          33.100
  24344595.900    24344595.859    24344594.257    -1446995.239 3  -1127523.378 9
        21.100          -3.000
  19986864.118    19986863.447    19986861.793   -24145212.636 7 -18814442.781 7
        46.300          45.900
  23022897.812    23022897.076    23022896.045    -8762661.008 4  -6828040.239 3
        28.800          23.000
 07  1  1  1 42  0.0000000  0 11G16G21G29G22G18G26G19G 3G 6G15G 7
  24012122.481    24012122.022    24012119.869    -1456997.678 3  -1135318.628 2
        22.600          15.100
  20530023.887    20530023.300    20530019.831   -23315479.936 7 -18167897.257 7
        45.800          43.100
  23589803.611    23589803.433    23589801.309    -4352854.147 4  -3391824.842 3
        25.600          21.600
  21460090.170    21460090.108    21460085.770   -16550877.455 7 -12896782.302 6
        44.300          38.100
  20459782.769    20459782.355    20459779.368   -23159106.400 6 -18046045.158 8
        41.900          48.800
  22352943.972    22352943.869    22352941.649   -10689286.801 5  -8329305.691 4
        33.100          27.400
  24241491.934    24241490.928    24241486.490    -2626398.621 4  -2046543.570 3
        29.200          18.600
  21795996.537    21795996.050    21795993.985   -13225324.030 6 -10305443.709 5
        40.700          33.100
  24365912.005    24365911.271    24365910.281    -1334980.557 2  -1040239.197
        12.600           3.000
  19985238.479    19985237.816    19985236.044   -24153755.941 7 -18821099.895 7
        46.500          45.900
  23042261.774    23042261.555    23042260.713    -8660899.446 4  -6748745.524 4
        28.800          24.200
 07  1  1  1 42 30.0000000  0 11G16G21G29G22G18G26G19G 3G 6G15G 7
  24027407.252    24027406.918    24027405.856    -1376674.016 3  -1072728.781 2
        22.100          16.100
  20536164.781    20536164.336    20536160.920   -23283208.330 7 -18142750.551 7
        46.000          43.000
  23604521.386    23604521.257    23604519.392    -4275510.869 4  -3331557.373 3
        24.600          20.500
  21447167.915    21447167.751    21447163.318   -16618785.643 7 -12949697.763 6
        44.400          38.400
  20458486.520    20458486.064    20458483.017   -23165918.659 6 -18051353.406 8
        41.900          48.800
  22364531.101    22364531.063    22364528.769   -10628394.581 5  -8281857.197 4
        33.200          27.400
  24222663.534    24222663.042    24222658.886    -2725336.692 4  -2123638.192 2
        28.400          15.100
  21785857.987    21785857.504    21785855.581   -13278601.731 6 -10346958.802 5
        40.700          33.600
  24387241.355    24387239.874    24387239.920    -1222891.995 2   -952897.523 9
        12.600          -3.000
  19983688.325    19983687.567    19983685.761   -24161902.570 7 -18827447.917 7
        46.400          46.000
  23061666.735    23061665.685    23061665.257    -8558929.656 4  -6669288.564 4
        25.600          24.200
 07  1  1  1 43  0.0000000  0 11G16G21G29G22G18G26G19G 3G 6G15G 7
  24042740.829    24042740.258    24042737.780    -1296101.066 4  -1009944.675 2
        25.900          15.100
  20542375.857    20542375.318    20542371.979   -23250568.869 7 -18117317.201 7
        45.900          43.100
  23619317.273    23619317.043    23619314.970    -4197758.375 4  -3270971.017 3
        24.200          19.900
  21434312.351    21434312.134    21434307.793   -16686342.490 7 -13002339.448 6
        44.500          38.700
  20457274.052    20457273.494    20457270.396   -23172290.750 6 -18056318.663 8
        41.900          48.600
  22376234.934    22376234.728    22376232.521   -10566891.714 5  -8233932.882 4
        33.400          27.900
  24203873.827    24203872.440    24203868.892    -2824081.280 4  -2200581.989 3
        25.900          18.600
  21775815.071    21775814.660    21775813.065   -13331375.478 6 -10388081.195 5
        40.200          33.500
  24408584.479    24408583.693    24408582.869    -1110733.774 2   -865501.568 1
        17.000           6.500
  19982212.994    19982212.349    19982210.772   -24169654.072 7 -18833488.041 7
        46.300          46.100
  23081109.960    23081108.788    23081108.036    -8456755.847 4  -6589672.641 3
        27.600          23.400
 07  1  1  1 43 30.0000000  0 11G16G21G29G22G18G26G19G 3G 6G15G 7
  24058120.316    24058119.729    24058117.604    -1215279.858 4   -946967.121 1
        25.600          11.000
  20548657.255    20548656.835    20548653.577   -23217559.275 7 -18091595.441 7
        46.100          43.000
  23634191.645    23634191.142    23634188.667    -4119597.550 4  -3210066.476 3
        25.300          21.100
  21421523.743    21421523.696    21421519.589   -16753545.063 7 -13054705.081 6
        44.500          38.800
  20456145.267    20456144.819    20456141.935   -23178221.099 6 -18060939.709 8
        41.800          48.700
  22388054.634    22388054.609    22388052.680   -10504778.575 5  -8185533.030 4
        33.100          28.400
  24185120.676    24185119.705    24185115.887    -2922628.087 4  -2277371.668 3
        27.400          18.600
  21765869.517    21765869.061    21765867.250   -13383641.505 6 -10428807.968 5
        40.900          33.800
  24429941.047    24429939.960    24429939.345     -998506.215 3   -778051.566 1
        21.100           6.500
  19980813.674    19980813.024    19980811.446   -24177007.707 7 -18839218.142 7
        46.000          45.900
  23100591.565    23100590.735    23100590.181    -8354378.478 4  -6509898.077 4
        28.100          25.600
 07  1  1  1 44  0.0000000  0 11G16G21G29G22G18G26G19G 3G 6G15G 7
  24073547.259    24073546.741    24073544.900    -1134210.880 4   -883796.475 1
        24.600           6.500
  20555009.716    20555009.232    20555005.807   -23184177.965 7 -18065584.028 7
        46.200          42.800
  23649141.792    23649141.841    23649140.017    -4041028.565 4  -3148843.889 3
        25.300          21.100
  21408803.738    21408803.426    21408799.238   -16820390.814 7 -13106792.663 6
        44.600          38.700
  20455101.266    20455100.796    20455097.821   -23183707.943 6 -18065215.169 8
        41.800          48.800
  22399990.629    22399990.517    22399988.487   -10442055.338 5  -8136657.773 4
        33.100          27.600
  24166405.054    24166405.053    24166401.251    -3020972.332 3  -2354003.511 2
        23.000          15.100
  21756021.050    21756020.561    21756018.754   -13435395.635 6 -10469135.851 5
        40.600          33.900
  24451309.793    24451309.717    24451308.881     -886209.025 3   -690547.268 1
        20.500          11.000
  19979490.770    19979490.082    19979488.332   -24183960.601 7 -18844635.980 7
        46.400          46.000
  23120111.440    23120111.108    23120110.622    -8251797.416 4  -6429964.790 4
        28.100          24.200
 07  1  1  1 44 30.0000000  0 10G16G21G29G22G18G26G19G 3G15G 7
  24089019.170    24089018.749    24089017.985    -1052901.756 3   -820438.693
        22.100           3.000
  20561432.012    20561431.439    20561428.004   -23150429.197 7 -18039286.288 7
        46.000          43.000
  23664170.040    23664169.635    23664167.383    -3962058.378 4  -3087308.674 3
        26.200          19.900
  21396150.313    21396150.238    21396146.064   -16886883.111 7 -13158604.835 6
        44.400          38.900
  20454140.732    20454140.173    20454137.125   -23188756.205 6 -18069148.869 8
        41.800          48.800
  22412041.267    22412041.105    22412039.359   -10378729.052 5  -8087312.609 4
        32.800          27.900
  24147730.406    24147729.376    24147725.817    -3119116.338 4  -2430479.310 2
        28.800          16.100
  21746269.133    21746268.727    21746267.086   -13486640.686 6 -10509067.064 5
        40.800          33.600
  19978243.046    19978242.421    19978240.667   -24190516.732 7 -18849744.647 7
        46.400          46.000
  23139670.232    23139669.260    23139668.454    -8149019.437 4  -6349878.069 3
        28.100          23.800
 07  1  1  1 45  0.0000000  0 10G16G21G29G22G18G26G19G 3G15G 7
  24104537.620    24104537.270    24104536.214     -971352.023 3   -756893.437 9
        21.600          -3.000
  20567924.655    20567924.171    20567920.878   -23116309.413 7 -18012699.440 7
        46.100          42.800
  23679274.446    23679274.114    23679271.659    -3882685.917 4  -3025459.992 3
        27.400          22.100
  21383565.543    21383565.273    21383561.089   -16953017.527 7 -13210138.138 6
        44.700          38.900
  20453264.095    20453263.531    20453260.547   -23193362.691 6 -18072738.332 8
        41.500          48.700
  22424206.684    22424206.578    22424204.580   -10314798.401 5  -8037496.526 4
        31.800          27.400
  24129094.046    24129092.732    24129089.075    -3217053.613 4  -2506794.060 3
        29.700          18.600
  21736615.740    21736615.320    21736613.503   -13537370.892 6 -10548597.092 5
        41.100          33.500
  19977071.762    19977071.154    19977069.396   -24196671.648 7 -18854540.685 7
        46.200          46.000
  23159265.741    23159265.116    23159263.657    -8046043.090 4  -6269636.761 3
        27.400          21.600
 07  1  1  1 45 30.0000000  0 10G16G21G29G22G18G26G19G 3G15G 7
  24120100.940    24120100.605    24120099.162     -889569.820 3   -693167.043 9
        23.000          -3.000
  20574487.272    20574486.526    20574483.173   -23081824.163 7 -17985827.814 7
        46.000          42.700
  23694453.254    23694452.812    23694450.486    -3802919.154 4  -2963304.081 3
        24.600          19.300
  21371047.699    21371047.629    21371043.384   -17018798.851 7 -13261396.298 6
        44.700          39.100
  20452470.299    20452469.800    20452466.824   -23197533.707 6 -18075988.471 8
        41.600          48.800
  22436486.136    22436486.001    22436483.545   -10250271.432 5  -7987215.766 4
        33.100          27.400
  24110496.120    24110494.368    24110490.852    -3314787.508 4  -2582950.327 3
        29.000          19.300
  21727059.709    21727059.065    21727057.200   -13587590.075 6 -10587728.917 5
        41.000          34.400
  19975975.962    19975975.306    19975973.678   -24202430.214 7 -18859027.871 7
        46.200          46.100
  23178897.184    23178897.067    23178896.077    -7942876.057 4  -6189246.857 3
        27.900          21.600
 07  1  1  1 46  0.0000000  0 10G16G21G29G22G18G26G19G 3G15G 7
  24135710.583    24135710.198    24135708.235     -807540.087 3   -629247.785 2
        22.100          15.100
  20581122.587    20581122.058    20581118.670   -23046954.509 7 -17958656.651 7
        46.200          42.700
  23709710.454    23709709.791    23709707.654    -3722742.387 3  -2900828.654 3
        23.400          19.300
  21358600.970    21358600.724    21358596.583   -17084207.826 7 -13312364.325 6
        44.700          39.500
  20451762.954    20451762.389    20451759.347   -23201251.204 6 -18078885.217 8
        41.700          48.700
  22448881.164    22448881.070    22448878.975   -10185132.470 5  -7936458.132 4
        31.300          27.400
  24091939.698    24091938.130    24091935.692    -3412297.214 4  -2658931.879 3
        27.400          21.100
  21717604.278    21717603.738    21717601.760   -13637278.100 6 -10626446.853 5
        41.200          33.800
  19974959.176    19974958.548    19974956.828   -24207773.566 7 -18863191.518 7
        46.200          46.000
  23198569.391    23198568.454    23198567.501    -7839502.397 4  -6108695.969 3
        26.200          22.600
 07  1  1  1 46 30.0000000  0 10G16G21G29G22G18G26G19G 3G15G 7
  24151362.497    24151361.963    24151360.022     -725288.791 3   -565155.893 2
        22.600          12.600
  20587826.533    20587825.979    20587822.679   -23011724.483 7 -17931204.680 7
        46.100          42.600
  23725040.940    23725040.382    23725037.494    -3642181.288 4  -2838053.778 3
        24.900          18.600
  21346220.635    21346220.392    21346216.169   -17149266.736 7 -13363059.569 6
        44.800          39.300
  20451137.206    20451136.699    20451133.691   -23204538.882 6 -18081447.037 8
        41.500          48.700
  22461388.492    22461388.445    22461386.484   -10119406.978 5  -7885243.464 4
        31.800          28.100
  24073422.995    24073421.661    24073419.189    -3509603.443 4  -2734754.890 3
        27.900          19.300
  21708245.941    21708245.168    21708243.408   -13686456.332 6 -10664767.543 5
        40.900          33.800
  19974017.101    19974016.425    19974014.711   -24212724.168 7 -18867049.126 7
        46.100          46.000
  23218275.521    23218274.468    23218272.928    -7735947.456 4  -6028003.818 3
        25.900          19.300
 07  1  1  1 47  0.0000000  0 10G16G21G29G22G18G26G19G 3G15G 7
  24167058.494    24167057.654    24167055.954     -642806.910 3   -500884.320 2
        21.600          13.900
  20594601.637    20594601.065    20594597.697   -22976121.384 7 -17903462.001 7
        46.100          42.400
  23740445.921    23740445.724    23740442.973    -3561226.296 4  -2774971.938 3
        25.900          19.900
  21333909.441    21333909.150    21333904.985   -17213962.743 7 -13413472.031 6
        44.800          39.500
  20450595.617    20450595.136    20450592.088   -23207385.001 6 -18083664.785 8
        41.700          48.700
  22474009.072    22474008.918    22474006.618   -10053085.664 5  -7833564.511 4
        31.800          26.200
  24054947.212    24054946.234    24054943.238    -3606691.436 4  -2810407.855 3
        24.900          18.600
  21698987.255    21698986.657    21698984.640   -13735110.927 6 -10702680.211 5
        41.300          33.800
  19973152.365    19973151.569    19973149.886   -24217269.207 7 -18870590.708 7
        46.200          45.900
  23238017.651    23238016.462    23238015.627    -7632201.315 4  -5947162.682 3
        26.200          19.900
 07  1  1  1 47 30.0000000  0 10G16G21G29G22G18G26G19G 3G15G 7
  24182797.105    24182796.294    24182793.599     -560103.694 3   -436440.288 2
        23.800          13.900
  20601446.375    20601445.802    20601442.487   -22940152.056 7 -17875433.948 7
        46.200          42.500
  23755924.418    23755923.992    23755921.695    -3479886.263 4  -2711590.108 3
        24.600          21.100
  21321666.139    21321665.917    21321661.686   -17278301.431 7 -13463606.063 6
        44.700          39.300
  20450136.620    20450136.131    20450133.245   -23209796.613 6 -18085543.958 8
        41.600          48.800
  22486741.085    22486740.954    22486738.637    -9986177.265 5  -7781428.099 4
        31.100          25.900
  24036513.400    24036512.311    24036508.469    -3703565.180 4  -2885893.869 3
        26.800          19.900
  21689826.936    21689826.564    21689824.607   -13783246.437 6 -10740188.399 5
        41.400          33.600
  19972363.336    19972362.698    19972361.057   -24221414.438 7 -18873820.756 7
        46.100          46.100
  23257794.237    23257793.470    23257792.775    -7528272.603 4  -5866179.274 3
        26.800          19.300
 07  1  1  1 48  0.0000000  0 10G16G21G29G22G18G26G19G 3G15G 7
  24198575.927    24198575.341    24198572.812     -477183.333 4   -371827.010 2
        26.500          16.100
  20608360.378    20608359.898    20608356.658   -22903817.984 7 -17847121.680 7
        46.300          42.600
  23771474.972    23771474.839    23771472.833    -3398164.980 3  -2647911.182 3
        23.400          18.600
  21309490.958    21309490.603    21309486.215   -17342283.215 7 -13513461.988 6
        44.800          39.500
  20449760.187    20449759.529    20449756.727   -23211775.454 6 -18087085.906 8
        41.500          48.700
  22499584.458    22499584.271    22499582.021    -9918685.512 5  -7728837.122 4
        32.000          25.600
  24018120.176    24018118.913    24018115.710    -3800223.498 4  -2961212.026 3
        28.800          23.800
  21680766.051    21680765.585    21680763.792   -13830862.109 6 -10777291.516 5
        41.200          34.000
  19971650.711    19971649.931    19971648.210   -24225160.516 7 -18876739.773 7
        46.100          46.000
  23277605.697    23277604.691    23277604.144    -7424164.705 4  -5785056.252 3
        26.500          23.000
 07  1  1  1 48 30.0000000  0 10G16G21G29G22G18G26G19G 3G15G 7
  24214396.205    24214396.257    24214394.346     -394041.021 3   -307040.780 2
        23.000          12.600
  20615345.678    20615345.157    20615341.827   -22867110.486 7 -17818518.427 7
        46.100          42.300
  23787099.507    23787099.563    23787097.287    -3316057.081 3  -2583930.977 3
        23.800          18.600
  21297385.329    21297384.925    21297380.454   -17405899.332 7 -13563032.983 6
        45.000          39.300
  20449467.342    20449466.817    20449463.859   -23213314.091 6 -18088284.839 8
        41.500          48.700
  22512539.984    22512539.929    22512537.888    -9850605.118 5  -7675787.459 4
        31.600          26.500
  23999769.504    23999768.488    23999765.049    -3896655.839 4  -3036354.083 3
        29.500          23.000
  21671805.855    21671805.357    21671803.805   -13877948.384 6 -10813982.116 5
        41.200          34.000
  19971015.333    19971014.645    19971012.973   -24228498.783 7 -18879341.014 7
        46.000          46.100
  23297451.298    23297450.914    23297449.976    -7319872.045 4  -5703789.276 3
        26.800          22.100
 07  1  1  1 49  0.0000000  0 10G16G21G29G22G18G26G19G 3G15G 7
  24230260.738    24230259.929    24230257.875     -310678.870 3   -242083.289 1
        22.600           9.000
  20622401.964    20622401.478    20622398.142   -22830029.009 7 -17789623.766 7
        46.300          42.100
  23802797.281    23802796.961    23802795.758    -3233564.247 4  -2519650.850 3
        24.200          19.900
  21285349.236    21285349.071    21285344.602   -17469148.004 7 -13612317.653 6
        45.100          39.500
  20449258.359    20449257.824    20449254.760   -23214412.468 6 -18089140.711 8
        41.700          48.700
  22525606.766    22525606.686    22525604.655    -9781937.852 5  -7622280.506 4
        31.600          25.900
  23981462.921    23981461.488    23981458.087    -3992858.960 4  -3111317.548 3
        28.600          21.600
  21662946.445    21662946.163    21662944.716   -13924502.935 6 -10850258.380 5
        41.200          33.800
  19970458.048    19970457.245    19970455.582   -24231427.853 7 -18881623.398 7
        46.100          46.100
  23317333.002    23317332.353    23317331.158    -7215396.011 4  -5622379.378 3
        27.600          23.400
 07  1  1  1 49 30.0000000  0 10G16G21G29G22G18G26G19G 3G15G 7
  24246162.885    24246162.197    24246160.533     -227108.761 2   -176963.744
        17.000           3.000
  20629528.041    20629527.432    20629524.019   -22792582.548 7 -17760444.699 7
        46.400          42.100
  23818566.762    23818566.473    23818564.014    -3150697.824 3  -2455079.622 2
        23.800          17.000
  21273381.820    21273381.581    21273377.155   -17532037.342 7 -13661322.323 6
        45.200          39.500
  20449131.452    20449130.903    20449127.865   -23215079.517 6 -18089660.484 8
        41.800          48.800
  22538783.517    22538783.262    22538780.633    -9712695.063 5  -7568325.077 4
        31.500          25.600
  23963198.162    23963196.742    23963193.699    -4088839.571 4  -3186107.605 4
        27.900          24.200
  21654187.409    21654187.120    21654185.330   -13970532.484 6 -10886125.550 5
        41.300          33.900
  19969977.038    19969976.253    19969974.493   -24233955.761 7 -18883593.190 7
        46.100          46.100
  23337247.222    23337246.178    23337245.378    -7110747.501 4  -5540835.111 4
        25.300          24.200
 07  1  1  1 50  0.0000000  0 10G16G21G29G22G18G26G19G 3G15G 7
  24262105.068    24262105.198    24262103.889     -143329.062 2   -111680.903 9
        16.100          -3.000
  20636724.095    20636723.547    20636720.031   -22754766.708 7 -17730977.807 7
        46.400          42.000
  23834406.504    23834406.329    23834404.716    -3067456.049 3  -2390215.905 3
        23.800          19.300
  21261483.607    21261483.470    21261479.014   -17594562.374 7 -13710043.116 6
        45.300          39.500
  20449087.353    20449086.756    20449083.762   -23215311.327 6 -18089841.109 8
        41.600          48.700
  22552070.295    22552069.966    22552066.643    -9642875.083 5  -7513919.903 4
        32.300          24.200
  23944977.308    23944976.482    23944972.512    -4184590.036 4  -3260718.322 3
        28.800          21.600
  21645529.651    21645529.089    21645527.266   -14016031.088 6 -10921579.005 5
        41.400          34.000
  19969573.083    19969572.411    19969570.722   -24236077.695 7 -18885246.637 7
        46.100          46.200
  23357193.764    23357193.040    23357192.353    -7005924.579 4  -5459154.922 3
        24.200          19.900
 07  1  1  1 50 30.0000000  0 10G16G21G29G22G18G26G19G 3G15G 7
  24278087.822    24278087.070                      -59345.213 2
        17.800
  20643989.803    20643989.337    20643985.892   -22716584.512 7 -17701225.441 6
        46.400          41.700
  23850318.154    23850317.473    23850315.289    -2983843.855 3  -2325063.542 2
        23.000          17.000
  21249654.579    21249654.295    21249649.910   -17656724.786 7 -13758481.349 6
        45.200          39.700
  20449125.290    20449124.817    20449121.700   -23215111.615 6 -18089685.482 8
        41.700          48.600
  22565464.761    22565464.606    22565462.223    -9572483.038 5  -7459068.960 4
        31.300          26.500
  23926799.886    23926798.834    23926795.633    -4280110.590 4  -3335149.937 3
        24.600          19.900
  21636972.442    21636971.994    21636969.933   -14060999.609 6 -10956619.414 5
        41.700          33.400
  19969246.186    19969245.539    19969243.881   -24237795.328 7 -18886585.044 7
        46.100          46.000
  23377173.269    23377172.285    23377170.820    -6900931.743 3  -5377342.334 2
        23.800          17.800
 07  1  1  1 51  0.0000000  0 10G16G21G29G22G18G26G19G 3G15G 7
  24294108.666    24294107.907                       24846.822 3
        18.600
  20651326.982    20651326.424    20651323.037   -22678027.872 7 -17671181.299 6
        46.400          41.900
  23866300.344    23866300.007    23866297.593    -2899856.629 3  -2259618.960 3
        23.000          19.300
  21237895.835    21237895.650    21237891.359   -17718516.693 7 -13806630.874 6
        45.400          39.800
  20449246.856    20449246.276    20449243.147   -23214473.498 6 -18089188.240 8
        41.800          48.700
  22578969.576    22578969.442    22578967.232    -9501514.165 5  -7403768.542 4
        31.300          25.900
  23908668.734    23908667.331    23908664.802    -4375391.813 4  -3409394.996 3
        27.600          23.800
  21628517.659    21628517.229    21628515.474   -14105429.115 6 -10991239.805 5
        41.800          34.600
  19968997.753    19968997.146    19968995.376   -24239100.889 7 -18887602.357 7
        46.200          46.100
  23397185.866    23397185.164    23397184.217    -6795764.167 3  -5295393.579 2
        23.400          16.100
 07  1  1  1 51 30.0000000  0 10G16G21G29G22G18G26G19G 3G15G 7
  24310166.612    24310166.132                      109237.441 2
        16.100
  20658733.907    20658733.480    20658729.932   -22639103.767 7 -17640850.824 6
        46.400          41.700
  23882351.950    23882351.643    23882349.460    -2815503.626 3  -2193889.339 2
        23.800          17.000
  21226206.880    21226206.574    21226202.205   -17779943.474 7 -13854495.886 6
        45.200          40.000
  20449450.305    20449449.691    20449446.639   -23213404.164 6 -18088354.986 8
        41.700          48.700
  22592582.813    22592582.554    22592580.028    -9429977.897 5  -7348025.996 4
        31.100          26.500
  23890581.776    23890580.748    23890577.968    -4470437.418 4  -3483456.470 3
        27.600          23.000
  21620164.558    21620164.166    21620162.605   -14149324.481 6 -11025443.973 5
        41.500          34.700
  19968826.848    19968826.051    19968824.233   -24240000.428 7 -18888303.290 7
        46.100          46.100
  23417230.164    23417229.499    23417228.393    -6690430.567 4  -5213315.471 2
        24.600          17.000
 07  1  1  1 52  0.0000000  0 10G16G21G29G22G18G26G19G 3G15G 7
  24326263.493    24326263.121    24326261.569      193824.331 3    151036.087 1
        20.500          11.000
  20666210.875    20666210.351    20666207.063   -22599811.773 7 -17610233.676 6
        46.500          41.600
  23898472.796    23898472.646    23898470.630    -2730786.589 3  -2127876.081 2
        22.600          17.000
  21214587.370    21214587.096    21214582.778   -17841003.944 7 -13902075.463 6
        45.400          40.000
  20449735.713    20449735.246    20449732.208   -23211903.492 6 -18087185.623 8
        41.700          48.700
  22606302.876    22606302.780    22606300.623    -9357876.430 5  -7291843.037 4
        30.600          25.900
  23872540.388    23872540.061    23872536.125    -4565244.129 4  -3557331.803 2
        28.400          15.100
  21611914.132    21611913.573    21611911.825   -14192683.344 6 -11059230.086 5
        41.900          35.100
  19968732.974    19968732.228    19968730.680   -24240492.625 7 -18888686.810 7
        46.100          46.200
  23437305.767    23437304.756    23437304.298    -6584932.633 4  -5131109.293 2
        24.900          17.000
 07  1  1  1 52 30.0000000  0 10G16G21G29G22G18G26G19G 3G15G 7
  24342397.860    24342397.049    24342395.616      278608.658 3    217101.749 2
        21.600          16.100
  20673758.699    20673758.168    20673754.831   -22560148.110 7 -17579326.921 6
        46.400          41.500
  23914662.977    23914662.893    23914661.099    -2645704.267 3  -2061578.155 2
        22.600          16.100
  21203038.676    21203038.403    21203033.988   -17901693.288 7 -13949365.849 6
        45.500          40.300
  20450103.905    20450103.417    20450100.527   -23209968.092 6 -18085677.511 8
        41.900          48.700
  22620131.367    22620131.205    22620129.176    -9285208.325 5  -7235218.543 4
        31.000          27.100
  23854546.561    23854545.671    23854541.777    -4659805.826 4  -3631016.267 3
        29.200          21.100
  21603766.022    21603765.625    21603763.944   -14235500.170 7 -11092593.851 5
        42.000          35.200
  19968717.743    19968717.033    19968715.373   -24240572.918 7 -18888749.367 7
        46.000          46.300
  23457413.691    23457412.305    23457411.460    -6479268.680 4  -5048773.765 3
        24.600          19.300
 07  1  1  1 53  0.0000000  0 10G16G21G29G22G18G26G19G 3G15G 7
  24358568.563    24358567.702    24358565.293      363580.715 4    283313.718 2
        24.600          17.800
  20681375.825    20681375.452    20681371.948   -22520119.242 7 -17548135.590 6
        46.500          41.300
  23930922.746    23930921.964    23930919.860    -2560265.862 4  -1995002.779 2
        24.200          17.800
  21191559.237    21191559.064    21191554.641   -17962017.722 7 -13996371.887 6
        45.500          40.300
  20450553.719    20450553.173    20450550.194   -23207605.122 6 -18083836.228 8
        41.900          48.800
  22634065.729    22634065.709    22634063.068    -9211983.065 5  -7178159.888 4
        31.500          24.900
  23836598.074    23836596.890    23836593.411    -4754126.403 4  -3704512.788 3
        29.900          19.900
  21595720.596    21595720.177    21595718.422   -14277779.806 7 -11125539.016 5
        42.100          34.900
  19968779.458    19968778.837    19968777.210   -24240247.319 7 -18888495.645 7
        46.100          46.100
  23477550.983    23477549.949    23477548.568    -6373447.447 4  -4966315.663 2
        25.600          17.000
 07  1  1  1 53 30.0000000  0 10G16G21G29G22G18G26G19G 3G15G 7
  24374773.353    24374772.553    24374770.800      448740.974 3    349672.343 2
        23.400          17.000
  20689063.253    20689062.712    20689059.361   -22479722.249 7 -17516657.409 6
        46.400          41.300
  23947248.464    23947248.183    23947246.040    -2474470.384 3  -1928149.158 2
        23.400          17.800
  21180149.992    21180149.855    21180145.355   -18021973.118 7 -14043090.362 6
        45.400          40.200
  20451085.209    20451084.709    20451081.655   -23204811.850 6 -18081659.643 8
        41.800          48.700
  22648106.339    22648106.209    22648103.548    -9138199.586 5  -7120666.263 4
        30.800          25.300
  23818695.909    23818694.959    23818691.543    -4848199.929 5  -3777816.833 3
        30.100          20.500
  21587778.095    21587777.753    21587775.897   -14319517.421 7 -11158061.821 5
        42.200          34.900
  19968919.640    19968918.924    19968917.203   -24239511.625 7 -18887922.375 7
        46.100          46.000
  23497718.068    23497717.272    23497715.942    -6267467.823 4  -4883734.147 3
        24.600          18.600
 07  1  1  1 54  0.0000000  0 10G16G21G29G22G18G26G19G 3G15G 7
  24391013.306    24391012.861    24391011.128      534084.666 3    416173.908 2
        21.100          13.900
  20696820.226    20696819.711    20696816.301   -22438958.578 7 -17484893.505 6
        46.400          41.100
  23963642.109    23963641.641    23963639.200    -2388322.101 3  -1861020.618 2
        22.100          13.900
  21168810.858    21168810.683    21168806.245   -18081560.188 7 -14089521.830 6
        45.600          40.100
  20451698.214    20451697.695    20451694.604   -23201590.723 6 -18079149.667 8
        41.800          48.600
  22662251.535    22662251.616    22662249.574    -9063862.587 5  -7062741.329 4
        30.200          24.900
  23800841.699    23800840.681    23800837.190    -4942025.507 5  -3850927.647 3
        31.000          21.600
  21579938.831    21579938.363    21579936.463   -14360713.033 6 -11190162.297 5
        41.900          34.600
  19969137.343    19969136.707    19969135.035   -24238367.081 7 -18887030.515 7
        46.200          46.100
  23517914.240    23517913.407    23517912.906    -6161333.628 3  -4801032.202 3
        23.400          21.100
 07  1  1  1 54 30.0000000  0 10G16G21G29G22G18G26G19G 3G15G 7
  24407288.688    24407287.736    24407285.791      619608.850 3    482816.106 1
        19.300           9.000
  20704647.102    20704646.517    20704643.036   -22397828.593 7 -17452844.161 6
        46.300          41.000
  23980101.947    23980101.810    23980098.904    -2301823.741 3  -1793619.285 2
        23.000          12.600
  21157542.039    21157541.846    21157537.456   -18140778.430 7 -14135665.903 6
        45.600          40.500
  20452392.422    20452391.994    20452388.925   -23197942.141 6 -18076306.603 8
        41.800          48.600
  22676502.506    22676502.478    22676500.611    -8988974.884 5  -7004387.260 4
        30.200          25.900
  23783034.318    23783033.951    23783030.524    -5035600.820 5  -3923843.482 3
        31.000          23.800
  21572203.236    21572202.685    21572200.668   -14401365.104 7 -11221839.224 5
        42.300          35.100
  19969433.267    19969432.520    19969430.730   -24236813.183 7 -18885819.676 7
        46.200          46.100
  23538139.906    23538139.210    23538138.314    -6055047.207 3  -4718211.642 3
        21.600          21.600
 07  1  1  1 55  0.0000000  0 10G16G21G29G22G18G26G19G 3G15G 7
  24423597.479    24423596.597    24423594.978      705314.916 2    549600.050 1
        17.800           6.500
  20712544.212    20712543.827    20712540.548   -22356327.242 7 -17420505.443 6
        46.200          40.800
  23996629.283    23996628.839    23996626.000    -2214973.695 3  -1725943.911 2
        21.600          16.100
  21146344.453    21146344.137    21146339.727   -18199622.933 7 -14181518.754 6
        45.600          40.700
  20453168.717    20453168.182    20453165.251   -23193862.580 6 -18073127.718 8
        41.800          48.700
  22690858.472    22690858.309    22690856.211    -8913534.880 4  -6945602.822 4
        29.500          24.900
  23765276.836    23765276.097    23765272.512    -5128919.128 4  -3996559.006 3
        28.600          22.100
  21564571.374    21564571.058    21564569.456   -14441467.789 7 -11253088.068 5
        42.300          35.300
  19969807.703    19969806.971    19969805.237   -24234845.049 7 -18884286.061 7
        46.200          46.200
  23558394.758    23558393.826    23558393.620    -5948606.603 3  -4635270.925 3
        21.600          21.100
 07  1  1  1 55 30.0000000  0 10G16G21G29G22G18G26G19G 3G15G 7
  24439939.293    24439938.792    24439937.762      791194.435 2    616519.088 1
        16.100           9.000
  20720511.267    20720510.760    20720507.349   -22314461.022 7 -17387882.418 6
        46.200          40.700
  24013220.840    24013220.754    24013218.342    -2127779.820 3  -1658000.637 2
        21.600          13.900
  21135216.931    21135216.573    21135212.326   -18258098.409 7 -14227084.052 6
        45.600          40.900
  20454025.793    20454025.301    20454022.398   -23189358.132 6 -18069617.753 8
        41.600          48.800
  22705317.892    22705317.700    22705315.317    -8837550.957 4  -6886394.572 4
        29.900          24.900
  23747567.441    23747566.106    23747563.064    -5221983.110 4  -4069076.381 3
        27.600          22.600
  21557044.059    21557043.615    21557041.960   -14481025.102 7 -11283911.945 5
        42.200          34.900
  19970260.153    19970259.391    19970257.637   -24232467.527 7 -18882433.437 7
        46.200          46.100
  23578676.744    23578676.743    23578676.252    -5842019.486 3  -4552216.077 2
        23.000          16.100
 07  1  1  1 56  0.0000000  0 10G16G21G29G22G18G26G19G 3G15G 7
  24456315.656    24456315.535    24456314.153      877253.950 3    683578.458 1
        22.100           6.500
  20728549.277    20728548.923    20728545.614   -22272220.148 7 -17354967.446 6
        46.300          40.900
  24029880.896    24029880.523    24029878.133    -2040235.024 3  -1589783.891 2
        23.000          15.100
  21124161.252    21124161.138    21124156.993   -18316194.421 7 -14272353.657 6
        45.600          41.100
  20454965.773    20454965.238    20454962.203   -23184419.387 7 -18065769.372 8
        42.000          48.700
  22719882.089    22719881.844    22719879.639    -8761016.030 5  -6826756.965 4
        30.400          26.200
  23729909.615    23729907.929    23729904.631    -5314780.263 5  -4141385.819 4
        30.200          24.600
  21549622.512    21549622.107    21549620.622   -14520025.621 7 -11314301.957 5
        42.600          34.900
  19970792.150    19970791.570    19970790.017   -24229670.219 7 -18880253.715 7
        46.200          46.100
  23598989.998    23598988.981    23598988.254    -5735278.189 4  -4469041.041 2
        24.200          15.100
 07  1  1  1 56 30.0000000  0 10G16G21G29G22G18G26G19G 3G15G 7
  24472724.121    24472723.276    24472722.380      963478.196 2    750766.154 1
        17.800           9.000
  20736656.482    20736655.986    20736652.737   -22229617.226 7 -17321770.361 6
        46.300          40.600
  24046603.070    24046603.216    24046601.153    -1952354.454 3  -1521305.527 2
        21.600          15.100
  21113176.152    21113175.877    21113171.521   -18373922.716 7 -14317336.732 6
        45.600          41.200
  20455985.569    20455985.032    20455982.048   -23179060.190 6 -18061593.368 8
        41.800          48.600
  22734547.330    22734547.354    22734545.561    -8683945.449 4  -6766701.959 4
        29.500          24.600
  23712298.999    23712298.499    23712294.407    -5407320.699 5  -4213495.232 3
        31.600          22.100
  21542304.946    21542304.523    21542302.647   -14558480.333 7 -11344266.664 5
        42.400          34.900
  19971402.313    19971401.568    19971399.911   -24226465.192 7 -18877756.284 7
        46.100          46.200
  23619329.636    23619328.361    23619326.766    -5628397.682 4  -4385757.517 2
        24.200          12.600
 07  1  1  1 57  0.0000000  0 10G16G21G29G22G18G26G19G 3G15G 7
  24489164.948    24489163.329    24489162.731     1049870.519 2    818084.840 9
        13.900          -3.000
  20744833.779    20744833.284    20744829.902   -22186645.472 7 -17288285.878 6
        46.300          40.600
  24063390.582    24063390.988    24063389.150    -1864134.195 3  -1452562.466 2
        20.500          13.900
  21102262.136    21102261.922    21102257.524   -18431276.309 7 -14362027.826 6
        45.700          41.300
  20457086.558    20457086.037    20457082.991   -23173274.562 7 -18057085.077 8
        42.000          48.600
  22749316.457    22749316.399    22749313.940    -8606335.650 5  -6706226.795 3
        30.600          23.000
  23694739.750    23694739.166    23694735.023    -5499595.813 5  -4285397.926 3
        31.600          21.600
  21535092.518    21535092.092    21535090.139   -14596381.351 7 -11373799.921 5
        42.400          34.900
  19972091.048    19972090.368    19972088.703   -24222845.311 7 -18874935.594 7
        46.000          46.000
  23639694.836    23639693.983    23639692.926    -5521373.665 3  -4302362.188 3
        22.600          19.300
 07  1  1  1 57 30.0000000  0 10G16G21G29G22G18G26G19G 3G15G 7
  24505634.861    24505634.613                     1136424.944 2
        17.000
  20753080.332    20753079.850    20753076.610   -22143308.805 7 -17254517.045 6
        46.300          40.600
  24080242.338    24080242.085    24080240.308    -1775580.074 3  -1383559.224 2
        23.000          15.100
  21091419.056    21091418.829    21091414.511   -18488257.560 7 -14406428.789 6
        45.800          41.200
  20458268.037    20458267.567    20458264.418   -23167066.026 7 -18052247.253 8
        42.100          48.700
  22764186.522    22764186.460    22764184.112    -8528192.460 4  -6645335.978 3
        29.000          23.800
  23677230.780    23677229.683    23677226.857    -5591605.958 5  -4357094.099 4
        31.300          26.200
  21527984.979    21527984.559    21527982.768   -14633730.513 7 -11402903.160 5
        42.100          34.700
  19972858.238    19972857.581    19972855.920   -24218813.250 7 -18871793.722 7
        46.300          46.000
  23660086.882    23660086.103    23660085.468    -5414211.621 3  -4218859.323 3
        22.600          18.600
 07  1  1  1 58  0.0000000  0 10G16G21G29G22G18G26G19G 3G15G 7
  24522135.574    24522135.164                     1223135.313 3
        19.900
  20761395.943    20761395.512    20761392.137   -22099610.014 7 -17220466.035 6
        46.300          40.400
  24097156.068    24097156.003    24097153.990    -1686697.687 3  -1314300.259 2
        21.100          17.800
  21080646.229    21080645.938    21080641.680   -18544868.974 7 -14450541.567 6
        45.800          41.600
  20459529.243    20459528.717    20459525.621   -23160438.532 7 -18047082.966 8
        42.000          48.700
  22779157.312    22779157.086    22779154.834    -8449521.862 4  -6584034.215 3
        29.200          23.000
  23659772.642    23659771.276    23659768.198    -5683351.415 5  -4428584.046 4
        31.000          24.200
  21520982.873    21520982.312    21520980.516   -14670529.207 7 -11431577.461 5
        42.300          35.200
  19973703.757    19973702.986    19973701.096   -24214371.368 7 -18868332.511 7
        46.100          45.800
  23680503.956    23680503.529    23680502.895    -5306916.754 3  -4135252.944 2
        23.400          17.000
 07  1  1  1 58 30.0000000  0 10G16G21G29G22G18G26G19G 3G15G 7
  24538667.361    24538666.414                     1310008.115 4
        24.600
  20769782.397    20769781.880    20769778.421   -22055539.594 7 -17186125.444 6
        46.200          40.200
  24114134.545    24114134.070    24114131.584    -1597480.275 3  -1244780.155 2
        23.400          13.900
  21069945.710    21069945.416    21069941.100   -18601100.520 7 -14494358.344 6
        45.700          41.400
  20460871.725    20460871.237    20460868.179   -23153383.354 7 -18041585.417 8
        42.400          48.900
  22794229.461    22794229.277    22794227.078    -8370317.311 5  -6522316.376 4
        30.200          24.200
  23642365.826    23642365.032    23642361.365    -5774820.452 5  -4499858.620 3
        31.600          21.600
  21514087.284    21514086.683    21514084.713   -14706766.705 7 -11459814.474 5
        42.800          35.500
  19974628.669    19974627.991    19974626.253   -24209509.931 7 -18864544.371 7
        46.100          45.900
  23700948.103    23700947.831    23700947.021    -5199481.892 3  -4051537.499 2
        21.600          16.100
 07  1  1  1 59  0.0000000  0 10G16G21G29G22G18G26G19G 3G15G 7
  24555227.428    24555226.887    24555225.160     1397034.956 3   1088602.656 1
        23.400           9.000
  20778238.259    20778237.833    20778234.383   -22011103.365 7 -17151499.812 6
        46.300          39.800
  24131173.972    24131173.934    24131170.905    -1507935.799 3  -1175005.219 1
        22.100           9.000
  21059316.361    21059316.269    21059311.946   -18656956.891 7 -14537882.776 6
        45.800          41.400
  20462294.600    20462294.085    20462290.955   -23145906.638 7 -18035759.400 8
        42.200          48.700
  22809401.061    22809401.142    22809398.761    -8290587.232 4  -6460189.037 3
        29.900          23.800
  23625012.342    23625011.195    23625008.066    -5866015.818 5  -4570919.946 3
        30.200          23.800
  21507297.414    21507296.815    21507295.176   -14742446.926 7 -11487617.238 5
        42.500          35.500
  19975632.657    19975632.031    19975630.265   -24204233.674 7 -18860432.999 7
        46.100          45.800
  23721417.795    23721416.976    23721416.431    -5091914.720 3  -3967718.957 2
        19.300          17.000
 07  1  1  1 59 30.0000000  0 10G16G21G29G22G18G26G19G 3G15G 7
  24571816.337    24571815.954    24571814.610     1484212.788 3   1156533.424 2
        19.300          17.000
  20786763.734    20786763.288    20786759.861   -21966301.602 7 -17116589.340 6
        46.100          40.000
  24148275.169    24148274.893    24148272.441    -1418067.124 3  -1104977.671 2
        21.100          13.900
  21048758.892    21048758.692    21048754.289   -18712437.923 7 -14581114.738 6
        45.900          41.500
  20463797.384    20463796.874    20463793.792   -23138009.018 7 -18029605.406 8
        42.400          48.600
  22824672.756    22824672.624    22824670.329    -8210334.671 5  -6397654.560 4
        30.200          24.200
  23607710.471    23607709.602    23607706.392    -5956935.324 5  -4641766.303 3
        30.600          23.800
  21500613.595    21500613.257    21500611.636   -14777568.781 7 -11514984.910 5
        42.600          35.400
  19976715.789    19976715.107    19976713.309   -24198542.344 7 -18855998.189 7
        46.000          45.900
  23741912.808    23741911.364    23741910.762    -4984217.849 3  -3883799.349 2
        22.100          16.100
                            4  1
other post-header comments skipped                          COMMENT
 07  1  1  2  0  0.0000000  0 10G16G21G29G22G18G26G19G 3G15G 7
  24588434.911    24588435.115    24588432.676     1571541.052 2   1224581.359 2
        17.000          16.100
  20795359.101    20795358.695    20795355.413   -21921132.113 7 -17081392.335 6
        46.000          40.000
  24165438.106    24165437.508    24165435.550    -1327874.139 3  -1034697.441 2
        19.300          15.100
  21038273.190    21038273.017    21038268.607   -18767540.087 7 -14624051.475 6
        46.100          41.600
  20465380.627    20465380.172    20465377.148   -23129688.475 7 -18023121.858 8
        42.500          48.700
  22840043.076    22840043.525    22840041.127    -8129559.813 4  -6334713.100 3
        29.200          22.600
  23590462.196    23590461.350    23590458.655    -6047573.612 4  -4712393.519 4
        29.700          25.300
  21494037.258    21494036.865    21494035.050   -14812128.075 7 -11541914.235 5
        42.800          35.500
  19977878.377    19977877.716    19977876.035   -24192432.623 7 -18851237.365 7
        46.100          45.800
  23762431.267    23762430.432    23762429.680    -4876390.646 3  -3799778.156 2
        23.000          12.600
 07  1  1  2  0 30.0000000  0 10G16G21G29G22G18G26G19G 3G15G 7
  24605081.033    24605080.815    24605078.607     1659013.792 2   1292741.854 1
        17.800           9.000
  20804024.148    20804023.623    20804020.263   -21875597.681 7 -17045910.954 6
        46.000          39.900
  24182662.612    24182662.028    24182659.081    -1237362.548 3   -964168.920 1
        22.100           9.000
  21027859.090    21027858.955    21027854.612   -18822265.751 7 -14666694.835 6
        45.900          41.800
  20467043.524    20467043.130    20467040.081   -23120949.791 7 -18016312.490 8
        42.500          48.700
  22855512.890    22855512.948    22855510.703    -8048268.540 4  -6271369.242 3
        28.600          22.600
  23573268.638    23573267.394    23573263.817    -6137930.930 4  -4782801.812 3
        29.900          23.800
  21487567.607    21487567.156    21487565.358   -14846126.539 7 -11568406.540 5
        42.500          35.600
  19979120.259    19979119.514    19979117.679   -24185907.158 7 -18846152.582 7
        46.100          45.800
  23782973.560    23782972.783    23782972.423    -4768438.555 3  -3715659.667 2
        21.600          17.000
 07  1  1  2  1  0.0000000  0 10G16G21G29G22G18G26G19G 3G15G 7
  24621752.999    24621752.876    24621750.665     1746627.673 2   1361012.389 9
        17.000          -3.000
  20812758.276    20812757.755    20812754.466   -21829699.596 7 -17010146.213 6
        45.900          39.800
  24199946.169    24199946.060    24199943.759    -1146535.461 3   -893394.533 2
        20.500          13.900
  21017516.951    21017516.705    21017512.181   -18876615.160 7 -14709045.011 6
        46.000          41.900
  20468786.289    20468785.697    20468782.513   -23111793.299 7 -18009177.556 8
        42.600          48.700
  22871080.107    22871080.054    22871077.394    -7966464.338 4  -6207625.706 3
        28.600          23.000
  23556127.114    23556126.313    23556123.449    -6228005.731 5  -4852989.947 4
        30.100          24.900
  21481204.642    21481204.384    21481202.576   -14879563.460 7 -11594461.280 5
        42.800          35.600
  19980441.052    19980440.332    19980438.607   -24178965.986 7 -18840743.868 7
        46.100          45.800
  23803538.802    23803538.415    23803538.056    -4660364.383 3  -3631446.044 2
        22.100          16.100
 07  1  1  2  1 30.0000000  0 10G16G21G29G22G18G26G19G 3G15G 7
  24638450.316    24638450.182                     1834376.918 3
        19.900
  20821561.200    20821560.767    20821557.342   -21783439.753 7 -16974099.579 6
        46.000          39.700
  24217288.387    24217288.984    24217286.369    -1055398.346 3   -822378.607 2
        19.300          13.900
  21007245.749    21007245.519    21007241.008   -18930590.384 7 -14751103.616 6
        46.000          41.800
  20470607.362    20470606.832    20470603.653   -23102222.895 7 -18001720.089 8
        42.700          48.700
  22886743.286    22886743.012    22886740.966    -7884153.047 4  -6143487.035 3
        28.600          23.400
  23539041.478    23539040.399    23539036.683    -6317797.882 5  -4922957.850 4
        32.600          24.900
  21474948.317    21474947.802    21474946.418   -14912440.302 7 -11620079.596 5
        42.600          35.400
  19981840.541    19981839.945    19981838.130   -24171611.295 7 -18835012.936 7
        46.100          45.800
  23824128.035    23824126.914    23824126.259    -4552173.034 3  -3547141.110 2
        22.600          13.900
 07  1  1  2  2  0.0000000  0 10G16G21G29G22G18G26G19G 3G15G 7
  24655174.701    24655174.314    24655173.766     1922262.044 3   1497870.373 9
        20.500          -3.000
  20830433.672    20830433.058    20830429.614   -21736815.552 7 -16937769.031 6
        46.100          39.600
  24234691.471    24234691.144    24234688.309     -963950.210 3   -751120.289 1
        21.600          11.000
  20997046.724    20997046.430    20997042.006   -18984187.244 7 -14792867.389 7
        46.100          42.000
  20472507.702    20472507.220    20472504.167   -23092235.727 7 -17993937.874 8
        42.500          48.700
  22902502.808    22902502.708    22902500.936    -7801334.144 4  -6078952.828 3
        27.100          23.400
  23522009.343    23522007.854    23522004.491    -6407301.525 5  -4992700.948 4
        31.300          26.200
  21468799.694    21468799.246    21468797.617   -14944752.126 7 -11645257.631 5
        42.600          35.600
  19983319.472    19983318.873    19983317.101   -24163839.073 7 -18828956.655 7
        46.100          45.700
  23844737.965    23844737.175    23844737.014    -4443863.468 3  -3462744.039 2
        20.500          15.100
