     2.11           OBSERVATION DATA    G (GPS)             RINEX VERSION / TYPE
teqc  2009Oct19     WCDA Operator       20110102 00:08:50UTCPGM / RUN BY / DATE
Solaris x86 5.10|AMD64|cc SC5.8 -xarch=amd64|=+|=+          COMMENT
teqc  2009Oct19     WCDA Operator       20110102 00:08:46UTCCOMMENT
teqc  2009Oct19     WCDA Operator       20110101 01:07:05UTCCOMMENT
teqc  2009Oct19     WCDA Operator       20110101 01:07:04UTCCOMMENT
CONTACT gps@pgc.nrcan.gc.ca FOR ADDITIONAL INFORMATION      COMMENT
    P1 =    P1  TurboRogue; =    Y1  Benchmark              COMMENT
    L1 = L1(CA)                                             COMMENT
    P2 =    P2  TurboRogue; =    Y2  Benchmark              COMMENT
    L2 = L2(P2) TurboRogue; = L2(Y2) Benchmark              COMMENT
 SNR is mapped to RINEX snr flag value [0-9]                COMMENT
  L1 & L2: min(max(int(snr_dBHz/6), 0), 9)                  COMMENT
teqc windowed: start @ 2011 Jan  1 00:00:00.000             COMMENT
teqc windowed:  end  @ 2011 Jan  1 23:59:59.000             COMMENT
teqc windowed: start @ 2011 Jan  1 00:00:00.000             COMMENT
teqc windowed:  end  @ 2011 Jan  1 00:59:59.000             COMMENT
albh  WCDA-ACP   927000   Victoria BC Canada                MARKER NAME
40129M003                                                   MARKER NUMBER
PGC-WCDA            GEOL. SURV. CANADA                      OBSERVER / AGENCY
1113                AOA BENCHMARK ACT   3.3.32.2N lk 99/07/2REC # / TYPE / VERS
99442               AOAD/M_T        SCIS                    ANT # / TYPE
 -2341332.8840 -3539049.5090  4745791.3600                  APPROX POSITION XYZ
        0.1000        0.0000        0.0000                  ANTENNA: DELTA H/E/N
     1     1                                                WAVELENGTH FACT L1/2
     7    C1    P1    P2    L1    L2    S1    S2            # / TYPES OF OBSERV
teqc windowed: start @ 2011 Jan  1 00:00:00.000             COMMENT
teqc windowed:  end  @ 2011 Jan  1 23:59:59.000             COMMENT
  2011     1     1     0     0    0.0000000     GPS         TIME OF FIRST OBS
                                                            END OF HEADER
 11  1  1  0  0  0.0000000  0 10G14G09G06G11G27G19G24G18G22G03
  20825464.284    20825463.795    20825461.702   109438613.644 7  85276856.248 7
        45.000          43.000
  22900774.148    22900774.017    22900772.178   120344414.387 5  93774875.079 3
        31.000          23.000
  23076902.537    23076902.484    23076901.929   121269959.911 5  94496083.875 3
        31.000          23.000
  24335070.823    24335070.856    24335068.727   127881667.283 1  99648054.894
         6.500
  24564800.303    24564800.207    24564799.906   129088907.262 3 100588760.543 2
        22.100          12.600
  21929635.491    21929634.182    21929631.197   115241036.136 7  89798221.911 6
        44.000          37.000
  24346606.882    24346606.139    24346606.490   127942271.016 4  99695273.620
        27.100
  22251903.991    22251903.607    22251900.848   116934603.107 6  91117887.538 5
        38.000          30.100
  20504912.252    20504911.119    20504907.188   107754131.622 8  83964283.109 7
        49.000          47.000
  22845170.720    22845170.119    22845169.582   120052176.756 5  93547149.222 4
        31.000          24.900
 11  1  1  0  0 30.0000000  0 10G14G09G06G11G27G19G24G18G22G03
  20816210.018    20816209.504    20816207.332   109389982.093 7  85238961.543 7
        45.000          43.000
  22902019.964    22902019.977    22902019.150   120350964.022 5  93779978.713 4
        30.100          24.900
  23093888.671    23093888.470    23093887.418   121359220.493 5  94565637.570 3
        31.000          23.000
  24315521.819    24315521.589    24315520.714   127778939.690 2  99568007.509
        15.100           3.000
  24574024.172    24574023.426    24574022.913   129137375.053 3 100626527.660 2
        23.800          16.100
  21933516.654    21933515.467    21933512.557   115261433.581 7  89814116.013 6
        44.000          37.000
  24327401.340    24327401.203    24327401.476   127841351.844 3  99616635.301
        22.100
  22265261.624    22265261.086    22265258.248   117004796.165 6  91172583.427 5
        38.000          30.100
  20509994.142    20509993.135    20509989.245   107780838.224 8  83985093.455 7
        49.000          46.000
  22862074.171    22862073.459    22862072.277   120141002.427 5  93616364.021 3
        32.000          23.000
 11  1  1  0  1  0.0000000  0 10G14G09G06G11G27G19G24G18G22G03
  20807051.999    20807051.568    20807049.426   109341857.091 7  85201461.553 7
        45.000          43.000
  22903396.435    22903396.064    22903394.983   120358195.168 5  93785613.401 3
        30.100          23.000
  23110918.803    23110918.537    23110917.958   121448715.779 5  94635374.149 3
        30.100          23.000
  24296006.521    24296007.195    24296005.515   127676386.542 2  99488096.042
        12.600
  24583333.261    24583332.801    24583330.846   129186291.698 3 100664644.554 2
        21.100          16.100
  21937507.942    21937506.684    21937503.813   115282408.802 7  89830460.334 6
        44.000          37.000
  24308211.878    24308211.331    24308212.011   127740510.187 3  99538057.488
        19.300
  22278654.264    22278653.644    22278650.995   117075175.864 6  91227424.750 5
        38.000          30.100
  20515136.979    20515136.023    20515132.249   107807864.598 8  84006152.977 7
        49.000          46.000
  22879032.116    22879031.446    22879030.110   120230116.840 5  93685803.814 3
        32.000          23.800
 11  1  1  0  1 30.0000000  0 10G14G09G06G11G27G19G24G18G22G03
  20797990.763    20797990.276    20797988.018   109294239.476 7  85164356.930 7
        45.000          43.000
  22904902.322    22904901.754    22904900.789   120366107.576 5  93791778.917 3
        30.100          23.000
  23127993.258    23127992.928    23127992.688   121538442.836 4  94705291.310 3
        29.000          23.000
  24276525.534    24276525.501    24276524.132   127574010.080 2  99408322.246
        15.100
  24592726.813    24592726.226    24592724.641   129235655.504 3 100703109.881 2
        22.100          15.100
  21941609.262    21941607.959    21941604.826   115303960.495 7  89847253.857 6
        44.000          37.000
  24289037.261    24289036.698    24289037.748   127639747.456 2  99459541.215 1
        17.000          11.000
  22292082.184    22292081.812    22292079.042   117145741.515 6  91282410.970 4
        38.000          29.000
  20520340.987    20520339.872    20520335.909   107835209.856 8  84027460.979 7
        49.000          46.000
  22896044.221    22896043.716    22896042.346   120319516.789 5  93755466.108 3
        33.000          23.000
 11  1  1  0  2  0.0000000  0 10G14G09G06G11G27G19G24G18G22G03
  20789025.897    20789025.481    20789023.204   109247129.174 7  85127647.623 7
        45.000          43.000
  22906537.556    22906537.105    22906535.805   120374700.534 5  93798474.747 4
        31.000          24.900
  23145110.877    23145110.828    23145110.754   121628397.769 5  94775386.045 3
        30.100          23.000
  24257078.381    24257077.783    24257076.275   127471811.333 3  99328686.941
        19.300           3.000
  24602203.436    24602203.300    24602203.557   129285463.896 3 100741921.641 3
        21.100          19.300
  21945820.008    21945818.736    21945815.543   115326086.507 7  89864494.893 6
        45.000          37.000
  24269878.326    24269877.768    24269878.447   127539064.345 3  99381086.957 2
        19.300          12.600
  22305545.529    22305545.043    22305542.596   117216490.943 6  91337540.384 5
        38.000          30.100
  20525604.887    20525603.860    20525599.826   107862872.279 8  84049016.119 7
        49.000          46.000
  22913109.682    22913109.472    22913108.547   120409198.309 5  93825347.808 4
        34.000          24.900
 11  1  1  0  2 30.0000000  0 10G14G09G06G11G27G19G24G18G22G03
  20780157.840    20780157.360    20780155.205   109200527.558 7  85091334.688 7
        44.000          43.000
  22908302.189    22908301.977    22908300.135   120383973.921 5  93805700.781 3
        31.000          23.000
  23162271.973    23162271.672    23162271.685   121718578.311 5  94845656.592 3
        30.100          23.800
  24237665.190    24237664.562    24237663.534   127369793.410 3  99249192.533
        21.100
  24611766.791    24611766.583    24611765.999   129335715.668 3 100781078.877 3
        21.100          19.900
  21950139.422    21950138.164    21950135.514   115348786.836 7  89882183.459 6
        45.000          37.000
  24250734.121    24250733.759    24250734.228   127438462.970 2  99302696.361 2
        17.800          17.800
  22319043.495    22319042.960    22319040.543   117287423.733 6  91392812.684 5
        37.000          30.100
  20530929.184    20530928.096    20530924.143   107890851.900 8  84070818.428 7
        49.000          46.000
  22930229.010    22930228.422    22930227.757   120499158.582 5  93895446.701 4
        33.000          24.900
 11  1  1  0  3  0.0000000  0 10G14G09G06G11G27G19G24G18G22G03
  20771388.227    20771387.818    20771385.779   109154443.996 7  85055425.439 7
        45.000          43.000
  22910198.100    22910197.583    22910195.903   120393936.365 5  93813463.733 3
        31.000          22.100
  23179477.039    23179476.822    23179476.435   121808990.203 5  94916107.397 3
        31.000          23.000
  24218288.349    24218287.713    24218286.609   127267966.806 3  99169847.198
        22.100           3.000
  24621415.323    24621415.158    24621414.602   129386417.868 3 100820587.101 3
        22.100          19.300
  21954569.781    21954568.533    21954565.837   115372068.987 7  89900325.390 6
        44.000          37.000
  24231607.608    24231607.147    24231608.331   127337953.653 3  99224377.547 3
        19.300          19.900
  22332578.045    22332577.431    22332574.878   117358547.987 6  91448234.177 4
        37.000          29.000
  20536315.430    20536314.291    20536310.411   107919156.686 8  84092874.112 7
        49.000          46.000
  22947401.593    22947401.079    22947400.671   120589403.248 5  93965767.204 3
        32.000          23.000
 11  1  1  0  3 30.0000000  0 10G14G09G06G11G27G19G24G18G22G03
  20762715.680    20762715.310    20762713.185   109108869.110 7  85019912.556 7
        44.000          43.000
  22912222.907    22912222.655    22912221.112   120404578.043 5  93821755.972 3
        31.000          23.000
  23196723.236    23196723.208    23196723.227   121899620.604 4  94986728.483 4
        29.000          24.900
  24198945.211    24198944.969    24198943.939   127166323.887 2  99090645.013
        16.100
  24631146.854    24631146.850    24631145.539   129437559.040 3 100860437.389 2
        21.100          12.600
  21959108.936    21959107.638    21959104.752   115395921.787 7  89918911.983 6
        44.000          37.000
  24212497.131    24212497.159    24212497.662   127237528.356 3  99146124.163 3
        23.800          19.300
  22346146.680    22346146.288    22346143.847   117429852.784 6  91503796.343 4
        37.000          29.000
  20541761.311    20541760.338    20541756.452   107947776.163 8  84115175.009 7
        49.000          46.000
  22964626.837    22964626.099    22964625.110   120679919.276 5  94036299.184 3
        33.000          23.800
 11  1  1  0  4  0.0000000  0 10G14G09G06G11G27G19G24G18G22G03
  20754140.408    20754139.834    20754137.677   109063804.501 7  84984797.294 7
        44.000          43.000
  22914376.898    22914376.610    22914375.500   120415899.113 5  93830577.593 3
        31.000          23.000
  23214010.870    23214010.728    23214010.677   121990467.164 5  95057517.973 4
        30.100          25.900
  24179638.122    24179637.624    24179637.073   127064866.882 2  99011587.647
        15.100
  24640961.357    24640961.158    24640960.606   129489137.707 3 100900628.591 2
        19.300          12.600
  21963756.252    21963755.085    21963751.813   115420344.195 7  89937942.436 6
        44.000          36.000
  24193403.614    24193403.068    24193403.121   127137188.736 3  99067937.539 2
        23.000          17.000
  22359749.655    22359749.207    22359746.820   117501337.634 6  91559498.822 4
        37.000          28.100
  20547267.368    20547266.320    20547262.317   107976709.784 8  84137720.690 7
        49.000          46.000
  22981901.690    22981901.438    22981900.870   120770703.718 5  94107040.299 3
        33.000          23.000
 11  1  1  0  4 30.0000000  0 10G14G09G06G11G27G19G24G18G22G03
  20745663.041    20745662.561    20745660.380   109019255.841 7  84950084.072 7
        44.000          44.000
  22916661.419    22916661.326    22916659.689   120427904.230 5  93839932.241 3
        30.100          23.000
  23231339.487    23231339.370    23231339.383   122081531.760 4  95128477.381 3
        28.100          23.000
  24160368.590    24160367.973    24160367.238   126963603.259 2  98932681.016
        15.100           3.000
  24650861.259    24650860.829    24650859.400   129541157.241 3 100941163.310 2
        19.300          12.600
  21968513.514    21968512.076    21968508.742   115445340.598 7  89957420.168 6
        44.000          37.000
  24174327.581    24174326.902    24174326.154   127036941.517 3  98989822.913 1
        23.800           6.500
  22373388.097    22373387.599    22373385.110   117573006.919 6  91615345.009 4
        37.000          29.000
  20552833.922    20552832.797    20552828.833   108005961.890 8  84160514.543 7
        49.000          46.000
  22999228.789    22999228.548    22999228.227   120861758.598 5  94177992.144 3
        31.000          23.800
 11  1  1  0  5  0.0000000  0 10G14G09G06G11G27G19G24G18G22G03
  20737283.024    20737282.648    20737280.318   108975218.669 7  84915769.412 7
        45.000          43.000
  22919075.060    22919074.569    22919073.554   120440587.814 5  93849815.563 4
        30.100          24.900
  23248709.059    23248708.534    23248708.157   122172806.686 4  95199600.682 3
        29.000          23.000
  24141135.039    24141134.896    24141133.777   126862530.011 3  98853922.713 1
        19.900          11.000
  24660842.279    24660842.266    24660841.347   129593610.741 3 100982036.174 2
        21.100          12.600
  21973377.635    21973376.248    21973373.828   115470904.506 7  89977340.096 6
        44.000          37.000
  24155268.438    24155267.485    24155267.121   126936783.110 3  98911777.487
        22.100           3.000
  22387060.352    22387059.933    22387057.248   117644854.542 6  91671330.172 4
        37.000          28.100
  20558459.632    20558458.662    20558454.782   108035526.612 8  84183551.990 7
        49.000          46.000
  23016605.806    23016605.431    23016605.222   120953075.556 5  94249148.201 4
        31.000          24.900
 11  1  1  0  5 30.0000000  0 10G14G09G06G11G27G19G24G18G22G03
  20729001.126    20729000.675    20728998.433   108931697.273 7  84881856.656 7
        45.000          44.000
  22921618.932    22921618.467    22921617.408   120453953.564 5  93860230.438 3
        31.000          23.000
  23266118.463    23266118.174    23266117.254   122264292.518 5  95270888.333 3
        30.100          22.100
  24121938.140    24121938.631    24121937.312   126761653.328 3  98775317.582 3
        19.900          19.300
  24670907.080    24670906.613    24670906.350   129646500.512 3 101023248.998 2
        21.100          16.100
  21978350.414    21978349.303    21978346.862   115497038.460 7  89997704.217 6
        44.000          37.000
  24136225.756    24136225.736    24136225.490   126836719.334 3  98833805.788
        23.800
  22400766.846    22400766.395    22400763.875   117716883.363 6  91727456.510 4
        37.000          28.100
  20564145.768    20564144.784    20564140.837   108065407.079 8  84206835.473 7
        49.000          46.000
  23034032.616    23034032.332    23034032.244   121044655.275 5  94320509.010 4
        32.000          24.900
 11  1  1  0  6  0.0000000  0 10G14G09G06G11G27G19G24G18G22G03
  20720816.237    20720815.844    20720813.704   108888685.909 7  84848341.323 7
        45.000          44.000
  22924290.386    22924290.056    22924289.196   120467994.361 5  93871171.318 3
        31.000          23.000
  23283565.418    23283565.726    23283565.400   122355980.019 5  95342333.142 3
        30.100          23.000
  24102779.102    24102779.189    24102777.103   126660968.789 2  98696862.190 2
        17.000          12.600
  24681052.872    24681052.647    24681051.929   129699818.146 3 101064795.227 2
        19.300          17.800
  21983430.876    21983429.616    21983426.582   115523734.968 7  90018506.702 6
        44.000          37.000
  24117200.924    24117200.750    24117200.386   126736745.113 3  98755903.833
        23.000           3.000
  22414506.852    22414506.332    22414503.709   117789085.999 6  91783718.293 4
        37.000          29.000
  20569890.481    20569889.566    20569885.591   108095596.027 8  84230359.329 7
        49.000          46.000
  23051508.293    23051507.570    23051507.506   121136488.079 5  94392067.041 3
        30.100          23.800
 11  1  1  0  6 30.0000000  0 10G14G09G06G11G27G19G24G18G22G03
  20712731.495    20712731.146    20712728.953   108846200.324 7  84815235.695 7
        45.000          44.000
  22927093.330    22927093.166    22927092.188   120482725.005 5  93882649.765 3
        31.000          23.000
  23301053.923    23301053.730    23301053.585   122447880.930 4  95413944.214 3
        28.100          23.000
  24083659.952    24083659.541    24083657.147   126560493.711 3  98618569.992 2
        22.100          15.100
  24691283.290    24691282.767    24691282.345   129753576.966 3 101106685.220 3
        21.100          19.300
  21988620.841    21988619.516    21988616.233   115551007.533 7  90039758.063 6
        44.000          36.000
  24098197.542    24098196.851    24098196.408   126636876.980 3  98678084.565 2
        23.000          16.100
  22428282.348    22428281.628    22428279.168   117861476.809 6  91840126.714 4
        36.000          28.100
  20575696.846    20575695.844    20575691.875   108126107.947 8  84254134.850 7
        48.000          46.000
  23069034.087    23069033.442    23069033.367   121228585.739 5  94463831.423 4
        31.000          25.900
 11  1  1  0  7  0.0000000  0 10G14G09G06G11G27G19G24G18G22G03
  20704744.963    20704744.533    20704742.315   108804230.528 7  84782531.975 7
        44.000          44.000
  22930026.522    22930025.958    22930023.925   120498134.297 5  93894657.011 3
        31.000          22.100
  23318579.724    23318579.737    23318579.921   122539982.140 4  95485711.361 3
        28.100          23.000
  24064578.124    24064577.943    24064575.814   126460219.429 3  98540434.249 2
        22.100          12.600
  24701594.438    24701594.259    24701592.911   129807764.503 3 101148909.276 2
        22.100          13.900
  21993917.702    21993916.461    21993913.684   115578844.258 7  90061449.024 6
        44.000          37.000
  24079211.736    24079211.287    24079210.922   126537105.932 4  98600340.948 2
        24.900          15.100
  22442092.151    22442091.223    22442088.146   117934044.169 6  91896672.691 4
        37.000          28.100
  20581562.450    20581561.306    20581557.346   108156931.373 8  84278153.104 7
        48.000          45.000
  23086607.496    23086607.080    23086606.529   121320934.005 5  94535791.089 4
        32.000          24.900
 11  1  1  0  7 30.0000000  0 10G14G09G06G11G27G19G24G18G22G03
  20696857.412    20696856.935    20696854.791   108762781.312 7  84750233.903 7
        44.000          44.000
  22933087.695    22933087.489    22933085.857   120514225.870 5  93907195.920 3
        30.100          21.100
  23336145.125    23336144.700    23336143.647   122632284.700 4  95557635.404 3
        29.000          19.900
  24045536.049    24045535.823    24045534.478   126360152.326 3  98462459.957
        22.100
  24711988.462    24711987.867    24711987.275   129862383.094 3 101191469.229 1
        21.100           9.000
  21999322.415    21999321.346    21999318.931   115607248.057 7  90083581.855 6
        44.000          37.000
  24060244.127    24060244.138    24060244.671   126437438.011 3  98522677.701 2
        23.000          15.100
  22455934.735    22455934.239    22455931.537   118006791.273 6  91953358.744 4
        37.000          29.000
  20587487.778    20587486.782    20587482.817   108188069.935 8  84302416.922 7
        48.000          45.000
  23104229.286    23104228.677    23104227.567   121413534.704 5  94607947.474 3
        32.000          23.800
 11  1  1  0  8  0.0000000  0 10G14G09G06G11G27G19G24G18G22G03
  20689067.569    20689067.064    20689064.868   108721845.265 7  84718335.702 7
        45.000          44.000
  22936279.020    22936278.350    22936276.230   120530991.845 5  93920260.302 3
        31.000          22.100
  23353746.059    23353745.793    23353744.723   122724778.262 4  95629708.310 2
        29.000          17.800
  24026532.036    24026531.611    24026530.796   126260286.763 3  98384642.647
        19.900
  24722462.207    24722461.649    24722460.279   129917422.917 3 101234357.447 2
        21.100          12.600
  22004834.001    22004832.737    22004829.951   115636209.788 7  90106149.446 6
        44.000          37.000
  24041297.051    24041296.560    24041296.454   126337866.901 4  98445089.895 3
        24.900          19.300
  22469810.524    22469810.053    22469807.552   118079709.493 6  92010178.131 4
        36.000          29.000
  20593471.472    20593470.471    20593466.609   108219514.843 8  84326919.451 7
        48.000          45.000
  23121896.180    23121895.479    23121894.610   121506376.374 5  94680291.624 3
        30.100          23.000
 11  1  1  0  8 30.0000000  0 10G14G09G06G11G27G19G24G18G22G03
  20681376.079    20681375.667    20681373.384   108681426.674 7  84686840.710 7
        45.000          44.000
  22939597.819    22939597.411    22939595.770   120548435.124 5  93933852.491 3
        31.000          22.100
  23371383.123    23371382.810    23371382.092   122817462.672 5  95701929.917 3
        30.100          22.100
  24007568.120    24007567.362    24007566.870   126160628.659 3  98306987.004
        19.300
  24733015.444    24733015.637    24733015.448   129972886.075 3 101277575.512 2
        19.900          13.900
  22010452.183    22010450.852    22010447.762   115665731.657 7  90129153.507 6
        44.000          36.000
  24022369.671    24022368.941    24022368.756   126238398.252 3  98367581.902 3
        23.800          19.300
  22483719.316    22483719.015    22483716.326   118152801.799 6  92067133.159 4
        37.000          28.100
  20599514.221    20599513.116    20599509.276   108251269.352 8  84351663.228 7
        48.000          45.000
  23139608.610    23139608.118    23139607.630   121599459.300 4  94752823.746 3
        29.000          22.100
 11  1  1  0  9  0.0000000  0 10G14G09G06G11G27G19G24G18G22G03
  20673785.507    20673785.063    20673782.655   108641537.137 7  84655757.973 7
        45.000          44.000
  22943047.823    22943047.565    22943046.298   120566566.325 5  93947980.709 3
        31.000          22.100
  23389058.203    23389057.916    23389057.532   122910346.745 4  95774307.088 3
        28.100          21.100
  23988645.781    23988645.146    23988644.257   126061191.370 3  98229503.442
        22.100
  24743652.755    24743652.192    24743651.327   130028781.654 3 101321130.495 2
        19.300          17.000
  22016177.775    22016176.692    22016173.659   115695823.311 7  90152601.558 6
        43.000          36.000
  24003462.581    24003462.135    24003462.149   126139044.644 3  98290163.596 2
        23.000          17.000
  22497663.656    22497663.020    22497660.406   118226078.306 5  92124231.729 4
        35.100          28.100
  20605617.658    20605616.653    20605612.741   108283343.460 8  84376656.039 7
        48.000          45.000
  23157369.469    23157368.937    23157368.689   121692791.660 5  94825550.243 3
        30.100          22.100
 11  1  1  0  9 30.0000000  0 10G14G09G06G11G27G19G24G18G22G03
  20666293.269    20666292.696    20666290.259   108602164.286 7  84625077.842 7
        45.000          44.000
  22946626.771    22946626.398    22946624.583   120585371.186 5  93962633.861 3
        31.000          22.100
  23406768.920    23406768.804    23406768.202   123003414.582 5  95846827.447 3
        30.100          21.100
  23969762.847    23969762.621    23969760.801   125961963.815 3  98152183.328 1
        23.000          11.000
  24754368.539    24754368.295    24754367.352   130085094.550 3 101365010.676 2
        21.100          13.900
  22022010.068    22022008.676    22022005.835   115726470.254 7  90176482.297 6
        43.000          37.000
  23984575.983    23984575.373    23984575.323   126039794.501 3  98212825.907 2
        19.300          12.600
  22511640.218    22511639.642    22511636.904   118299524.796 6  92181462.755 4
        36.000          28.100
  20611779.490    20611778.363    20611774.448   108315723.487 8  84401887.228 7
        48.000          45.000
  23175174.411    23175173.991    23175173.698   121786356.801 5  94898458.139 3
        31.000          23.000
 11  1  1  0 10  0.0000000  0 10G14G09G06G11G27G19G24G18G22G03
  20658899.736    20658899.161    20658896.674   108563311.191 7  84594802.722 7
        44.000          44.000
  22950334.444    22950333.736    22950331.904   120604852.091 5  93977813.804 3
        30.100          22.100
  23424514.304    23424513.758    23424512.803   123096665.265 4  95919490.296 3
        29.000          19.300
  23950921.639    23950921.099    23950919.431   125862951.000 4  98075030.562 3
        25.900          19.300
  24765164.848    24765164.342    24765163.497   130141825.711 3 101409216.814 1
        23.000           9.000
  22027947.902    22027946.700    22027943.968   115757673.942 7  90200796.866 6
        44.000          37.000
  23965709.528    23965709.279    23965708.912   125940652.060 3  98135572.113 1
        23.800           6.500
  22525648.860    22525648.301    22525646.008   118373143.340 5  92238827.847 4
        35.100          27.100
  20617999.618    20617998.713    20617994.772   108348411.342 8  84427358.282 7
        49.000          45.000
  23193023.152    23193022.627    23193022.654   121880154.312 4  94971547.100 3
        29.000          21.100
 11  1  1  0 10 30.0000000  0 10G14G09G06G11G27G19G24G18G22G03
  20651607.308    20651606.830    20651604.449   108524990.299 7  84564942.300 7
        44.000          44.000
  22954171.979    22954171.496    22954169.981   120625020.775 5  93993529.660 3
        31.000          22.100
  23442295.715    23442295.198    23442293.847   123190108.341 4  95992303.097 2
        28.100          15.100
  23932123.573    23932123.246    23932121.283   125764167.357 4  97998056.364 2
        25.900          17.800
  24776042.223    24776041.478    24776040.377   130198985.523 3 101453756.994 1
        22.100           9.000
  22033993.965    22033992.737    22033989.910   115789444.972 7  90225553.517 6
        44.000          37.000
  23946866.420    23946866.075    23946865.816   125841631.340 4  98058413.114
        25.900           3.000
  22539693.269    22539692.661    22539690.082   118446945.133 5  92296335.728 4
        35.100          27.100
  20624280.861    20624279.837    20624275.799   108381418.501 8  84453078.150 7
        48.000          45.000
  23210918.560    23210917.857    23210917.356   121974193.185 4  95044824.129 3
        28.100          21.100
 11  1  1  0 11  0.0000000  0 10G14G09G06G11G27G19G24G18G22G03
  20644412.187    20644411.677    20644409.564   108487180.282 7  84535479.965 7
        44.000          45.000
  22958136.085    22958135.590    22958134.448   120645854.423 5  94009763.677 3
        31.000          23.800
  23460108.032    23460107.738    23460108.043   123283718.775 4  96065246.302 3
        24.900          19.300
  23913366.050    23913365.689    23913363.085   125665592.833 4  97921245.083 1
        24.900          11.000
  24786995.952    24786995.764    24786993.999   130256550.069 3 101498612.489 1
        19.300           9.000
  22040143.054    22040141.853    22040139.121   115821759.899 7  90250733.979 6
        44.000          37.000
  23928042.940    23928042.067    23928042.207   125742712.177 3  97981333.293 1
        23.800          11.000
  22553767.432    22553767.127    22553764.676   118520907.382 6  92353968.654 4
        36.000          27.100
  20630618.265    20630617.296    20630613.336   108414722.196 8  84479029.078 7
        48.000          45.000
  23228854.863    23228854.437    23228853.622   122068448.446 5  95118269.763 3
        30.100          22.100
 11  1  1  0 11 30.0000000  0 11G14G09G06G11G27G19G24G18G32G22G03
  20637317.026    20637316.631    20637314.606   108449895.841 7  84506427.169 7
        44.000          45.000
  22962230.131    22962229.497    22962227.963   120667366.209 5  94026526.129 3
        31.000          22.100
  23477955.917    23477955.943    23477955.597   123377507.962 4  96138328.722 3
        28.100          21.100
  23894650.359    23894649.987    23894647.817   125567244.043 3  97844609.711 1
        22.100           9.000
  24798028.425    24798028.317    24798028.144   130314531.767 3 101543793.062 1
        19.300           6.500
  22046398.296    22046397.035    22046394.068   115854631.394 7  90276348.141 6
        43.000          36.000
  23909241.518    23909240.669    23909240.827   125643910.477 4  97904345.019 2
        24.900          15.100
  22567875.328    22567874.744    22567872.267   118595043.480 5  92411737.036 4
        35.100          27.100
  24553035.249    24553034.156    24553034.582   129027051.417 2 100540559.255 1
        17.800          11.000
  20637014.894    20637013.781    20637009.823   108448335.783 8  84505221.482 7
        48.000          45.000
  23246833.895    23246833.751    23246833.300   122162931.163 5  95191892.657 3
        30.100          22.100
 11  1  1  0 12  0.0000000  0 11G14G09G06G11G27G19G24G18G32G22G03
  20630322.232    20630321.833    20630319.622   108413137.566 7  84477784.370 7
        44.000          45.000
  22966452.223    22966451.984    22966450.887   120689556.105 5  94043816.967 3
        31.000          22.100
  23495837.286    23495837.368    23495836.895   123471473.231 4  96211548.389 3
        28.100          23.800
  23875977.073    23875977.407    23875975.912   125469123.187 2  97768151.978 1
        16.100           6.500
  24809142.013    24809141.632    24809140.747   130372928.932 2 101589297.361 2
        17.800          16.100
  22052759.179    22052757.927    22052754.876   115888057.986 7  90302394.839 6
        43.000          36.000
  23890462.087    23890461.735    23890462.082   125545228.366 3  97827449.951 3
        23.800          19.300
  22582016.236    22582015.546    22582013.256   118669352.919 5  92469640.482 4
        35.100          27.100
  24535921.583    24535920.894    24535921.706   128937124.624 2 100470486.549 1
        17.800           6.500
  20643469.945    20643468.989    20643465.170   108482258.941 8  84531655.115 7
        48.000          45.000
  23264855.955    23264855.573    23264855.918   122257638.023 4  95265690.159 4
        29.000          25.900
 11  1  1  0 12 30.0000000  0 11G14G09G06G11G27G19G24G18G32G22G03
  20623427.120    20623426.581    20623424.209   108376902.341 7  84449549.153 7
        44.000          45.000
  22970802.938    22970802.658    22970801.409   120712419.610 5  94061632.699 3
        31.000          22.100
  23513750.853    23513750.563    23513749.749   123565607.619 4  96284899.832 3
        28.100          21.100
  23857348.043    23857348.578    23857347.412   125371229.265 3  97691871.089 2
        19.300          12.600
  24820332.305    24820331.991    24820330.952   130431735.862 3 101635120.954 2
        19.300          12.600
  22059224.532    22059223.343    22059220.675   115922034.876 7  90328870.349 6
        43.000          37.000
  23871706.055    23871705.751    23871706.113   125446663.714 3  97750646.410 3
        23.000          19.900
  22596188.796    22596188.028    22596185.459   118743830.905 5  92527675.276 4
        35.100          25.900
  24518828.143    24518827.256    24518828.238   128847298.761 2 100400492.509
        17.000           3.000
  20649983.630    20649982.472    20649978.530   108516487.391 8  84558326.637 7
        48.000          45.000
  23282919.725    23282919.229    23282918.988   122352562.425 5  95339657.193 3
        31.000          23.000
 11  1  1  0 13  0.0000000  0 11G14G09G06G11G27G19G24G18G32G22G03
  20616631.865    20616631.457    20616629.064   108341193.685 7  84421724.236 7
        44.000          45.000
  22975282.404    22975282.098    22975280.632   120735959.121 5  94079975.180 3
        31.000          23.000
  23531695.356    23531695.115    23531695.230   123659912.162 4  96358383.860 3
        24.900          19.300
  23838764.802    23838764.243    23838763.310   125273567.477 2  97615771.050
        16.100
  24831600.734    24831600.677    24831599.578   130490953.572 2 101681264.647 1
        17.800           6.500
  22065794.950    22065793.807    22065791.470   115956563.821 7  90355776.017 6
        43.000          37.000
  23852973.259    23852973.196    23852973.091   125348221.440 4  97673938.223 3
        28.100          21.100
  22610393.835    22610393.300    22610390.759   118818480.175 5  92585843.539 4
        35.100          25.900
  24501755.856    24501754.592    24501755.158   128757577.395 3 100330579.862 1
        21.100           6.500
  20656555.584    20656554.501    20656550.509   108551023.486 8  84585237.882 7
        48.000          45.000
  23301024.599    23301024.509    23301023.772   122447704.199 5  95413793.634 3
        32.000          21.100
 11  1  1  0 13 30.0000000  0 11G14G09G06G11G27G19G24G18G32G22G03
  20609937.502    20609937.037    20609934.706   108306014.603 7  84394311.982 7
        44.000          45.000
  22979890.737    22979890.539    22979889.068   120760176.295 5  94098845.719 3
        31.000          22.100
  23549673.193    23549673.303    23549672.858   123754385.981 4  96431999.815 2
        25.900          16.100
  23820225.100    23820225.070    23820223.748   125176142.604 3  97539855.592
        22.100           3.000
  24842947.513    24842947.561    24842947.023   130550582.814 2 101727729.029 2
        16.100          13.900
  22072470.867    22072469.864    22072467.304   115991645.602 7  90383112.467 6
        43.000          37.000
  23834265.169    23834264.818    23834264.021   125249905.756 4  97597328.654 3
        29.000          19.300
  22624632.074    22624631.772    22624629.444   118893302.451 5  92644146.620 4
        35.100          28.100
  24484702.161    24484701.540    24484701.899   128667963.572 3 100260751.019
        23.800
  20663186.560    20663185.438    20663181.421   108585869.118 8  84612390.326 7
        48.000          44.000
  23319171.416    23319170.896    23319169.979   122543062.918 5  95488099.122 3
        31.000          21.100
 11  1  1  0 14  0.0000000  0 11G14G09G06G11G27G19G24G18G32G22G03
  20603342.789    20603342.221    20603339.918   108271358.519 7  84367307.254 7
        44.000          45.000
  22984626.791    22984626.607    22984625.012   120785063.164 5  94118238.104 3
        31.000          23.000
  23567682.053    23567681.724    23567681.321   123849019.144 4  96505739.935 3
        29.000          19.900
  23801729.919    23801730.162    23801728.007   125078950.087 4  97464121.169 2
        25.900          12.600
  24854372.750    24854372.061    24854370.686   130610614.995 3 101774507.361 2
        19.300          12.600
  22079250.749    22079249.486    22079246.518   116027271.565 7  90410872.954 6
        43.000          36.000
  23815579.033    23815578.521    23815578.071   125151711.646 4  97520813.775 2
        29.000          13.900
  22638901.732    22638901.002    22638898.930   118968289.579 5  92702578.137 4
        34.000          27.100
  24467667.629    24467666.795    24467667.423   128578450.771 3 100191000.829
        23.000
  20669874.727    20669873.756    20669869.776   108621016.591 8  84639777.966 7
        48.000          44.000
  23337356.274    23337356.058    23337355.571   122638628.267 4  95562565.618 3
        29.000          22.100
 11  1  1  0 14 30.0000000  0 11G14G09G06G11G27G19G24G18G32G22G03
  20596848.597    20596848.125    20596845.831   108237232.023 7  84340715.196 7
        44.000          45.000
  22989490.930    22989490.560    22989489.178   120810625.212 5  94138156.586 3
        30.100          19.300
  23585720.598    23585720.683    23585720.442   123943814.804 4  96579606.670 3
        28.100          19.900
  23783280.779    23783280.549    23783278.562   124981998.044 3  97388574.154 2
        23.000          16.100
  24865872.725    24865872.439    24865871.036   130671054.155 3 101821602.815
        21.100           3.000
  22086134.334    22086133.162    22086130.305   116063446.571 7  90439061.287 6
        43.000          36.000
  23796917.347    23796917.033    23796917.365   125053646.856 4  97444399.695 2
        24.900          16.100
  22653203.514    22653203.208    22653200.575   119043447.232 5  92761142.543 4
        34.000          25.900
  24450654.779    24450653.916    24450654.894   128489045.770 3 100121334.634 1
        23.000           6.500
  20676621.640    20676620.685    20676616.693   108656471.426 8  84667405.115 7
        49.000          44.000
  23355581.015    23355580.889    23355580.874   122734403.323 4  95637195.485 3
        27.100          19.900
 11  1  1  0 15  0.0000000  0 11G14G09G06G11G27G19G24G18G32G22G03
  20590454.527    20590454.027    20590451.723   108203631.088 7  84314532.663 7
        44.000          45.000
  22994482.596    22994482.230    22994481.062   120836856.964 5  94158596.932 3
        31.000          22.100
  23603789.742    23603789.092    23603789.259   124038766.223 4  96653594.752 3
        25.900          21.100
  23764877.317    23764876.790    23764874.596   124885284.409 3  97313212.935 2
        21.100          17.000
  24877450.758    24877450.198    24877448.735   130731893.722 3 101869010.333 1
        21.100           9.000
  22093121.808    22093120.419    22093117.441   116100164.448 7  90467672.622 6
        43.000          36.000
  23778280.809    23778280.206    23778280.309   124955708.937 4  97368084.491 3
        24.900          19.900
  22667537.251    22667536.803    22667534.208   119118770.133 5  92819835.722 4
        34.000          25.900
  24433661.252    24433660.412    24433660.989   128399744.472 2 100051749.269 1
        17.000           6.500
  20683425.948    20683424.976    20683421.025   108692228.440 8  84695267.725 7
        48.000          44.000
  23373846.158    23373845.479    23373844.578   122830380.573 5  95711982.931 2
        30.100          16.100
 11  1  1  0 15 30.0000000  0 11G14G09G06G11G27G19G24G18G32G22G03
  20584160.371    20584159.920    20584157.639   108170555.378 7  84288759.401 7
        44.000          45.000
  22999601.487    22999601.380    22999599.299   120863756.927 5  94179557.946 3
        31.000          21.100
  23621887.614    23621887.086    23621886.055   124133869.354 4  96727701.052 2
        27.100          12.600
  23746518.878    23746518.479    23746516.405   124788811.035 3  97238038.938 3
        22.100          19.300
  24889104.372    24889103.776    24889102.232   130793131.166 3 101916727.829 1
        21.100          11.000
  22100211.468    22100210.386    22100207.735   116137422.742 7  90496705.063 6
        43.000          37.000
  23759668.365    23759667.761    23759668.037   124857898.974 3  97291869.005 3
        22.100          19.900
  22681902.103    22681901.412    22681898.925   119194256.611 5  92878656.341 4
        34.000          25.900
  24416686.688    24416686.183    24416687.343   128310546.610 2  99982244.513 1
        16.100           6.500
  20690287.333    20690286.378    20690282.582   108728286.043 8  84723364.564 7
        48.000          44.000
  23392147.636    23392147.070    23392145.656   122926556.121 5  95786924.914 2
        30.100          16.100
 11  1  1  0 16  0.0000000  0 11G14G09G06G11G27G19G24G18G32G22G03
  20577966.102    20577965.609    20577963.461   108138004.537 7  84263395.122 7
        44.000          45.000
  23004846.948    23004847.106    23004845.026   120891323.967 5  94201038.756 3
        31.000          21.100
  23640013.294    23640012.922    23640011.897   124229120.903 4  96801923.037 2
        27.100          16.100
  23728207.169    23728206.635    23728204.266   124692579.730 4  97163053.565 3
        24.900          21.100
  24900831.800    24900831.686    24900830.703   130854764.059 2 101964753.494
        17.800
  22107404.254    22107403.069    22107400.100   116175219.615 7  90526157.161 6
        43.000          36.000
  23741079.399    23741078.952    23741079.807   124760218.261 4  97215754.269 3
        24.900          19.900
  22696297.290    22696296.977    22696294.186   119269905.635 5  92937603.619 4
        34.000          25.900
  24399733.810    24399732.785    24399733.483   128221452.444 3  99912820.594 2
        19.900          17.800
  20697205.940    20697204.981    20697201.081   108764643.464 8  84751695.024 7
        48.000          44.000
  23410485.342    23410485.089    23410484.572   123022926.182 4  95862018.459 3
        28.100          19.900
 11  1  1  0 16 30.0000000  0 11G14G09G06G11G27G19G24G18G32G22G03
  20571873.012    20571872.516    20571870.310   108105984.856 7  84238444.735 7
        44.000          46.000
  23010220.633    23010220.367    23010218.807   120919562.549 5  94223042.875 3
        30.100          19.300
  23658168.139    23658167.545    23658166.696   124324523.689 4  96876262.866 2
        27.100          17.000
  23709942.538    23709942.119    23709939.343   124596598.434 4  97088263.000 2
        25.900          16.100
  24912636.362    24912636.001    24912634.873   130916796.238 3 102013090.294 1
        21.100           6.500
  22114699.619    22114698.529    22114695.565   116213558.891 7  90556031.924 6
        43.000          36.000
  23722517.336    23722516.651    23722517.198   124662674.117 4  97139745.920 3
        25.900          21.100
  22710724.937    22710724.295    22710721.493   119345721.953 5  92996681.274 4
        34.000          24.900
  24382800.631    24382799.586    24382800.413   128132468.077 2  99843482.209 3
        16.100          19.900
  20704182.859    20704181.706    20704177.601   108801305.724 8  84780263.025 7
        48.000          44.000
  23428862.251    23428861.549    23428861.314   123119493.355 4  95937265.576 3
        29.000          22.100
 11  1  1  0 17  0.0000000  0 11G14G09G06G11G27G19G24G18G32G22G03
  20565879.634    20565879.187    20565876.842   108074489.150 7  84213902.641 7
        44.000          46.000
  23015721.476    23015720.961    23015718.700   120948464.481 5  94245563.877 3
        31.000          21.100
  23676348.723    23676348.726    23676348.156   124420067.581 4  96950712.617 3
        25.900          19.300
  23691724.924    23691724.305    23691721.114   124500862.139 4  97013663.307 2
        25.900          15.100
  24924514.813    24924514.596    24924512.860   130979218.480 2 102061731.024 1
        13.900           6.500
  22122097.356    22122095.849    22122092.825   116252431.289 7  90586322.118 6
        43.000          36.000
  23703980.177    23703979.928    23703980.038   124565261.211 4  97063839.824 3
        25.900          19.300
  22725182.246    22725181.886    22725179.298   119421697.759 5  93055883.191 4
        34.000          24.900
  24365886.715    24365885.731    24365886.143   128043586.681 2  99774224.068 2
        17.800          16.100
  20711215.933    20711214.834    20711210.707   108838264.855 8  84809062.352 7
        48.000          44.000
  23447273.725    23447273.045    23447272.960   123216246.948 4  96012657.947 3
        28.100          23.000
 11  1  1  0 17 30.0000000  0 11G14G09G06G11G27G19G24G18G32G22G03
  20559988.460    20559987.991    20559985.671   108043531.092 7  84189779.498 7
        44.000          46.000
  23021349.869    23021349.331    23021347.371   120978041.959 5  94268611.281 3
        31.000          22.100
  23694558.745    23694558.593    23694558.729   124515763.004 3  97025280.435 3
        23.800          19.300
  23673555.944    23673555.540    23673552.651   124405386.315 3  96939266.585 2
        23.800          17.000
  24936469.246    24936468.743    24936467.638   131042042.001 2 102110684.430 1
        13.900           6.500
  22129597.753    22129596.719    22129593.591   116291849.118 7  90617037.310 6
        43.000          36.000
  23685471.836    23685471.281    23685470.320   124467994.857 4  96988047.891 1
        29.000          11.000
  22739672.965    22739672.365    22739670.063   119497845.466 5  93115219.066 4
        34.000          25.900
  24348994.634    24348994.178    24348994.818   127954822.062 3  99705056.892 2
        23.000          12.600
  20718307.694    20718306.734    20718302.629   108875533.128 8  84838102.569 7
        48.000          44.000
  23465722.679    23465721.955    23465722.308   123313197.823 4  96088204.035 3
        27.100          21.100
 11  1  1  0 18  0.0000000  0 11G14G09G06G11G27G19G24G18G32G22G03
  20554196.764    20554196.425    20554194.189   108013096.346 7  84166064.124 7
        44.000          46.000
  23027103.281    23027102.849    23027101.329   121008279.801 4  94292173.246 3
        29.000          22.100
  23712794.755    23712794.778    23712794.152   124611593.018 4  97099953.145 2
        27.100          17.800
  23655434.321    23655433.959    23655431.922   124310159.140 3  96865063.644 2
        22.100          17.800
  24948497.088    24948497.487    24948496.561   131105250.905 2 102159938.131 1
        17.800           9.000
  22137200.135    22137198.827    22137195.869   116331796.695 7  90648165.287 6
        44.000          36.000
  23666987.268    23666987.158    23666986.306   124370862.959 4  96912360.724 1
        27.100           9.000
  22754193.281    22754192.893    22754190.314   119574150.260 5  93174677.345 4
        34.000          24.900
  24332122.985    24332122.751    24332123.094   127866160.758 3  99635970.244 1
        22.100           6.500
  20725455.669    20725454.652    20725450.753   108913096.219 8  84867372.517 7
        48.000          44.000
  23484204.701    23484204.902    23484204.296   123410328.316 4  96163890.119 2
        27.100          12.600
 11  1  1  0 18 30.0000000  0 11G14G09G06G11G27G19G24G18G32G22G03
  20548506.919    20548506.525    20548504.195   107983195.331 7  84142764.645 7
        44.000          46.000
  23032984.962    23032984.512    23032982.234   121039186.194 5  94316256.174 3
        30.100          22.100
  23731057.047    23731057.186    23731056.594   124707563.748 4  97174735.535 1
        27.100           9.000
  23637362.729    23637362.017    23637359.913   124215192.221 3  96791063.489 2
        22.100          16.100
  24960600.273    24960600.191    24960599.126   131168852.186 3 102209497.610
        21.100
  22144903.887    22144902.705    22144899.776   116372281.027 7  90679711.512 6
        44.000          36.000
  23648531.760    23648531.209    23648530.561   124273876.432 4  96836786.820 2
        28.100          13.900
  22768744.802    22768744.388    22768741.863   119650620.301 5  93234264.387 4
        33.000          24.900
  24315272.299    24315272.141    24315272.593   127777612.264 3  99566971.468
        22.100
  20732661.441    20732660.379    20732656.518   108950962.758 8  84896878.917 7
        48.000          44.000
  23502724.247    23502723.787    23502723.063   123507644.405 4  96239720.834 1
        28.100          11.000
 11  1  1  0 19  0.0000000  0 11G14G09G06G11G27G19G24G18G32G22G03
  20542917.460    20542917.049    20542914.624   107953822.288 7  84119876.577 7
        44.000          46.000
  23038991.634    23038991.282    23038989.579   121070754.188 5  94340854.617 3
        30.100          22.100
  23749344.941    23749345.133    23749344.750   124803666.781 4  97249621.021 2
        24.900          15.100
  23619339.567    23619338.973    23619337.579   124120482.078 3  96717263.459 3
        21.100          19.300
  24972777.255    24972776.842    24972775.365   131232838.147 2 102259356.847 1
        17.800           9.000
  22152708.516    22152707.243    22152704.296   116413294.255 7  90711669.868 6
        43.000          36.000
  23630102.836    23630102.196    23630102.032   124177031.372 4  96761323.198 3
        24.900          19.900
  22783327.242    22783326.688    22783324.429   119727249.361 5  93293975.332 4
        34.000          25.900
  24298443.282    24298442.347    24298443.025   127689171.465 3  99498056.582
        21.100
  20739923.511    20739922.450    20739918.633   108989125.583 8  84926616.194 7
        48.000          44.000
  23521276.864    23521276.482    23521276.126   123605137.479 4  96315689.473 3
        29.000          19.900
 11  1  1  0 19 30.0000000  0 11G14G09G06G11G27G19G24G18G32G22G03
  20537428.938    20537428.407    20537426.034   107924979.882 7  84097401.986 7
        44.000          46.000
  23045124.800    23045124.355    23045123.560   121102985.534 4  94365969.960 3
        29.000          22.100
  23767658.725    23767658.160    23767657.796   124899902.009 4  97324609.482 2
        24.900          17.000
  23601365.817    23601366.114    23601364.487   124026033.811 3  96643667.472 3
        23.000          19.300
  24985025.573    24985025.695    24985024.826   131297209.842 3 102309516.613
        19.300           3.000
  22160613.679    22160612.497    22160609.780   116454838.361 7  90744041.886 6
        43.000          36.000
  23611701.428    23611701.011    23611701.203   124080332.455 4  96685973.444 3
        27.100          22.100
  22797940.550    22797939.768    22797936.891   119804039.684 5  93353811.943 4
        34.000          24.900
  24281635.146    24281634.230    24281634.331   127600841.677 3  99429228.267 1
        23.000          11.000
  20747242.525    20747241.388    20747237.657   109027587.149 8  84956586.248 7
        48.000          44.000
  23539863.347    23539862.773    23539862.710   123702807.196 4  96391795.737 3
        29.000          23.000
 11  1  1  0 20  0.0000000  0 11G14G09G06G11G27G19G24G18G32G22G03
  20532042.054    20532041.581    20532039.193   107896672.125 7  84075344.010 7
        44.000          46.000
  23051385.071    23051384.729    23051383.736   121135882.658 4  94391604.094 3
        29.000          23.000
  23785996.891    23785996.203    23785995.977   124996270.123 4  97399701.471 2
        24.900          16.100
  23583444.345    23583444.530    23583442.602   123931853.440 4  96570280.216 2
        25.900          15.100
  24997348.788    24997348.820    24997348.380   131361968.657 3 102359978.085 1
        19.300           6.500
  22168620.820    22168619.493    22168616.733   116496914.764 7  90776828.698 6
        43.000          36.000
  23593329.082    23593328.832    23593328.838   123983785.082 4  96610741.781 3
        29.000          23.000
  22812583.942    22812583.370    22812580.711   119880993.775 5  93413776.151 4
        33.000          24.900
  24264847.667    24264846.928    24264847.866   127512627.036 3  99360489.677 2
        19.300          13.900
  20754619.000    20754617.920    20754613.955   109066350.501 8  84986791.463 7
        48.000          44.000
  23558482.469    23558481.827    23558482.570   123800653.724 4  96468039.740 4
        25.900          24.900
 11  1  1  0 20 30.0000000  0 11G14G09G06G11G27G19G24G18G32G22G03
  20526755.767    20526755.386    20526752.928   107868892.713 7  84053697.733 7
        44.000          46.000
  23057770.814    23057770.395    23057768.878   121169438.150 5  94417751.248 3
        31.000          22.100
  23804357.787    23804357.922    23804357.899   125092761.821 4  97474889.788 3
        24.900          19.300
  23565573.665    23565573.132    23565570.373   123837936.896 4  96497098.515 2
        25.900          16.100
  25009744.945    25009744.380    25009743.116   131427105.821 2 102410734.313 1
        16.100          11.000
  22176727.630    22176726.392    22176723.194   116539515.063 7  90810023.715 6
        44.000          36.000
  23574984.234    23574983.875    23574984.137   123887384.640 4  96535624.611 3
        28.100          22.100
  22827257.136    22827256.844    22827253.890   119958104.276 5  93473862.247 4
        33.000          24.900
  24248081.692    24248081.351    24248082.190   127424521.468 3  99291836.077 1
        23.000           6.500
  20762051.330    20762050.444    20762046.492   109105408.834 8  85017226.537 7
        48.000          44.000
  23577134.103    23577133.199    23577133.923   123898667.766 3  96544414.235 3
        23.800          23.000
 11  1  1  0 21  0.0000000  0 11G14G09G06G11G27G19G24G18G32G22G03
  20521570.558    20521570.150    20521567.729   107841644.131 7  84032465.088 7
        44.000          46.000
  23064281.571    23064281.195    23064279.559   121203652.974 5  94444412.168 3
        30.100          19.900
  23822743.761    23822743.310    23822742.706   125189376.547 4  97550173.941 2
        25.900          15.100
  23547753.018    23547752.302    23547749.531   123744288.774 4  96424125.993 2
        25.900          15.100
  25022211.440    25022211.159    25022210.245   131492621.777 2 102461785.706
        16.100           3.000
  22184933.949    22184932.647    22184929.585   116582640.191 7  90843627.710 5
        43.000          35.100
  23556668.636    23556668.380    23556668.739   123791135.371 4  96460625.238 3
        28.100          22.100
  22841960.783    22841960.498    22841957.815   120035373.192 5  93534071.784 3
        33.000          23.800
  24231336.435    24231336.206    24231337.168   127336527.899 3  99223269.725 2
        23.000          13.900
  20769540.312    20769539.343    20769535.472   109144763.466 8  85047892.490 7
        48.000          43.000
  23595817.782    23595817.136    23595816.782   123996848.428 4  96620918.597 3
        24.900          21.100
 11  1  1  0 21 30.0000000  0 11G14G09G06G11G27G19G24G18G32G22G03
  20516486.590    20516486.164    20516483.751   107814927.477 7  84011646.934 7
        44.000          46.000
  23070917.610    23070917.356    23070916.130   121238526.733 5  94471586.547 3
        30.100          22.100
  23841152.171    23841151.508    23841151.090   125286112.363 3  97625552.519 2
        23.800          16.100
  23529983.123    23529982.964    23529981.099   123650912.369 4  96351365.188 1
        25.900          11.000
  25034751.391    25034750.960    25034749.978   131558515.448 2 102513131.459 1
        17.800           6.500
  22193240.158    22193238.903    22193235.950   116626288.870 7  90877639.645 6
        44.000          36.000
  23538382.990    23538382.270    23538382.776   123695040.279 4  96385746.007 3
        29.000          23.800
  22856694.853    22856694.271    22856691.841   120112800.527 5  93594404.757 3
        32.000          23.800
  24214613.002    24214612.619    24214614.018   127248647.780 3  99154791.823 2
        19.300          17.800
  20777085.776    20777084.798    20777080.822   109184414.679 8  85078789.548 7
        48.000          44.000
  23614532.881    23614531.969    23614530.857   124095194.003 5  96697551.503 2
        30.100          12.600
 11  1  1  0 22  0.0000000  0 11G14G09G06G11G27G19G24G18G32G22G03
  20511504.082    20511503.544    20511501.037   107788743.061 7  83991243.506 7
        44.000          46.000
  23077679.112    23077678.782    23077677.240   121274058.293 4  94499273.488 3
        29.000          21.100
  23859583.263    23859582.510    23859582.178   125382966.622 4  97701023.326 3
        24.900          19.300
  23512266.418    23512266.627    23512263.926   123557809.957 4  96278817.882
        28.100           3.000
  25047361.522    25047360.544    25047360.770   131624784.942 1 102564770.026
        11.000           3.000
  22201645.192    22201643.909    22201641.117   116670459.372 7  90912058.212 5
        43.000          35.100
  23520126.271    23520125.553    23520125.060   123599101.323 4  96310988.452 2
        27.100          17.000
  22871458.926    22871458.530    22871455.955   120190385.867 5  93654860.852 3
        32.000          23.000
  24197912.370    24197911.910    24197912.535   127160881.665 3  99086402.767 2
        19.300          15.100
  20784687.762    20784686.584    20784682.562   109224362.128 8  85109917.433 7
        48.000          43.000
  23633277.358    23633276.999    23633275.965   124193701.119 5  96774310.324 2
        30.100          13.900
 11  1  1  0 22 30.0000000  0 11G14G09G06G11G27G19G24G18G32G22G03
  20506622.719    20506622.116    20506619.666   107763091.306 7  83971255.144 7
        44.000          46.000
  23084565.850    23084565.345    23084563.099   121310246.943 4  94527472.432 3
        29.000          21.100
  23878035.967    23878035.482    23878035.090   125479936.646 4  97776584.353 3
        25.900          22.100
  23494603.024    23494602.257    23494599.568   123464984.322 4  96206486.232 2
        24.900          13.900
  25060043.936    25060043.503    25060042.716   131691428.636 3 102616700.168
        19.300
  22210149.421    22210148.110    22210145.596   116715150.259 7  90946882.273 6
        42.000          36.000
  23501900.378    23501899.397    23501898.420   123503320.865 4  96236354.358 3
        29.000          19.300
  22886253.216    22886252.526    22886249.811   120268128.674 5  93715439.660 3
        32.000          23.000
  24181233.264    24181232.672    24181233.417   127073230.522 4  99018103.267 2
        25.900          17.800
  20792345.648    20792344.658    20792340.613   109264605.331 8  85141275.778 7
        48.000          43.000
  23652052.717    23652052.204    23652051.929   124292366.643 4  96851192.540 2
        29.000          12.600
 11  1  1  0 23  0.0000000  0 11G14G09G06G11G27G19G24G18G32G22G03
  20501841.146    20501840.790    20501838.355   107737965.552 7  83951676.646 7
        44.000          46.000
  23091574.568    23091574.488    23091572.849   121347084.077 4  94556176.708 3
        28.100          19.900
  23896509.227    23896508.930    23896508.271   125577012.999 4  97852228.239 3
        27.100          22.100
  23476990.011    23476989.670    23476987.575   123372431.075 4  96134366.875 3
        24.900          19.900
  25072794.788    25072794.673    25072794.286   131758437.586 3 102668914.980
        19.300
  22218751.367    22218750.241    22218747.136   116760352.908 7  90982105.104 5
        43.000          35.100
  23483702.564    23483702.019    23483701.155   123407693.993 5  96161839.971 2
        30.100          17.000
  22901075.739    22901075.123    22901072.214   120346021.417 5  93776135.299 3
        32.000          22.100
  24164574.453    24164573.973    24164574.304   126985687.960 4  98949888.370 3
        24.900          19.300
  20800058.750    20800057.634    20800053.547   109305136.868 8  85172858.795 7
        48.000          43.000
  23670856.298    23670855.798    23670855.270   124391181.004 4  96928190.731 2
        24.900          15.100
 11  1  1  0 23 30.0000000  0 11G14G09G06G11G27G19G24G18G32G22G03
  20497161.083    20497160.576    20497158.193   107713371.168 7  83932512.205 7
        44.000          46.000
  23098709.266    23098708.798    23098708.009   121384574.236 5  94585389.826 3
        30.100          23.000
  23915001.967    23915001.416    23915002.083   125674197.938 3  97927956.735 3
        23.000          22.100
  23459430.765    23459430.923    23459428.539   123280157.714 4  96062465.608 3
        25.900          22.100
  25085616.406    25085615.667    25085615.410   131825814.994 2 102721416.903
        15.100
  22227451.366    22227450.064    22227446.846   116806070.671 7  91017729.321 5
        43.000          35.100
  23465536.058    23465535.692    23465534.790   123312228.097 5  96087450.996 3
        30.100          19.300
  22915927.781    22915926.969    22915924.195   120424068.534 5  93836951.226 3
        32.000          23.000
  24147936.928    24147936.335    24147937.052   126898259.848 4  98881762.648 2
        24.900          15.100
  20807827.190    20807826.128    20807822.159   109345961.455 8  85204670.166 7
        48.000          43.000
  23689688.551    23689688.064    23689688.368   124490146.467 3  97005306.624 2
        23.800          16.100
 11  1  1  0 24  0.0000000  0 11G14G09G06G11G27G19G24G18G32G22G03
  20492582.570    20492582.059    20492579.706   107689311.208 7  83913764.205 7
        44.000          46.000
  23105968.468    23105968.178    23105966.591   121422718.698 5  94615112.804 3
        30.100          22.100
  23933515.772    23933515.432    23933516.043   125771491.782 3  98003770.065 2
        23.000          15.100
  23441925.749    23441925.783    23441923.902   123188169.795 3  95990786.776 3
        23.800          22.100
  25098508.222    25098508.064    25098507.489   131893561.789 3 102774206.660
        19.300
  22236249.042    22236247.928    22236245.135   116852304.603 7  91053755.751 6
        43.000          36.000
  23447400.723    23447400.107    23447399.898   123216927.864 4  96013191.123 3
        29.000          21.100
  22930809.060    22930808.491    22930805.993   120502272.603 5  93897889.464 3
        33.000          23.000
  24131322.489    24131321.644    24131322.200   126810949.687 3  98813728.837 2
        23.000          15.100
  20815652.025    20815650.961    20815647.019   109387081.271 8  85236711.585 7
        48.000          43.000
  23708550.260    23708549.895    23708549.282   124589262.611 4  97082539.951 2
        27.100          17.800
 11  1  1  0 24 30.0000000  0 11G14G09G06G11G27G19G24G18G32G22G03
  20488105.448    20488104.973    20488102.460   107665783.457 7  83895430.904 7
        44.000          46.000
  23113350.372    23113350.472    23113348.953   121461514.176 5  94645343.048 3
        31.000          21.100
  23952050.049    23952050.077    23952049.685   125868889.411 3  98079664.303 1
        21.100           9.000
  23424476.003    23424475.896    23424473.297   123096467.247 4  95919330.313 3
        28.100          21.100
  25111469.660    25111468.624    25111468.440   131961673.931 2 102827281.130
        13.900
  22245144.713    22245143.574    22245141.108   116899050.854 7  91090181.392 6
        42.000          36.000
  23429297.337    23429296.586    23429296.622   123121793.018 4  95939060.134 3
        27.100          23.000
  22945720.262    22945719.828    22945716.923   120580630.554 5  93958947.624 3
        33.000          23.000
  24114730.191    24114729.265    24114729.415   126723755.865 3  98745785.697 1
        23.000           9.000
  20823532.373    20823531.482    20823527.540   109428493.530 8  85268980.881 7
        48.000          43.000
  23727439.326    23727439.054    23727438.699   124688524.651 4  97159886.999 2
        29.000          17.800
 11  1  1  0 25  0.0000000  0 11G14G09G06G11G27G19G24G18G32G22G03
  20483729.583    20483729.132    20483726.575   107642788.143 7  83877512.494 7
        44.000          47.000
  23120856.678    23120856.601    23120855.250   121500958.754 5  94676079.099 3
        30.100          23.000
  23970604.020    23970603.719    23970603.304   125966388.137 4  98155637.318 2
        24.900          12.600
  23407080.407    23407080.024    23407077.811   123005052.347 4  95848097.974 3
        27.100          23.000
  25124499.513    25124499.208    25124498.495   132030149.088 2 102880638.459
        16.100
  22254137.369    22254136.160    22254133.261   116946307.248 7  91127004.538 5
        42.000          35.100
  23411225.613    23411224.851    23411224.777   123026825.573 4  95865059.612 3
        25.900          23.800
  22960660.875    22960660.128    22960657.461   120659141.586 5  94020125.032 3
        32.000          23.000
  24098160.202    24098159.243    24098159.674   126636678.655 3  98677933.393
        22.100
  20831468.264    20831467.358    20831463.461   109470197.488 8  85301477.476 7
        48.000          43.000
  23746354.941    23746354.639    23746354.473   124787929.168 4  97237345.041 3
        27.100          19.300
 11  1  1  0 25 30.0000000  0 11G14G09G06G11G27G19G24G18G32G22G03
  20479454.843    20479454.440    20479452.007   107620324.781 7  83860008.596 7
        44.000          47.000
  23128486.079    23128485.886    23128484.105   121541050.784 4  94707319.655 3
        29.000          19.300
  23989176.098    23989175.937    23989175.425   126063984.428 3  98231686.396 1
        23.800           9.000
  23389740.345    23389739.811    23389736.868   122913927.340 4  95777091.534 3
        28.100          19.900
  25137599.749    25137598.717    25137597.420   132098984.645 2 102934276.582
        15.100
  22263226.657    22263225.426    22263222.631   116994071.288 7  91164223.255 6
        43.000          36.000
  23393186.080    23393185.481    23393184.670   122932027.059 4  95791190.723 3
        28.100          21.100
  22975629.305    22975628.995    22975626.301   120737804.660 5  94081420.935 3
        31.000          23.800
  24081611.590    24081610.870    24081610.942   126549718.246 3  98610172.115
        21.100
  20839459.788    20839458.842    20839454.798   109512192.397 8  85334200.784 7
        48.000          43.000
  23765297.720    23765297.193    23765297.663   124887472.566 4  97314911.286 3
        25.900          21.100
 11  1  1  0 26  0.0000000  0 11G14G09G06G11G27G19G24G18G32G22G03
  20475281.334    20475280.913    20475278.445   107598393.084 7  83842918.978 7
        44.000          47.000
  23136238.590    23136238.251    23136236.341   121581788.643 4  94739063.447 3
        29.000          21.100
  24007766.701    24007766.123    24007765.774   126161675.302 4  98307809.135 2
        24.900          17.000
  23372454.390    23372454.095    23372451.836   122823094.223 3  95706312.540 3
        23.800          21.100
  25150764.938    25150765.624    25150764.390   132168178.325 1 102988193.726 1
         9.000          11.000
  22272411.897    22272410.786    22272408.003   117042340.875 7  91201835.906 5
        43.000          35.100
  23375178.524    23375178.435    23375177.585   122837399.322 5  95717454.856 3
        30.100          21.100
  22990627.455    22990626.790    22990624.368   120816618.680 5  94142834.454 3
        32.000          23.800
  24065085.637    24065084.511    24065085.462   126462875.053 3  98542502.168 1
        19.300          11.000
  20847506.393    20847505.286    20847501.227   109554476.947 8  85367149.783 7
        48.000          43.000
  23784265.968    23784265.343    23784265.544   124987152.067 4  97392583.596 3
        27.100          19.900
 11  1  1  0 26 30.0000000  0 11G14G09G06G11G27G19G24G18G32G22G03
  20471209.147    20471208.639    20471206.099   107576993.415 7  83826243.931 7
        43.000          47.000
  23144113.352    23144113.076    23144110.981   121623171.373 5  94771309.739 3
        30.100          19.300
  24026373.913    24026373.419    24026373.452   126259458.641 2  98384003.873 2
        17.800          17.800
  23355225.911    23355225.716    23355222.636   122732555.748 4  95635763.131 2
        28.100          13.900
  25164000.962    25164000.751    25163999.394   132237728.510 1 103042388.664 2
        11.000          13.900
  22281693.213    22281692.153    22281689.264   117091114.729 7  91239841.484 5
        42.000          35.100
  23357204.184    23357203.825    23357203.261   122742944.916 4  95643854.070 3
        29.000          19.300
  23005654.015    23005653.397    23005651.047   120895583.757 5  94204365.684 4
        32.000          24.900
  24048583.129    24048582.451    24048581.649   126376150.235 3  98474924.443 1
        19.900           6.500
  20855608.064    20855607.005    20855602.965   109597051.343 8  85400324.637 7
        48.000          43.000
  23803259.648    23803259.066    23803259.609   125086964.575 3  97470359.542 2
        23.800          17.000
 11  1  1  0 27  0.0000000  0 11G14G09G06G11G27G19G24G18G32G22G03
  20467238.181    20467237.664    20467235.128   107556125.730 7  83809983.412 7
        44.000          47.000
  23152110.441    23152110.060    23152107.763   121665197.078 4  94804057.057 2
        29.000          17.800
  24044997.802    24044997.692    24044997.739   126357331.343 2  98460268.240 1
        17.000          11.000
  23338053.093    23338053.111    23338049.461   122642313.932 4  95565444.846 2
        29.000          13.900
  25177303.617    25177302.631    25177302.188   132307632.791 1 103096859.533 3
         9.000          19.300
  22291070.102    22291068.956    22291066.246   117140390.441 7  91278238.123 5
        42.000          35.100
  23339264.488    23339263.863    23339262.674   122648665.506 5  95570389.628 3
        31.000          19.900
  23020709.105    23020708.187    23020706.256   120974698.683 5  94266013.666 3
        30.100          23.800
  24032101.756    24032100.765    24032101.464   126289543.775 3  98407438.946 2
        22.100          15.100
  20863764.496    20863763.608    20863759.587   109639914.704 8  85433724.662 7
        48.000          43.000
  23822278.556    23822277.823    23822277.434   125186907.251 4  97548236.943 1
        24.900          11.000
 11  1  1  0 27 30.0000000  0 11G14G09G06G11G27G19G24G18G32G22G03
  20463368.593    20463368.006    20463365.518   107535790.303 7  83794137.637 7
        44.000          47.000
  23160229.629    23160229.318    23160227.624   121707864.638 5  94837304.529 3
        30.100          19.900
  24063639.772    24063638.933    24063638.593   126455290.832 3  98536600.288
        22.100
  23320938.198    23320937.880    23320934.965   122552371.808 4  95495360.102 3
        29.000          19.300
  25190672.355    25190672.124    25190671.264   132377889.659 1 103151605.141 2
        11.000          16.100
  22300542.233    22300541.075    22300538.115   117190166.303 7  91317024.497 5
        42.000          35.100
  23321356.831    23321356.469    23321355.670   122554563.540 5  95497063.442 3
        31.000          22.100
  23035792.104    23035791.624    23035789.600   121053963.261 5  94327778.270 3
        30.100          23.000
  24015644.390    24015643.468    24015643.297   126203056.721 4  98340046.497 2
        27.100          17.000
  20871976.184    20871975.110    20871971.183   109683066.537 8  85467349.467 7
        48.000          43.000
  23841321.374    23841320.803    23841320.656   125286977.327 4  97626213.583 2
        25.900          17.000
 11  1  1  0 28  0.0000000  0 11G14G09G06G11G27G19G24G18G32G22G03
  20459601.216    20459600.820    20459598.362   107515993.813 7  83778711.815 7
        44.000          47.000
  23168472.284    23168471.837    23168470.403   121751179.377 4  94871056.278 3
        29.000          21.100
  24082297.819    24082297.714    24082297.024   126553341.163 4  98613003.133
        24.900           3.000
  23303880.972    23303880.859    23303878.160   122462738.367 4  95425515.901 3
        28.100          19.300
  25204110.233    25204109.856    25204108.416   132448503.556 2 103206628.988 1
        17.000           6.500
  22310110.253    22310109.313    22310106.550   117240447.136 7  91356204.355 5
        42.000          35.100
  23303485.440    23303484.905    23303484.262   122460647.696 5  95423882.317 3
        31.000          23.000
  23050905.749    23050905.078    23050902.744   121133383.764 5  94389664.375 3
        31.000          23.000
  23999210.791    23999209.914    23999209.774   126116696.331 4  98272752.786 3
        28.100          19.900
  20880243.811    20880242.830    20880238.846   109726513.127 8  85501203.955 7
        48.000          43.000
  23860389.653    23860388.871    23860387.945   125387177.956 4  97704291.959 3
        27.100          19.900
 11  1  1  0 28 30.0000000  0 11G14G09G06G11G27G19G24G18G32G22G03
  20455935.426    20455934.974    20455932.467   107496729.626 7  83763700.774 7
        43.000          47.000
  23176835.992    23176835.643    23176834.870   121795132.796 4  94905305.716 3
        29.000          19.900
  24100971.509    24100971.156    24100970.789   126651472.568 3  98689469.168 2
        23.000          12.600
  23286882.023    23286882.045    23286879.001   122373409.267 4  95355908.863 3
        27.100          22.100
  25217612.974    25217613.140    25217611.975   132519465.564 2 103261924.071 1
        13.900           6.500
  22319772.818    22319771.615    22319768.799   117291224.003 7  91395770.725 5
        42.000          34.000
  23285648.355    23285647.835    23285647.623   122366913.281 5  95350842.554 3
        30.100          23.800
  23066046.717    23066046.499    23066044.405   121212952.581 5  94451666.048 3
        31.000          23.000
  23982799.307    23982798.727    23982798.933   126030456.445 4  98205552.957 3
        27.100          21.100
  20888565.958    20888564.997    20888561.039   109770247.199 8  85535282.458 7
        48.000          42.000
  23879479.495    23879479.254    23879478.744   125487500.076 4  97782465.017 3
        29.000          19.300
 11  1  1  0 29  0.0000000  0 11G14G09G06G11G27G19G24G18G32G22G03
  20452369.747    20452369.302    20452366.723   107477992.019 7  83749100.055 7
        43.000          47.000
  23185320.564    23185320.355    23185318.888   121839717.791 4  94940047.281 3
        29.000          19.900
  24119659.157    24119658.721    24119658.424   126749676.921 3  98765992.033 2
        23.000          15.100
  23269940.397    23269940.283    23269937.973   122284381.307 4  95286536.466 3
        27.100          19.900
  25231181.750    25231181.496    25231179.518   132590767.823 3 103317484.279 1
        19.300           6.500
  22329528.644    22329527.253    22329524.197   117342489.351 7  91435717.728 5
        42.000          34.000
  23267844.863    23267844.407    23267843.195   122273356.474 5  95277941.194 3
        31.000          21.100
  23081215.881    23081215.150    23081212.685   121292663.189 5  94513778.210 3
        30.100          22.100
  23966410.138    23966409.443    23966409.543   125944331.977 4  98138443.048 3
        24.900          19.300
  20896941.564    20896940.756    20896936.801   109814262.306 8  85569579.941 7
        48.000          42.000
  23898591.282    23898590.826    23898590.628   125587934.614 4  97860725.675 2
        28.100          15.100
 11  1  1  0 29 30.0000000  0 11G14G09G06G11G27G19G24G18G32G22G03
  20448905.229    20448904.720    20448902.192   107459785.914 7  83734913.492 7
        43.000          47.000
  23193925.455    23193925.236    23193923.737   121884938.082 4  94975283.875 3
        28.100          19.300
  24138359.910    24138360.474    24138360.795   126847956.591 3  98842573.550 3
        19.300          19.300
  23253057.305    23253057.367    23253054.541   122195661.903 4  95217404.531 3
        27.100          21.100
  25244815.973    25244815.479    25244814.340   132662413.742 2 103373312.303 1
        12.600           6.500
  22339377.654    22339376.464    22339373.629   117394246.416 7  91476047.900 5
        42.000          35.100
  23250076.764    23250076.169    23250074.499   122179984.791 5  95205184.031 3
        30.100          19.300
  23096411.877    23096411.461    23096408.734   121372520.619 5  94576004.776 3
        31.000          21.100
  23950043.852    23950043.681    23950043.265   125858328.712 3  98071427.598 2
        23.000          17.000
  20905371.936    20905371.015    20905367.128   109858563.450 8  85604100.315 7
        48.000          42.000
  23917724.689    23917724.576    23917724.265   125688483.915 3  97939075.738 1
        23.800           6.500
 11  1  1  0 30  0.0000000  0 10G14G09G06G11G19G24G18G32G22G03
  20445543.145    20445542.628    20445540.058   107442117.758 7  83721146.109 7
        43.000          47.000
  23202652.306    23202652.100    23202650.439   121930798.614 5  95011019.357 3
        30.100          19.300
  24157077.493    24157077.538    24157077.999   126946315.560 3  98919216.811 2
        21.100          15.100
  23236234.972    23236234.968    23236232.650   122107260.198 4  95148520.106 3
        28.100          21.100
  22349321.017    22349319.928    22349316.911   117446499.761 7  91516764.779 5
        42.000          34.000
  23232345.084    23232344.896    23232344.420   122086807.084 4  95132578.060 3
        29.000          23.000
  23111637.266    23111636.740    23111634.134   121452530.658 5  94638350.265 3
        30.100          19.900
  23933702.361    23933701.831    23933701.858   125772453.908 3  98004512.270 2
        23.000          17.800
  20913857.591    20913856.677    20913852.703   109903156.371 8  85638848.047 7
        48.000          42.000
  23936881.005    23936880.953    23936880.221   125789151.633 3  98017518.093
        23.000
 11  1  1  0 30 30.0000000  0 10G14G09G06G11G19G24G18G32G22G03
  20442280.833    20442280.326    20442277.767   107424974.177 7  83707787.487 7
        43.000          47.000
  23211498.513    23211498.031    23211495.839   121977284.164 4  95047241.910 3
        28.100          19.300
  24175807.887    24175807.579    24175806.494   127044737.679 3  98995909.318
        23.000
  23219471.660    23219471.572    23219469.171   122019165.175 5  95079874.676 3
        30.100          21.100
  22359355.988    22359354.671    22359352.045   117499233.801 7  91557856.223 5
        42.000          35.100
  23214648.741    23214648.310    23214648.357   121993811.899 5  95060114.318 4
        30.100          24.900
  23126888.951    23126888.362    23126885.935   121532679.074 5  94700803.584 3
        30.100          22.100
  23917382.763    23917382.585    23917381.894   125686694.594 4  97937686.941 1
        24.900           6.500
  20922396.286    20922395.252    20922391.389   109948026.766 8  85673811.996 7
        48.000          42.000
  23956057.483    23956056.589    23956056.725   125889921.304 3  98096039.933
        23.000           3.000
 11  1  1  0 31  0.0000000  0 10G14G09G06G11G19G24G18G32G22G03
  20439120.154    20439119.745    20439117.266   107408365.781 7  83694845.897 7
        43.000          47.000
  23220464.724    23220464.432    23220462.633   122024403.670 4  95083958.393 3
        27.100          19.300
  24194551.281    24194550.408    24194549.539   127143230.465 4  99072656.951 1
        24.900           6.500
  23202768.147    23202768.066    23202765.337   121931389.968 4  95011478.439 3
        28.100          21.100
  22369484.087    22369482.706    22369480.067   117552457.162 7  91599328.964 5
        42.000          35.100
  23196989.056    23196988.800    23196988.864   121901011.647 4  94987802.490 3
        29.000          23.800
  23142168.706    23142168.505    23142166.176   121612976.092 5  94763372.681 3
        30.100          22.100
  23901086.958    23901086.525    23901086.680   125601062.054 4  97870960.350 2
        25.900          12.600
  20930989.774    20930988.606    20930984.845   109993185.104 8  85709000.315 7
        48.000          42.000
  23975254.133    23975253.610    23975252.934   125990800.615 3  98174647.169 1
        23.000           9.000
 11  1  1  0 31 30.0000000  0 10G14G09G06G11G19G24G18G32G22G03
  20436060.959    20436060.564    20436058.059   107392289.482 7  83682318.922 7
        43.000          47.000
  23229550.538    23229550.311    23229548.958   122072152.383 4  95121165.207 3
        28.100          19.300
  24213305.964    24213305.466    24213304.841   127241788.410 3  99149455.305
        22.100           3.000
  23186126.772    23186126.414    23186123.032   121843934.018 5  94943330.979 3
        30.100          21.100
  22379704.165    22379702.948    22379700.055   117606164.647 6  91641178.941 5
        41.000          34.000
  23179367.431    23179366.845    23179366.923   121808405.601 5  94915641.976 4
        31.000          25.900
  23157476.249    23157475.949    23157473.134   121693417.713 5  94826054.461 3
        30.100          19.300
  23884816.027    23884815.181    23884814.945   125515553.908 4  97804330.710
        24.900           3.000
  20939637.267    20939636.119    20939632.185   110038627.588 8  85744410.041 7
        48.000          42.000
  23994471.129    23994470.712    23994470.198   126091783.640 4  98253335.206 2
        24.900          16.100
 11  1  1  0 32  0.0000000  0 10G14G09G06G11G19G24G18G32G22G03
  20433103.087    20433102.634    20433100.263   107376746.084 7  83670207.194 7
        43.000          47.000
  23238757.271    23238757.014    23238755.410   122120530.085 4  95158862.143 3
        28.100          21.100
  24232072.359    24232072.407    24232071.805   127340409.985 3  99226303.362
        22.100
  23169545.329    23169544.961    23169542.387   121756800.557 4  94875434.796 3
        29.000          21.100
  22390016.594    22390015.227    22390012.143   117660355.191 6  91683405.322 5
        41.000          34.000
  23161782.621    23161782.113    23161781.739   121715996.945 5  94843635.256 4
        33.000          27.100
  23172811.736    23172811.328    23172808.460   121774004.887 5  94888849.667 3
        30.100          21.100
  23868568.513    23868567.753    23868567.577   125430171.706 4  97737799.113
        27.100           3.000
  20948338.750    20948337.698    20948333.706   110084354.786 8  85780041.627 7
        48.000          42.000
  24013706.568    24013705.909    24013706.359   126192868.068 3  98332102.260 3
        23.800          19.300
 11  1  1  0 32 30.0000000  0 10G14G09G06G11G19G24G18G32G22G03
  20430246.163    20430245.804    20430243.414   107361733.792 7  83658509.318 7
        43.000          47.000
  23248082.265    23248082.059    23248080.393   122169533.494 4  95197046.633 3
        29.000          19.300
  24250850.653    24250850.339    24250850.447   127439091.027 2  99303197.625 2
        16.100          15.100
  23153026.302    23153025.944    23153023.032   121669990.797 5  94807790.855 3
        30.100          22.100
  22400419.658    22400418.471    22400415.796   117715025.252 6  91726005.361 5
        41.000          34.000
  23144236.159    23144235.570    23144234.653   121623786.628 5  94771783.090 4
        33.000          25.900
  23188174.033    23188173.602    23188171.178   121854735.415 4  94951756.562 3
        29.000          19.900
  23852345.486    23852344.446    23852343.741   125344914.710 4  97671365.141 2
        29.000          15.100
  20957094.114    20957093.157    20957089.247   110130364.810 8  85815893.595 7
        48.000          42.000
  24032959.904    24032960.284    24032960.514   126294049.963 3  98410945.228 2
        22.100          17.800
 11  1  1  0 33  0.0000000  0 10G14G09G06G11G19G24G18G32G22G03
  20427490.533    20427490.086    20427487.583   107347252.055 7  83647224.858 7
        43.000          47.000
  23257525.434    23257525.141    23257524.012   122219159.783 4  95235716.485 3
        27.100          19.300
  24269639.826    24269639.545    24269638.967   127537827.977 3  99380135.415 3
        21.100          19.300
  23136568.983    23136568.553    23136565.493   121583506.317 5  94740400.386 3
        30.100          19.300
  22410913.915    22410912.575    22410909.710   117770172.180 6  91768976.989 5
        41.000          34.000
  23126726.694    23126726.227    23126725.934   121531775.743 5  94700086.333 4
        33.000          25.900
  23203563.853    23203563.523    23203560.851   121935608.128 4  95014774.249 3
        29.000          22.100
  23836144.631    23836143.700    23836143.805   125259782.820 4  97605028.679 3
        29.000          22.100
  20965903.152    20965902.136    20965898.124   110176656.480 8  85851965.027 7
        48.000          42.000
  24052231.578    24052230.955    24052232.482   126395325.715 3  98489861.335 2
        21.100          13.900
 11  1  1  0 33 30.0000000  0 10G14G09G06G11G19G24G18G32G22G03
  20424836.298    20424835.774    20424833.370   107333303.626 7  83636355.963 7
        43.000          47.000
  23267088.162    23267088.025    23267085.818   122269410.279 4  95274872.741 2
        29.000          16.100
  24288439.585    24288439.037    24288439.453   127636621.143 3  99457117.084 2
        22.100          17.800
  23120174.298    23120173.954    23120170.943   121497352.602 4  94673267.630 3
        28.100          19.900
  22421498.194    22421497.278    22421494.820   117825796.712 6  91812320.767 5
        41.000          33.000
  23109256.009    23109255.466    23109255.478   121439969.444 5  94628549.008 3
        32.000          23.800
  23218980.940    23218980.358    23218977.696   122016625.111 4  95077904.343 3
        28.100          19.900
  23819968.780    23819967.873    23819968.063   125174779.579 4  97538792.424 3
        25.900          21.100
  20974766.145    20974765.143    20974761.132   110223232.093 8  85888257.719 7
        48.000          42.000
  24071522.959    24071522.133    24071522.587   126496695.242 3  98568850.564 1
        23.000          11.000
 11  1  1  0 34  0.0000000  0 10G14G09G06G11G19G24G18G32G22G03
  20422282.454    20422281.998    20422279.641   107319883.805 7  83625898.972 7
        43.000          47.000
  23276768.219    23276768.018    23276766.226   122320279.215 5  95314510.898 3
        30.100          19.300
  24307249.102    24307248.417    24307249.161   127735463.640 3  99534137.165 3
        23.000          22.100
  23103841.835    23103841.820    23103838.978   121411527.647 4  94606391.067 3
        29.000          19.900
  22432173.360    22432172.169    22432169.288   117881892.262 6  91856031.577 5
        41.000          34.000
  23091824.369    23091823.917    23091823.170   121348365.544 5  94557169.364 3
        31.000          21.100
  23234424.386    23234423.704    23234421.220   122097781.381 4  95141143.002 3
        28.100          19.300
  23803816.928    23803816.017    23803815.936   125089901.060 4  97472653.394 3
        27.100          23.000
  20983682.158    20983681.215    20983677.268   110270086.552 8  85924767.688 7
        48.000          42.000
  24090829.973    24090829.203    24090829.260   126598151.122 4  98647907.084 1
        27.100           9.000
 11  1  1  0 34 30.0000000  0 10G14G09G06G11G19G24G18G32G22G03
  20419829.864    20419829.528    20419827.078   107306995.796 7  83615856.381 7
        43.000          47.000
  23286565.906    23286565.817    23286564.113   122371767.757 4  95354631.862 2
        28.100          17.800
  24326067.004    24326067.158    24326067.713   127834355.744 3  99611195.885 3
        23.000          19.300
  23087573.478    23087573.263    23087571.126   121326037.109 4  94539775.082 3
        28.100          23.000
  22442937.724    22442936.637    22442934.000   117938459.872 6  91900110.222 5
        41.000          34.000
  23074431.831    23074431.828    23074431.321   121256969.451 5  94485951.636 3
        32.000          23.000
  23249894.698    23249894.470    23249892.098   122179079.701 4  95204492.331 3
        29.000          22.100
  23787688.812    23787687.877    23787688.955   125005151.256 3  97406614.664 3
        23.000          21.100
  20992651.856    20992650.867    20992647.040   110317222.667 8  85961497.130 6
        48.000          41.000
  24110152.962    24110152.262    24110152.266   126699693.856 4  98727031.296 1
        25.900           9.000
 11  1  1  0 35  0.0000000  0 10G14G09G06G11G19G24G18G32G22G03
  20417478.404    20417478.000    20417475.497   107294638.244 7  83606227.135 7
        43.000          47.000
  23296481.417    23296481.074    23296479.300   122423872.777 4  95395233.185 2
        28.100          17.000
  24344894.764    24344894.531    24344894.197   127933293.898 3  99688290.513 1
        23.000           9.000
  23071368.882    23071368.524    23071366.739   121240882.412 4  94473420.829 3
        27.100          23.000
  22453791.927    22453790.671    22453787.808   117995496.387 7  91944554.241 5
        42.000          34.000
  23057080.345    23057079.801    23057079.632   121165782.446 5  94414896.877 4
        32.000          24.900
  23265392.660    23265391.874    23265388.966   122260518.210 4  95267950.908 3
        28.100          19.300
  23771586.928    23771585.792    23771585.967   124920529.776 3  97340675.909 3
        22.100          21.100
  21001674.720    21001673.866    21001669.851   110364638.648 8  85998444.654 6
        48.000          41.000
  24129491.052    24129490.834    24129490.325   126801319.386 4  98806220.009 1
        27.100           9.000
 11  1  1  0 35 30.0000000  0 10G14G09G06G11G19G24G18G32G22G03
  20415227.614    20415227.074    20415224.477   107282809.101 7  83597009.633 7
        43.000          47.000
  23306513.337    23306513.035    23306511.337   122476590.892 4  95436312.239 3
        28.100          19.300
  24363730.260    24363730.009    24363729.685   128032273.769 2  99765417.675
        17.800
  23055228.970    23055228.784    23055225.908   121156064.336 5  94407328.853 3
        30.100          23.800
  22464733.915    22464732.681    22464729.726   118052997.572 6  91989360.338 5
        41.000          34.000
  23039767.592    23039767.152    23039766.384   121074804.905 5  94344005.323 4
        32.000          24.900
  23280915.743    23280915.479    23280912.830   122342095.163 4  95331517.354 3
        28.100          19.900
  23755506.928    23755506.514    23755507.291   124836035.512 3  97274836.319 3
        23.000          21.100
  21010750.647    21010749.759    21010745.807   110412332.504 8  86035608.704 6
        48.000          41.000
  24148844.432    24148843.983    24148843.713   126903022.994 3  98885469.532 1
        22.100          11.000
 11  1  1  0 36  0.0000000  0 10G14G09G06G11G19G24G18G32G22G03
  20413077.478    20413077.080    20413074.488   107271510.981 7  83588205.910 7
        43.000          47.000
  23316662.033    23316661.849    23316659.891   122529922.889 4  95477869.665 3
        29.000          21.100
  24382572.449    24382573.126    24382572.296   128131295.380 3  99842577.360
        21.100
  23039153.601    23039153.551    23039151.029   121071587.863 5  94341503.079 4
        32.000          24.900
  22475764.493    22475763.328    22475760.421   118110964.373 6  92034529.259 5
        41.000          34.000
  23022495.733    23022495.269    23022494.612   120984041.699 5  94273280.781 3
        32.000          23.800
  23296466.380    23296465.754    23296462.931   122423812.541 4  95395193.223 2
        29.000          17.800
  23739453.540    23739452.874    23739452.636   124751671.840 3  97209098.457 3
        23.800          19.900
  21019879.904    21019878.934    21019874.897   110460306.422 8  86072990.981 6
        48.000          41.000
  24168211.816    24168212.035    24168212.317   127004804.566 3  98964779.812 2
        19.900          16.100
 11  1  1  0 36 30.0000000  0 10G14G09G06G11G19G24G18G32G22G03
  20411028.700    20411028.268    20411025.708   107260744.312 7  83579816.309 7
        43.000          47.000
  23326927.271    23326927.183    23326925.188   122583867.973 4  95519904.813 3
        28.100          19.300
  24401423.211    24401423.307    24401423.045   128230356.813 2  99919768.105
        15.100           3.000
  23023144.177    23023144.012    23023141.131   120987456.487 5  94275946.165 4
        32.000          24.900
  22486883.340    22486882.507    22486879.501   118169395.366 6  92080059.892 5
        41.000          34.000
  23005266.036    23005265.246    23005264.537   120893495.813 5  94202725.574 3
        33.000          23.800
  23312043.143    23312042.686    23312039.611   122505670.552 4  95458978.682 3
        28.100          19.300
  23723424.646    23723424.278    23723423.772   124667440.313 4  97143463.536 2
        27.100          15.100
  21029062.652    21029061.525    21029057.414   110508560.806 8  86110591.802 6
        48.000          41.000
  24187595.417    24187595.039    24187595.603   127106662.116 3  99044149.270 2
        19.900          12.600
 11  1  1  0 37  0.0000000  0 10G14G09G06G11G19G24G18G32G22G03
  20409078.727    20409078.162    20409075.595   107250496.446 7  83571830.971 7
        43.000          47.000
  23337305.616    23337305.843    23337304.814   122638411.375 4  95562406.184 3
        27.100          19.900
  24420279.837    24420278.696    24420278.914   128329443.115 3  99996978.129
        19.300
  23007198.504    23007198.022    23007194.762   120903660.219 5  94210650.415 3
        32.000          23.800
  22498087.948    22498086.914    22498084.168   118228275.886 6  92125940.801 5
        41.000          34.000
  22988074.774    22988074.531    22988073.458   120803157.076 5  94132331.775 4
        35.100          24.900
  23327643.700    23327643.778    23327641.257   122587655.969 4  95522863.424 3
        29.000          19.300
  23707419.551    23707418.828    23707417.993   124583328.853 4  97077922.187 2
        29.000          17.800
  21038295.562    21038294.535    21038290.687   110557082.369 8  86148400.808 6
        48.000          41.000
  24206989.994    24206989.358    24206990.124   127208580.185 3  99123565.915 1
        21.100           9.000
 11  1  1  0 37 30.0000000  0 10G14G09G06G11G19G24G18G32G22G03
  20407229.340    20407228.833    20407226.363   107240778.739 7  83564258.746 7
        43.000          47.000
  23347801.567    23347801.375    23347799.039   122693563.221 4  95605381.660 2
        27.100          15.100
  24439141.468    24439140.828    24439141.378   128428563.173 3 100074214.514 1
        19.900          11.000
  22991318.655    22991318.139    22991315.498   120820213.167 4  94145626.770 3
        29.000          23.800
  22509380.072    22509378.773    22509376.301   118287615.325 6  92172179.308 5
        40.000          34.000
  22970925.581    22970925.384    22970925.259   120713039.334 5  94062110.207 4
        33.000          28.100
  23343272.187    23343271.693    23343268.837   122669780.220 4  95586856.347 2
        28.100          17.000
  23691439.566    23691438.599    23691437.080   124499350.053 5  97012484.183 2
        31.000          13.900
  21047582.136    21047581.053    21047577.053   110605882.523 8  86186426.909 6
        48.000          41.000
  24226397.686    24226397.293    24226397.887   127310568.102 4  99203037.000
        24.900           3.000
 11  1  1  0 38  0.0000000  0 10G14G09G06G11G19G24G18G32G22G03
  20405482.085    20405481.663    20405479.144   107231597.066 7  83557104.206 7
        43.000          47.000
  23358413.803    23358413.124    23358410.832   122749327.646 4  95648834.486 2
        27.100          16.100
  24458010.337    24458009.720    24458010.210   128527720.596 3 100151480.019 2
        19.300          12.600
  22975506.906    22975506.626    22975504.174   120737123.821 5  94080881.860 3
        30.100          23.000
  22520760.210    22520758.931    22520756.008   118347417.622 6  92218778.485 5
        40.000          34.000
  22953820.634    22953820.197    22953819.710   120623150.947 5  93992067.362 4
        33.000          28.100
  23358927.253    23358926.763    23358924.457   122752048.730 4  95650961.668 3
        27.100          19.300
  23675484.478    23675483.816    23675483.394   124415510.644 5  96947154.826 2
        32.000          17.800
  21056922.496    21056921.519    21056917.521   110654966.853 8  86224674.442 6
        48.000          41.000
  24245819.747    24245819.083    24245819.120   127412628.879 3  99282564.858 1
        23.000          11.000
 11  1  1  0 38 30.0000000  0 10G14G09G06G11G19G24G18G32G22G03
  20403833.727    20403833.342    20403830.807   107222935.025 7  83550354.577 7
        43.000          47.000
  23369137.893    23369137.598    23369135.948   122805686.366 4  95692750.400 3
        27.100          19.300
  24476883.049    24476882.898    24476882.855   128626896.624 3 100228759.981 2
        22.100          17.800
  22959761.611    22959761.164    22959757.575   120654378.459 5  94016404.981 3
        32.000          21.100
  22532224.911    22532223.640    22532220.657   118407664.371 6  92265723.979 5
        41.000          34.000
  22936755.531    22936755.671    22936754.998   120533478.098 5  93922192.457 4
        33.000          25.900
  23374606.941    23374606.353    23374604.111   122834444.892 4  95715166.475 2
        27.100          17.800
  23659554.055    23659553.165    23659552.067   124331795.044 4  96881921.923 1
        29.000           9.000
  21066314.104    21066313.055    21066308.847   110704318.673 8  86263130.409 6
        48.000          41.000
  24265251.374    24265250.871    24265250.946   127514743.443 3  99362134.639
        19.300
 11  1  1  0 39  0.0000000  0 10G14G09G06G11G19G24G18G32G22G03
  20402286.314    20402285.873    20402283.306   107214802.869 7  83544017.844 8
        43.000          48.000
  23379977.082    23379976.911    23379974.975   122862648.068 4  95737136.148 2
        28.100          17.000
  24495760.702    24495760.705    24495760.526   128726099.127 3 100306060.592 3
        23.000          19.300
  22944083.104    22944082.875    22944079.830   120571989.782 5  93952206.024 3
        31.000          22.100
  22543775.586    22543774.318    22543771.460   118468363.502 6  92313021.996 5
        41.000          33.000
  22919735.320    22919735.171    22919734.106   120444033.155 5  93852495.120 4
        34.000          25.900
  23390312.807    23390311.990    23390309.679   122916978.361 4  95779478.267 3
        27.100          21.100
  23643648.608    23643647.918    23643648.127   124248214.365 4  96816794.165 2
        25.900          16.100
  21075757.965    21075757.028    21075752.863   110753947.602 8  86301802.303 6
        48.000          41.000
  24284695.093    24284694.219    24284694.362   127616919.591 3  99441752.397 1
        21.100           6.500
 11  1  1  0 39 30.0000000  0 10G14G09G06G11G19G24G18G32G22G03
  20400839.062    20400838.616    20400835.963   107207197.090 7  83538091.275 8
        43.000          48.000
  23390930.498    23390930.151    23390929.082   122920207.809 4  95781987.916 3
        28.100          21.100
  24514642.127    24514641.737    24514642.058   128825322.457 3 100383377.431 2
        22.100          12.600
  22928472.680    22928472.513    22928469.732   120489957.742 5  93888284.974 3
        30.100          22.100
  22555411.326    22555410.178    22555407.780   118529510.295 6  92360668.821 5
        41.000          34.000
  22902757.564    22902757.493    22902757.127   120354815.635 5  93782975.004 4
        34.000          28.100
  23406043.057    23406042.780    23406040.731   122999646.190 4  95843894.734 3
        27.100          19.300
  23627768.617    23627768.213    23627768.027   124164766.407 4  96751769.860 3
        27.100          19.300
  21085254.023    21085253.146    21085249.207   110803850.549 8  86340687.718 6
        48.000          41.000
  24304148.077    24304147.111    24304149.013   127719151.325 2  99521413.456 2
        17.000          13.900
 11  1  1  0 40  0.0000000  0 10G14G09G06G11G19G24G18G32G22G03
  20399492.918    20399492.451    20399489.784   107200123.325 7  83532579.262 8
        43.000          48.000
  23401998.692    23401998.298    23401996.867   122978369.658 4  95827308.870 3
        29.000          21.100
  24533528.327    24533527.756    24533528.076   128924570.173 2 100460713.283
        15.100           3.000
  22912932.307    22912931.972    22912929.137   120408290.890 5  93824648.497 3
        30.100          23.800
  22567133.116    22567131.877    22567129.286   118591108.311 6  92408667.261 5
        41.000          33.000
  22885824.758    22885824.653    22885824.161   120265833.788 5  93713638.543 4
        34.000          24.900
  23421801.687    23421801.073    23421798.081   123082453.552 4  95908419.944 2
        27.100          16.100
  23611915.154    23611914.751    23611915.061   124081457.889 4  96686854.201 3
        24.900          23.000
  21094803.451    21094802.470    21094798.458   110854033.072 8  86379790.983 6
        48.000          41.000
  24323614.172    24323613.809    24323613.655   127821441.991 3  99601120.416 2
        19.300          16.100
 11  1  1  0 40 30.0000000  0 10G14G09G06G11G19G24G18G32G22G03
  20398245.627    20398245.133    20398242.563   107193569.159 7  83527472.131 8
        43.000          48.000
  23413177.777    23413177.800    23413176.402   123037119.531 4  95873088.004 2
        28.100          17.000
  24552416.012    24552415.792    24552416.118   129023827.476 2 100538056.600
        12.600
  22897459.229    22897458.845    22897456.349   120326979.200 5  93761288.781 4
        31.000          24.900
  22578937.490    22578936.569    22578933.855   118653143.232 6  92457006.139 5
        41.000          33.000
  22868935.780    22868935.405    22868934.146   120177077.732 5  93644478.022 4
        34.000          24.900
  23437583.056    23437582.598    23437579.956   123165387.926 4  95973044.123 3
        27.100          19.300
  23596086.999    23596085.952    23596086.786   123998277.319 3  96622038.240 3
        23.800          23.800
  21104403.671    21104402.876    21104398.788   110904482.506 8  86419102.236 6
        48.000          41.000
  24343087.293    24343086.872    24343087.422   127923776.554 3  99680861.590 2
        19.900          12.600
 11  1  1  0 41  0.0000000  0 10G14G09G06G11G19G24G18G32G22G03
  20397098.701    20397098.209    20397095.600   107187541.540 7  83522775.295 8
        43.000          48.000
  23424470.021    23424469.854    23424468.953   123096462.349 4  95919329.172 3
        27.100          19.300
  24571305.213    24571306.330    24571306.382   129123099.300 1 100615411.238
         9.000
  22882055.641    22882055.458    22882052.147   120246032.485 5  93698213.459 3
        31.000          23.800
  22590826.591    22590825.336    22590822.557   118715619.900 6  92505689.243 5
        40.000          32.000
  22852090.900    22852090.490    22852089.294   120088557.194 5  93575500.973 4
        35.100          25.900
  23453390.462    23453389.878    23453387.326   123248455.991 4  96037772.459 2
        25.900          17.000
  23580284.230    23580283.325    23580283.587   123915232.530 3  96557328.109 4
        23.800          24.900
  21114056.222    21114055.152    21114051.152   110955205.629 8  86458626.750 6
        48.000          41.000
  24362569.976    24362569.474    24362570.548   128026159.349 3  99760640.379 2
        22.100          13.900
 11  1  1  0 41 30.0000000  0 10G14G09G06G11G19G24G18G32G22G03
  20396051.400    20396051.020    20396048.393   107182038.535 7  83518487.247 8
        43.000          48.000
  23435875.064    23435875.231    23435873.458   123156394.509 4  95966029.580 2
        27.100          16.100
  24590200.312    24590199.406    24590199.041   129222381.327 2 100692773.817
        16.100
  22866721.555    22866721.281    22866718.233   120165451.587 5  93635423.173 3
        33.000          23.000
  22602798.688    22602797.675    22602794.641   118778534.481 6  92554713.577 5
        39.000          31.000
  22835290.696    22835290.282    22835289.468   120000272.781 5  93506707.952 4
        35.100          27.100
  23469223.419    23469222.793    23469219.904   123331656.023 4  96102603.641 2
        27.100          17.800
  23564508.211    23564506.771    23564506.542   123832322.907 4  96492723.273 4
        28.100          24.900
  21123760.230    21123759.136    21123755.018   111006200.503 8  86498363.017 6
        48.000          41.000
  24382061.640    24382061.342    24382061.346   128128586.409 2  99840453.610 1
        17.800           6.500
 11  1  1  0 42  0.0000000  0 10G14G09G06G11G19G24G18G32G22G03
  20395104.870    20395104.387    20395101.680   107177063.616 7  83514610.700 8
        43.000          48.000
  23447392.047    23447391.972    23447390.806   123216918.039 4  96013190.798 2
        25.900          17.800
  24609095.456    24609094.894    24609094.559   129321674.893 2 100770145.381
        17.000
  22851457.991    22851457.952    22851454.668   120085242.921 5  93572922.916 3
        32.000          23.800
  22614855.027    22614853.822    22614850.763   118841888.691 6  92604080.483 5
        40.000          32.000
  22818537.051    22818536.396    22818535.743   119912230.703 5  93438103.748 4
        34.000          27.100
  23485081.063    23485080.716    23485078.229   123414991.076 4  96167540.055 2
        27.100          15.100
  23548755.899    23548755.315    23548756.039   123749552.826 4  96428227.178 4
        27.100          25.900
  21133516.532    21133515.479    21133511.491   111057470.686 8  86538313.814 6
        48.000          40.000
  24401562.031    24401561.430    24401561.523   128231058.934 3  99920302.314
        19.300
 11  1  1  0 42 30.0000000  0 10G14G09G06G11G19G24G18G32G22G03
  20394257.548    20394257.136    20394254.433   107172611.134 7  83511141.242 8
        43.000          48.000
  23459021.270    23459020.666    23459019.140   123278025.846 4  96060807.268 2
        28.100          12.600
  24627990.412    24627990.085    24627990.101   129420972.465 3 100847520.099
        19.900
  22836264.737    22836264.751    22836262.264   120005403.914 5  93510710.726 4
        32.000          25.900
  22626992.593    22626991.565    22626989.370   118905674.910 6  92653784.023 5
        40.000          33.000
  22801828.705    22801827.939    22801827.235   119824428.272 5  93369686.311 4
        33.000          27.100
  23500963.706    23500963.489    23500961.273   123498455.544 4  96232577.278 3
        25.900          19.300
  23533030.596    23533030.173    23533030.307   123666917.933 4  96363836.417 3
        27.100          23.000
  21143324.014    21143323.069    21143319.130   111109010.163 7  86578474.448 6
        47.000          40.000
  24421069.400    24421068.922    24421068.307   128333568.756 3 100000180.055
        22.100
 11  1  1  0 43  0.0000000  0 10G14G09G06G11G19G24G18G32G22G03
  20393510.595    20393510.169    20393507.498   107168686.016 7  83508082.721 8
        43.000          48.000
  23470760.621    23470760.380    23470759.018   123339720.472 4  96108881.035 2
        24.900          12.600
  24646887.288    24646887.336    24646887.189   129520276.417 4 100924899.783
        24.900
  22821144.259    22821144.009    22821141.424   119925942.110 5  93448792.481 4
        31.000          25.900
  22639213.822    22639212.557    22639209.957   118969895.841 6  92703826.283 5
        39.000          33.000
  22785167.866    22785166.993    22785166.026   119736872.578 5  93301461.109 4
        34.000          27.100
  23516871.913    23516871.609    23516869.219   123582053.918 4  96297718.861 2
        27.100          13.900
  23517333.433    23517332.444    23517332.463   123584423.946 4  96299555.445 3
        28.100          23.000
  21153183.870    21153182.847    21153178.857   111160823.576 7  86618848.538 6
        47.000          41.000
  24440583.216    24440582.302    24440582.872   128436118.176 2 100080088.674
        15.100
 11  1  1  0 43 30.0000000  0  9G14G09G11G19G24G18G32G22G03
  20392861.037    20392860.665    20392858.027   107165273.232 7  83505423.418 8
        43.000          48.000
  23482609.478    23482609.590    23482607.788   123401985.660 3  96157399.369 2
        23.800          15.100
  22806093.197    22806092.888    22806089.998   119846845.577 5  93387158.861 4
        33.000          27.100
  22651514.300    22651512.909    22651510.504   119034535.007 6  92754194.457 5
        39.000          33.000
  22768550.591    22768550.056    22768549.753   119649551.599 5  93233418.814 4
        35.100          28.100
  23532803.058    23532802.754    23532799.535   123665771.518 4  96362953.361 2
        27.100          15.100
  23501659.910    23501658.758    23501658.207   123502057.390 5  96235373.777 3
        30.100          22.100
  21163092.933    21163091.911    21163088.061   111212896.410 7  86659424.770 6
        47.000          40.000
  24460102.648    24460101.871    24460101.816   128538690.143 3 100160014.832 1
        19.300           6.500
 11  1  1  0 44  0.0000000  0  9G14G09G11G19G24G18G32G22G03
  20392312.146    20392311.714    20392309.007   107162388.513 7  83503175.596 8
        43.000          48.000
  23494569.510    23494569.009    23494567.507   123464835.543 4  96206373.328 3
        24.900          19.300
  22791113.923    22791113.793    22791110.950   119768132.729 5  93325824.182 4
        33.000          25.900
  22663896.448    22663895.333    22663893.117   119099606.182 6  92804899.263 5
        39.000          33.000
  22751982.763    22751982.073    22751981.216   119562483.735 5  93165573.744 4
        35.100          29.000
  23548760.222    23548759.301    23548756.322   123749623.956 4  96428292.906 2
        25.900          15.100
  23486013.143    23486012.236    23486011.973   123419834.902 5  96171304.354 3
        30.100          21.100
  21173054.250    21173053.211    21173049.489   111265244.094 7  86700215.174 6
        47.000          40.000
  24479627.073    24479626.838    24479627.361   128641298.023 3 100239968.984 1
        19.300           6.500
 11  1  1  0 44 30.0000000  0  9G14G09G11G19G24G18G32G22G03
  20391862.677    20391862.225    20391859.580   107160026.425 7  83501335.016 8
        43.000          48.000
  23506638.969    23506638.747    23506637.252   123528262.900 4  96255797.243 2
        24.900          12.600
  22776208.531    22776208.225    22776204.963   119689801.125 5  93264786.606 4
        34.000          25.900
  22676359.817    22676358.811    22676356.595   119165101.889 6  92855934.869 5
        39.000          33.000
  22735461.740    22735461.036    22735459.978   119475666.376 6  93097923.869 4
        36.000          28.100
  23564741.053    23564740.614    23564737.638   123833605.860 4  96493733.349 2
        24.900          15.100
  23470393.595    23470392.495    23470391.668   123337752.186 5  96107343.822 3
        31.000          22.100
  21183067.006    21183066.018    21183062.167   111317861.255 7  86741215.559 6
        47.000          40.000
  24499158.668    24499158.641    24499158.306   128743934.486 2 100319945.421
        17.000
 11  1  1  0 45  0.0000000  0  9G14G09G11G19G24G18G32G22G03
  20391512.008    20391511.594    20391508.981   107158183.739 7  83499899.168 8
        43.000          48.000
  23518818.323    23518818.129    23518816.360   123592262.841 4  96305667.363 2
        25.900          15.100
  22761374.241    22761374.238    22761371.171   119611850.591 5  93204045.930 4
        34.000          24.900
  22688903.488    22688902.450    22688899.553   119231016.952 6  92907297.255 5
        40.000          32.000
  22718988.662    22718988.216    22718987.246   119389099.124 6  93030468.889 4
        37.000          28.100
  23580746.223    23580745.671    23580743.254   123917714.318 3  96559272.410 2
        23.800          12.600
  23454799.324    23454798.626    23454798.643   123255807.453 5  96043490.815 4
        31.000          24.900
  21193130.456    21193129.424    21193125.533   111370744.686 7  86782423.432 6
        47.000          40.000
  24518694.870    24518694.141    24518694.401   128846593.854 3 100399939.712
        21.100
 11  1  1  0 45 30.0000000  0  9G14G09G11G19G24G18G32G22G03
  20391260.495    20391260.149    20391257.465   107156862.320 7  83498869.503 8
        43.000          48.000
  23531105.808    23531105.554    23531104.435   123656835.157 3  96355983.443 2
        23.000          17.800
  22746613.902    22746613.972    22746611.043   119534285.809 5  93143605.862 3
        33.000          23.800
  22701527.011    22701525.720    22701522.651   119297351.626 6  92958986.599 5
        40.000          32.000
  22702563.513    22702563.129    22702561.798   119302786.527 6  92963212.319 4
        36.000          27.100
  23596775.930    23596775.500    23596772.904   124001950.569 4  96624911.036 2
        24.900          15.100
  23439232.716    23439231.857    23439231.496   123174003.478 4  95979747.517 3
        29.000          23.800
  21203245.014    21203244.021    21203239.891   111423896.135 7  86823840.142 6
        47.000          40.000
  24538232.580    24538233.342    24538233.282   128949275.240 2 100479951.142 1
        17.800           6.500
 11  1  1  0 46  0.0000000  0  9G14G09G11G19G24G18G32G22G03
  20391107.948    20391107.533    20391104.805   107156060.558 7  83498244.760 8
        43.000          48.000
  23543501.572    23543501.410    23543500.117   123721976.977 4  96406743.331 2
        24.900          17.000
  22731927.847    22731927.520    22731924.426   119457108.110 5  93083467.407 3
        33.000          23.000
  22714229.474    22714227.985    22714224.894   119364102.251 6  93011000.069 5
        39.000          32.000
  22686187.047    22686187.033    22686185.945   119216729.926 6  92896155.228 4
        36.000          28.100
  23612829.406    23612828.802    23612826.451   124086313.256 4  96690648.190 2
        24.900          15.100
  23423693.278    23423692.011    23423691.766   123092340.128 4  95916113.803 3
        29.000          23.000
  21213409.910    21213409.024    21213404.983   111477314.377 7  86865464.748 6
        47.000          40.000
  24557777.476    24557776.932    24557777.385   129051975.667 3 100559977.421
        23.000
 11  1  1  0 46 30.0000000  0  9G14G09G11G19G24G18G32G22G03
  20391054.108    20391053.558    20391050.791   107155776.522 7  83498023.442 8
        43.000          48.000
  23556006.130    23556005.729    23556003.452   123787684.545 4  96457944.038 2
        25.900          15.100
  22717314.907    22717314.935    22717312.548   119380318.777 5  93023631.590 4
        34.000          27.100
  22727009.452    22727008.321    22727005.550   119431265.010 6  93063334.690 5
        39.000          31.000
  22669860.118    22669859.787    22669858.945   119130930.228 6  92829298.340 4
        36.000          29.000
  23628907.577    23628906.748    23628904.060   124170800.583 3  96756482.443 1
        23.800          11.000
  23408179.333    23408178.491    23408177.403   123010816.569 4  95852588.990 3
        29.000          19.300
  21223625.455    21223624.447    21223620.563   111530997.387 7  86907295.667 6
        47.000          40.000
  24577323.490    24577322.897    24577322.953   129154690.505 3 100640014.941
        23.000           3.000
 11  1  1  0 47  0.0000000  0  9G14G09G11G19G24G18G32G22G03
  20391098.439    20391097.855    20391095.230   107156009.926 7  83498205.326 8
        43.000          48.000
  23568616.886    23568616.397    23568614.919   123853955.764 4  96509583.982 2
        24.900          17.800
  22702777.457    22702777.265    22702774.107   119303920.340 5  92964100.362 4
        34.000          27.100
  22739868.447    22739867.244    22739864.310   119498837.784 6  93115988.786 5
        39.000          31.000
  22653582.680    22653582.203    22653581.435   119045390.433 6  92762643.961 4
        36.000          28.100
  23645008.189    23645007.626    23645004.740   124255412.280 4  96822413.628 2
        24.900          13.900
  23392692.381    23392691.416    23392691.070   122929433.848 4  95789173.920 3
        28.100          21.100
  21233891.521    21233890.427    21233886.463   111584944.902 7  86949332.690 6
        47.000          40.000
  24596871.769    24596871.515    24596871.488   129257417.328 3 100720061.774 1
        21.100           6.500
 11  1  1  0 47 30.0000000  0  9G14G09G11G19G24G18G32G22G03
  20391240.357    20391240.042    20391237.386   107156757.240 7  83498787.656 8
        43.000          48.000
  23581333.751    23581333.582    23581332.113   123920785.304 4  96561658.968 2
        25.900          17.000
  22688313.379    22688313.224    22688310.304   119227912.358 5  92904873.369 4
        34.000          27.100
  22752803.908    22752802.853    22752800.046   119566815.324 6  93168958.292 5
        39.000          32.000
  22637353.814    22637353.465    22637352.686   118960109.632 6  92696191.404 5
        36.000          30.100
  23661132.571    23661131.840    23661128.914   124340145.077 3  96888439.178 2
        23.800          12.600
  23377232.086    23377230.897    23377230.642   122848189.646 4  95725866.819 3
        29.000          21.100
  21244206.972    21244206.034    21244202.010   111639153.516 7  86991573.175 6
        47.000          40.000
  24616421.405    24616420.724    24616421.511   129360150.389 2 100800113.456 1
        17.000           6.500
 11  1  1  0 48  0.0000000  0  9G14G09G11G19G24G18G32G22G03
  20391482.312    20391481.946    20391479.153   107158027.964 7  83499777.843 8
        44.000          48.000
  23594158.579    23594158.307    23594157.067   123988181.063 3  96614175.154 2
        23.800          15.100
  22673926.001    22673925.735    22673922.937   119152307.111 5  92845960.199 4
        33.000          24.900
  22765817.931    22765816.836    22765814.233   119635205.201 6  93222249.088 5
        39.000          32.000
  22621177.295    22621176.891    22621176.457   118875100.279 6  92629950.373 5
        36.000          31.000
  23677281.324    23677280.792    23677278.115   124425008.645 3  96954566.614 2
        23.800          16.100
  23361799.801    23361799.116    23361798.790   122767094.916 5  95662676.171 3
        30.100          21.100
  21254574.013    21254573.145    21254569.131   111693633.150 7  87034024.834 6
        47.000          40.000
  24635972.480    24635972.675    24635973.333   129462897.574 2 100880176.168 2
        16.100          12.600
 11  1  1  0 48 30.0000000  0  9G14G09G11G19G24G18G32G22G03
  20391821.515    20391821.097    20391818.403   107159810.645 7  83501166.954 8
        43.000          48.000
  23607089.450    23607088.930    23607086.928   124056129.785 3  96667122.224 2
        23.000          15.100
  22659613.843    22659613.625    22659610.890   119077096.058 5  92787354.196 4
        33.000          25.900
  22778908.050    22778906.786    22778904.579   119703993.906 6  93275850.676 5
        38.000          33.000
  22605050.409    22605049.933    22605049.332   118790353.624 6  92563914.031 4
        36.000          29.000
  23693452.840    23693452.212    23693449.654   124509991.482 4  97020786.990 2
        24.900          16.100
  23346394.784    23346394.188    23346393.508   122686139.389 5  95599593.993 3
        31.000          22.100
  21264990.370    21264989.556    21264985.672   111748372.214 7  87076678.652 6
        47.000          39.000
  24655525.539    24655524.488    24655525.525   129565645.255 2 100960239.226 1
        17.800           6.500
 11  1  1  0 49  0.0000000  0  9G14G09G11G19G24G18G32G22G03
  20392259.303    20392258.878    20392256.318   107162111.616 7  83502959.922 8
        44.000          48.000
  23620124.908    23620125.097    23620122.962   124124636.569 3  96720504.163 2
        23.000          12.600
  22645378.109    22645377.937    22645375.310   119002288.986 5  92729062.987 4
        33.000          27.100
  22792075.284    22792074.030    22792071.195   119773186.449 6  93329766.946 5
        39.000          32.000
  22588975.437    22588975.098    22588974.251   118705879.225 6  92498089.843 4
        36.000          29.000
  23709647.986    23709647.928    23709645.312   124595100.403 4  97087105.629 2
        24.900          15.100
  23331017.480    23331016.763    23331016.041   122605330.988 4  95536626.446 3
        29.000          23.000
  21275457.587    21275456.618    21275452.746   111803377.416 7  87119539.851 6
        47.000          39.000
  24675077.734    24675077.654    24675077.854   129668397.630 2 101040305.996
        15.100           3.000
 11  1  1  0 49 30.0000000  0  9G14G09G11G19G24G18G32G22G03
  20392795.469    20392795.061    20392792.323   107164928.891 7  83505155.208 8
        44.000          48.000
  23633267.269    23633266.854    23633265.533   124193697.318 3  96774317.723 3
        23.800          19.900
  22631219.948    22631219.767    22631217.379   118927886.818 5  92671087.300 4
        33.000          28.100
  22805317.469    22805316.448    22805314.234   119842778.406 6  93383994.437 5
        38.000          32.000
  22572952.499    22572952.048    22572951.293   118621677.853 6  92432478.389 4
        37.000          28.100
  23725867.297    23725867.131    23725864.408   124680332.961 3  97153520.588 1
        23.000          11.000
  23315668.037    23315667.184    23315666.777   122524668.589 4  95473772.702 4
        29.000          24.900
  21285975.080    21285974.163    21285970.183   111858646.682 7  87162606.810 6
        47.000          39.000
  24694631.643    24694631.090    24694631.400   129771150.213 2 101120372.887
        12.600           3.000
 11  1  1  0 50  0.0000000  0  9G14G09G11G19G24G18G32G22G03
  20393430.188    20393429.732    20393427.026   107168264.319 7  83507754.247 8
        43.000          48.000
  23646514.421    23646514.007    23646512.782   124263311.992 3  96828562.938 3
        23.800          19.300
  22617139.549    22617139.690    22617136.711   118853894.109 5  92613430.667 4
        35.100          25.900
  22818636.544    22818635.499    22818632.956   119912769.556 6  93438532.988 5
        38.000          31.000
  22556982.442    22556981.961    22556981.419   118537754.412 6  92367083.521 5
        37.000          30.100
  23742111.053    23742110.559    23742107.528   124765691.532 3  97220033.743 1
        23.000           6.500
  23300346.410    23300345.720    23300345.706   122444155.568 5  95411035.349 3
        30.100          23.800
  21296543.191    21296542.248    21296538.271   111914182.031 7  87205881.111 6
        47.000          39.000
  24714184.558    24714184.419    24714184.673   129873903.180 2 101200440.090
        16.100           3.000
 11  1  1  0 50 30.0000000  0  9G14G09G11G19G24G18G32G22G03
  20394162.038    20394161.558    20394158.886   107172109.795 7  83510750.727 8
        44.000          48.000
  23659865.358    23659865.066    23659863.833   124333471.003 3  96883232.329 2
        23.800          16.100
  22603136.829    22603136.758    22603133.298   118780306.032 5  92556089.310 4
        35.100          25.900
  22832030.002    22832028.555    22832025.843   119983150.927 6  93493375.609 5
        38.000          31.000
  22541064.599    22541063.933    22541062.856   118454103.860 6  92301901.282 4
        36.000          28.100
  23758376.850    23758376.471    23758373.373   124851168.368 3  97286639.082 2
        23.000          13.900
  23285053.106    23285052.156    23285051.805   122363785.380 5  95348409.293 3
        32.000          23.800
  21307160.552    21307159.513    21307155.288   111969975.698 7  87249356.697 6
        47.000          39.000
  24733736.755    24733735.986    24733736.449   129976646.428 3 101280499.735 1
        19.300           9.000
 11  1  1  0 51  0.0000000  0  9G14G09G11G19G24G18G32G22G03
  20394988.650    20394988.211    20394985.551   107176453.829 7  83514135.698 8
        44.000          48.000
  23673317.052    23673316.688    23673315.043   124404161.058 4  96938315.520 1
        24.900          11.000
  22589209.116    22589208.820    22589205.293   118707114.127 5  92499056.655 4
        35.100          25.900
  22845494.869    22845493.704    22845490.728   120053908.859 6  93548511.645 5
        38.000          30.100
  22525197.033    22525196.490    22525195.049   118370717.682 6  92236925.061 4
        37.000          29.000
  23774663.398    23774662.710    23774659.892   124936752.085 4  97353327.666 2
        24.900          16.100
  23269784.434    23269783.477    23269782.586   122283547.808 5  95285886.552 3
        32.000          23.000
  21317824.396    21317823.579    21317819.419   112026016.353 7  87293024.741 6
        47.000          39.000
  24753283.342    24753282.345    24753283.388   130079366.808 3 101360541.544 1
        19.300           6.500
 11  1  1  0 51 30.0000000  0  9G14G09G31G11G19G24G18G32G22
  20395913.696    20395913.313    20395910.563   107181315.357 7  83517923.909 8
        44.000          48.000
  23686873.442    23686873.059    23686871.290   124475399.228 3  96993825.776 2
        23.000          16.100
  24439230.308    24439231.034    24439229.259   128429045.684 3 100074587.986 3
        23.000          21.100
  22575361.038    22575360.671    22575356.540   118634340.244 6  92442349.734 4
        36.000          24.900
  22859034.729    22859033.338    22859030.438   120125060.155 6  93603954.223 5
        37.000          30.100
  22509383.360    22509382.792    22509381.753   118287617.540 6  92172171.704 5
        37.000          30.100
  23790972.474    23790972.117    23790969.961   125022461.526 3  97420114.243 1
        23.000          11.000
  23254544.739    23254544.051    23254543.162   122203463.167 5  95223482.989 3
        33.000          23.000
  21328539.417    21328538.402    21328534.298   112082323.101 7  87336900.128 6
        47.000          39.000
 11  1  1  0 52  0.0000000  0  9G14G09G31G11G19G24G18G32G22
  20396934.768    20396934.275    20396931.505   107186680.234 7  83522104.339 8
        44.000          48.000
  23700530.676    23700530.691    23700528.740   124547169.826 3  97049750.937 2
        23.800          17.000
  24418214.058    24418214.614    24418212.988   128318604.474 3  99988529.953 2
        23.000          17.800
  22561589.411    22561589.228    22561586.150   118561973.483 6  92385960.046 4
        36.000          27.100
  22872645.975    22872644.759    22872641.922   120196588.835 6  93659690.848 5
        38.000          31.000
  22493622.125    22493621.649    22493620.708   118204792.616 6  92107632.822 5
        37.000          30.100
  23807304.019    23807303.412    23807301.146   125108282.602 3  97486987.804 1
        22.100          11.000
  23239331.115    23239330.605    23239329.961   122123518.664 5  95161188.622 3
        31.000          23.800
  21339302.256    21339301.304    21339297.199   112138882.091 7  87380972.069 6
        47.000          39.000
 11  1  1  0 52 30.0000000  0  9G14G09G31G11G19G24G18G32G22
  20398054.676    20398054.261    20398051.702   107192566.421 7  83526690.987 8
        44.000          48.000
  23714292.916    23714292.047    23714291.217   124619489.088 3  97106103.602 2
        23.800          15.100
  24397207.692    24397207.769    24397205.491   128208211.331 3  99902509.365 2
        21.100          12.600
  22547899.877    22547899.600    22547897.188   118490034.865 5  92329904.012 4
        35.100          29.000
  22886332.426    22886331.138    22886328.439   120268511.370 6  93715734.374 5
        37.000          31.000
  22477917.619    22477916.984    22477916.079   118122263.899 6  92043324.760 5
        38.000          30.100
  23823659.078    23823658.810    23823656.971   125194234.310 3  97553963.168 1
        19.900           6.500
  23224148.832    23224147.688    23224147.425   122043733.774 5  95099018.641 4
        30.100          24.900
  21350116.475    21350115.550    21350111.515   112195711.460 7  87425254.698 6
        47.000          39.000
 11  1  1  0 53  0.0000000  0  9G14G09G31G11G19G24G18G32G22
  20399271.744    20399271.284    20399268.737   107198961.983 7  83531674.549 8
        44.000          48.000
  23728156.134    23728155.994    23728154.213   124692343.224 3  97162873.107 1
        23.000           9.000
  24376208.335    24376208.529    24376206.253   128097858.544 3  99816520.222 2
        23.000          13.900
  22534289.764    22534289.881    22534287.315   118418515.708 5  92274174.813 4
        35.100          28.100
  22900091.361    22900089.976    22900087.268   120340813.958 6  93772074.046 5
        37.000          31.000
  22462267.288    22462266.928    22462266.172   118040022.795 6  91979240.801 5
        38.000          31.000
  23840038.892    23840038.305    23840035.950   125280304.629 3  97621030.974 1
        23.000           9.000
  23208994.648    23208993.997    23208993.575   121964098.141 5  95036964.967 4
        33.000          27.100
  21360979.884    21360978.990    21360975.010   112252799.551 7  87469738.924 6
        47.000          39.000
 11  1  1  0 53 30.0000000  0  9G14G09G31G11G19G24G18G32G22
  20400585.361    20400584.981    20400582.374   107205865.563 7  83537053.968 8
        44.000          48.000
  23742121.276    23742121.150    23742119.109   124765729.473 3  97220057.210 1
        23.000          11.000
  24355216.905    24355216.887    24355215.303   127987548.505 3  99730564.369 2
        23.000          15.100
  22520760.601    22520760.269    22520757.848   118347417.734 5  92218773.804 4
        34.000          28.100
  22913922.016    22913920.520    22913917.237   120413493.784 6  93828707.665 4
        38.000          29.000
  22446672.329    22446671.927    22446671.014   117958071.087 6  91915382.346 5
        38.000          31.000
  23856439.982    23856439.722    23856436.534   125366492.732 3  97688190.540 1
        23.800           6.500
  23193868.633    23193868.005    23193867.549   121884612.089 5  94975027.845 4
        32.000          24.900
  21371892.464    21371891.564    21371887.628   112310145.796 7  87514424.313 6
        47.000          39.000
 11  1  1  0 54  0.0000000  0  9G14G09G31G11G19G24G18G32G22
  20401995.276    20401994.838    20401992.236   107213274.617 7  83542827.266 8
        44.000          48.000
  23756186.646    23756186.046    23756184.829   124839643.071 3  97277652.223 3
        23.000          19.300
  24334233.924    24334233.464    24334231.934   127877282.041 3  99644642.464 3
        23.800          19.300
  22507311.344    22507311.288    22507309.062   118276740.973 6  92163701.038 5
        36.000          30.100
  22927822.610    22927821.453    22927818.925   120486545.689 6  93885631.241 5
        37.000          30.100
  22431132.485    22431131.940    22431131.601   117876408.952 6  91851749.535 5
        37.000          31.000
  23872863.255    23872862.571    23872859.858   125452795.858 3  97755439.737 2
        22.100          12.600
  23178771.659    23178770.676    23178769.494   121805274.024 5  94913206.015 3
        32.000          22.100
  21382853.764    21382852.801    21382848.879   112367747.264 7  87559308.572 6
        46.000          39.000
 11  1  1  0 54 30.0000000  0  9G14G09G31G11G19G24G18G32G22
  20403501.456    20403500.966    20403498.311   107221189.230 7  83548994.500 8
        44.000          48.000
  23770351.766    23770351.629    23770350.347   124914082.689 4  97335657.101 2
        24.900          16.100
  24313259.249    24313259.299    24313257.591   127767063.281 3  99558757.733 3
        23.800          19.900
  22493942.999    22493942.773    22493939.760   118206488.875 5  92108959.159 4
        35.100          29.000
  22941794.461    22941793.534    22941790.640   120559968.265 6  93942843.628 5
        37.000          30.100
  22415648.946    22415648.269    22415647.241   117795039.733 6  91788344.985 5
        37.000          31.000
  23889307.076    23889306.965    23889304.838   125539214.573 3  97822778.978
        21.100           3.000
  23163702.443    23163701.547    23163700.435   121726085.667 5  94851500.831 3
        31.000          23.800
  21393863.744    21393862.648    21393858.789   112425604.919 7  87604392.461 6
        46.000          39.000
 11  1  1  0 55  0.0000000  0  9G14G09G31G11G19G24G18G32G22
  20405103.562    20405103.066    20405100.374   107229608.234 7  83555554.771 8
        44.000          48.000
  23784617.045    23784616.744    23784614.822   124989045.687 4  97394069.851 1
        27.100          11.000
  24292294.687    24292295.042    24292293.774   127656895.332 3  99472912.638 3
        23.000          19.300
  22480655.153    22480655.251    22480652.315   118136663.789 6  92054550.017 4
        36.000          28.100
  22955836.451    22955835.412    22955832.714   120633758.633 6  94000342.610 5
        37.000          30.100
  22400221.076    22400220.423    22400219.192   117713965.696 6  91725170.415 5
        38.000          31.000
  23905774.469    23905773.967    23905772.299   125625748.180 3  97890207.770
        21.100
  23148661.472    23148660.725    23148660.887   121647047.725 5  94789912.893 4
        31.000          25.900
  21404921.933    21404921.062    21404917.245   112483717.813 7  87649675.239 6
        46.000          39.000
 11  1  1  0 55 30.0000000  0  9G14G09G31G11G19G24G18G32G22
  20406800.651    20406800.235    20406797.690   107238527.238 7  83562504.652 8
        44.000          48.000
  23798980.813    23798980.291    23798978.698   125064525.362 3  97452885.235 1
        23.800           6.500
  24271339.986    24271340.153    24271339.107   127546777.222 3  99387106.350 3
        23.000          21.100
  22467448.924    22467449.171    22467446.080   118067264.054 6  92000472.302 4
        37.000          28.100
  22969947.039    22969945.903    22969943.508   120707910.827 6  94058123.552 5
        37.000          31.000
  22384848.308    22384847.970    22384847.437   117633185.073 6  91662224.508 5
        37.000          31.000
  23922262.236    23922261.863    23922260.361   125712392.411 3  97957722.750 1
        21.100           9.000
  23133649.292    23133648.740    23133648.492   121568156.924 5  94728439.592 4
        33.000          27.100
  21416028.002    21416027.218    21416023.373   112542081.347 7  87695153.318 6
        46.000          39.000
 11  1  1  0 56  0.0000000  0  9G14G09G31G11G19G24G18G32G22
  20408595.195    20408594.784    20408592.191   107247957.499 7  83569852.913 8
        44.000          48.000
  23813444.169    23813443.741    23813441.865   125140531.814 3  97512111.034 1
        23.000           6.500
  24250396.782    24250397.715    24250396.200   127436724.104 3  99301350.744 3
        22.100          19.300
  22454326.380    22454326.196    22454323.614   117998304.173 6  91946737.341 4
        36.000          28.100
  22984128.331    22984127.273    22984124.637   120782434.232 6  94116193.738 5
        37.000          30.100
  22369534.865    22369534.707    22369533.671   117552712.861 6  91599518.905 5
        39.000          31.000
  23938773.032    23938772.998    23938771.021   125799159.536 3  98025333.507 1
        23.000           6.500
  23118666.938    23118666.283    23118666.556   121489426.420 5  94667091.187 4
        32.000          27.100
  21427184.526    21427183.514    21427179.540   112600707.574 7  87740836.098 6
        46.000          38.000
 11  1  1  0 56 30.0000000  0  9G14G09G31G11G19G24G18G32G22
  20410484.068    20410483.558    20410480.848   107257882.669 7  83577586.817 8
        44.000          48.000
  23828003.058    23828003.046    23828002.110   125217046.309 3  97571732.741 2
        23.000          12.600
  24229464.944    24229465.309    24229463.530   127326723.525 3  99215636.039 2
        23.000          13.900
  22441284.936    22441284.566    22441281.972   117929770.940 6  91893334.838 4
        36.000          28.100
  22998377.345    22998375.991    22998373.313   120857310.651 6  94174538.982 5
        37.000          32.000
  22354278.120    22354277.521    22354276.370   117472535.617 6  91537043.149 5
        39.000          30.100
  23955305.185    23955304.754    23955302.303   125886032.627 3  98093026.843 1
        23.000           9.000
  23103712.798    23103712.171    23103711.778   121410841.141 5  94605855.968 4
        33.000          25.900
  21438387.565    21438386.736    21438382.639   112659580.304 7  87786710.955 6
        46.000          38.000
 11  1  1  0 57  0.0000000  0  9G14G09G31G11G19G24G18G32G22
  20412469.268    20412468.826    20412466.128   107268315.203 7  83585716.072 8
        44.000          48.000
  23842663.301    23842662.727    23842661.222   125294079.698 3  97631758.759 2
        23.000          13.900
  24208545.970    24208546.303    24208544.101   127216792.192 3  99129975.286 1
        23.000           6.500
  22428327.365    22428327.218    22428324.642   117861680.048 5  91840277.019 4
        35.100          28.100
  23012694.839    23012693.331    23012690.905   120932550.854 6  94233167.714 5
        36.000          31.000
  22339080.064    22339079.548    22339078.606   117392668.918 6  91474809.374 5
        39.000          32.000
  23971859.297    23971858.439    23971856.073   125973025.158 3  98160813.209 1
        19.900          11.000
  23088788.885    23088788.330    23088787.557   121332415.300 5  94544744.977 4
        33.000          25.900
  21449640.130    21449639.238    21449635.116   112718712.657 7  87832788.120 6
        46.000          38.000
 11  1  1  0 57 30.0000000  0  9G14G09G31G11G19G24G18G32G22
  20414548.051    20414547.539    20414544.988   107279239.490 7  83594228.510 8
        44.000          48.000
  23857417.756    23857417.446    23857415.271   125371614.800 3  97692175.724 1
        22.100          11.000
  24187639.385    24187638.596    24187635.771   127106918.383 4  99044359.367 2
        24.900          15.100
  22415451.825    22415451.701    22415448.592   117794018.731 5  91787553.933 4
        35.100          27.100
  23027078.403    23027077.324    23027074.752   121008137.324 6  94292066.259 5
        36.000          31.000
  22323938.149    22323937.683    22323936.723   117313100.546 6  91412808.078 5
        39.000          31.000
  23988433.067    23988432.804    23988430.427   126060121.948 3  98228680.826 1
        22.100           6.500
  23073893.171    23073892.268    23073891.075   121254134.957 5  94483747.363 4
        33.000          24.900
  21460939.095    21460938.310    21460934.210   112778089.583 7  87879055.855 6
        46.000          38.000
 11  1  1  0 58  0.0000000  0  9G14G09G31G11G19G24G18G32G22
  20416722.846    20416722.376    20416719.721   107290668.446 7  83603134.195 8
        44.000          48.000
  23872268.786    23872268.798    23872267.548   125449662.880 3  97752992.436 1
        22.100           6.500
  24166744.418    24166744.112    24166741.797   126997119.052 4  98958801.497 2
        24.900          15.100
  22402661.324    22402661.340    22402658.392   117726803.251 6  91735178.245 4
        37.000          29.000
  23041529.918    23041528.821    23041526.765   121084081.421 6  94351243.462 5
        36.000          31.000
  22308857.001    22308856.446    22308855.450   117233846.555 6  91351051.726 5
        39.000          31.000
  24005029.439    24005028.819    24005027.446   126147336.177 3  98296639.978
        23.000
  23059027.093    23059026.247    23059025.158   121176014.522 5  94422874.327 3
        34.000          23.800
  21472287.246    21472286.409    21472282.188   112837724.077 7  87925524.298 6
        46.000          38.000
 11  1  1  0 58 30.0000000  0  9G14G09G31G11G19G24G18G32G22
  20418992.627    20418992.168    20418989.403   107302596.224 7  83612428.574 8
        44.000          48.000
  23887216.921    23887217.011    23887216.143   125528216.409 3  97814203.009 2
        21.100          16.100
  24145863.795    24145863.868    24145861.747   126887392.203 4  98873300.128 3
        24.900          21.100
  22389955.313    22389955.005    22389951.856   117660030.831 6  91683147.805 4
        37.000          28.100
  23056048.215    23056046.688    23056044.892   121160375.572 5  94410693.429 5
        35.100          30.100
  22293834.289    22293833.991    22293833.270   117154904.291 6  91289538.301 5
        38.000          31.000
  24021646.003    24021646.193    24021644.633   126234662.489 3  98364686.491 1
        22.100           6.500
  23044190.673    23044190.180    23044189.186   121098049.727 5  94362122.556 4
        34.000          24.900
  21483683.262    21483682.487    21483678.388   112897610.863 7  87972189.329 6
        46.000          38.000
 11  1  1  0 59  0.0000000  0  9G14G09G31G11G19G24G18G32G22
  20421356.958    20421356.478    20421353.886   107315021.357 7  83622110.505 8
        44.000          48.000
  23902260.987    23902261.068    23902259.828   125607271.708 3  97875804.532 2
        23.000          12.600
  24124997.095    24124997.640    24124995.809   126777739.985 4  98787856.943 3
        27.100          21.100
  22377333.528    22377333.203    22377330.297   117593703.108 6  91631463.870 4
        37.000          28.100
  23070632.555    23070631.221    23070628.645   121237016.366 5  94470413.518 4
        35.100          29.000
  22278872.120    22278871.719    22278870.525   117076275.610 6  91228269.224 5
        39.000          31.000
  24038285.192    24038284.820    24038282.907   126322099.459 3  98432819.188 1
        19.300           9.000
  23029383.646    23029383.572    23029382.874   121020240.586 5  94301492.123 4
        34.000          27.100
  21495127.414    21495126.578    21495122.393   112957749.156 7  88019050.344 6
        46.000          38.000
 11  1  1  0 59 30.0000000  0  9G14G09G31G11G19G24G18G32G22
  20423815.559    20423815.153    20423812.535   107327941.688 7  83632178.303 8
        44.000          48.000
  23917398.744    23917399.091    23917397.971   125686825.580 3  97937794.589 1
        21.100           9.000
  24104146.474    24104146.643    24104143.735   126668164.739 4  98702473.701 3
        29.000          19.300
  22364796.633    22364796.339    22364793.125   117527821.218 6  91580127.347 4
        37.000          28.100
  23085281.993    23085281.109    23085278.024   121314000.178 6  94530400.911 4
        36.000          28.100
  22263969.633    22263969.180    22263968.071   116997961.966 6  91167245.610 5
        40.000          32.000
  24054945.583    24054944.778    24054942.521   126409646.161 3  98501037.401 1
        19.900           6.500
  23014606.797    23014606.359    23014605.791   120942587.003 5  94240982.890 4
        33.000          27.100
  21506618.803    21506617.823    21506613.724   113018137.013 7  88066105.825 6
        46.000          38.000
                            4 14
RINEX FILE SPLICE                                           COMMENT
teqc  2009Oct19     WCDA Operator       20110101 02:07:05UTCCOMMENT
teqc  2009Oct19     WCDA Operator       20110101 02:07:05UTCCOMMENT
CONTACT gps@pgc.nrcan.gc.ca FOR ADDITIONAL INFORMATION      COMMENT
    P1 =    P1  TurboRogue; =    Y1  Benchmark              COMMENT
    L1 = L1(CA)                                             COMMENT
    P2 =    P2  TurboRogue; =    Y2  Benchmark              COMMENT
    L2 = L2(P2) TurboRogue; = L2(Y2) Benchmark              COMMENT
 SNR is mapped to RINEX snr flag value [0-9]                COMMENT
  L1 & L2: min(max(int(snr_dBHz/6), 0), 9)                  COMMENT
teqc windowed: start @ 2011 Jan  1 00:00:00.000             COMMENT
teqc windowed:  end  @ 2011 Jan  1 23:59:59.000             COMMENT
teqc windowed: start @ 2011 Jan  1 01:00:00.000             COMMENT
teqc windowed:  end  @ 2011 Jan  1 01:59:59.000             COMMENT
 11  1  1  1  0  0.0000000  0  9G14G09G31G11G19G24G18G32G22
  20426369.056    20426368.558    20426365.776   107341359.531 7  83642633.773 8
        44.000          48.000
  23932633.463    23932633.126    23932631.643   125766878.241 3  98000173.335 1
        19.900           9.000
  24083309.799    24083310.182    24083307.946   126558672.707 4  98617155.316 3
        28.100          21.100
  22352345.665    22352345.377    22352342.373   117462390.807 6  91529142.620 4
        37.000          29.000
  23099997.271    23099995.766    23099993.408   121391327.485 6  94590655.961 4
        36.000          29.000
  22249127.616    22249127.318    22249126.320   116919968.723 6  91106471.677 5
        39.000          32.000
  24071626.632    24071626.226    24071623.896   126497304.822 3  98569342.869 2
        22.100          13.900
  22999861.051    22999859.994    22999858.822   120865092.873 5  94180597.893 4
        34.000          25.900
  21518158.049    21518157.282    21518153.156   113078776.795 7  88113357.608 6
        46.000          37.000
 11  1  1  1  0 30.0000000  0  9G14G09G31G11G19G24G18G32G22
  20429015.742    20429015.414    20429012.759   107355269.518 7  83653472.731 8
        44.000          48.000
  23947959.566    23947959.956    23947957.910   125847422.549 2  98062935.117 1
        15.100           9.000
  24062489.964    24062490.142    24062487.425   126449262.370 4  98531900.577 3
        25.900          19.300
  22339979.625    22339979.478    22339976.954   117397409.400 6  91478507.791 5
        36.000          30.100
  23114775.864    23114774.713    23114772.247   121468991.114 6  94651173.067 4
        36.000          28.100
  22234346.453    22234346.083    22234345.312   116842293.765 6  91045945.742 5
        39.000          32.000
  24088327.229    24088327.014    24088325.084   126585070.589 3  98637731.798 2
        21.100          13.900
  22985143.850    22985142.778    22985142.049   120787754.277 5  94120334.091 4
        34.000          29.000
  21529744.722    21529743.704    21529739.445   113139663.959 7  88160802.154 6
        46.000          37.000
 11  1  1  1  1  0.0000000  0  9G14G09G31G11G19G24G18G32G22
  20431756.977    20431756.576    20431753.880   107369673.649 7  83664696.732 8
        44.000          48.000
  23963381.743    23963381.212    23963379.360   125928458.650 3  98126080.148 2
        22.100          15.100
  24041685.807    24041686.684    24041684.906   126339939.886 4  98446714.305 3
        24.900          22.100
  22327700.530    22327700.238    22327697.903   117332882.321 6  91428226.953 5
        36.000          30.100
  23129618.820    23129617.678    23129614.673   121546991.423 6  94711952.524 4
        36.000          25.900
  22219627.387    22219627.015    22219625.924   116764942.298 6  90985671.894 5
        40.000          32.000
  24105049.435    24105049.191    24105047.645   126672946.197 3  98706206.324
        19.900
  22970456.595    22970455.902    22970455.481   120710574.958 5  94060194.416 4
        34.000          29.000
  21541378.711    21541377.633    21541373.373   113200801.131 7  88208441.513 6
        46.000          37.000
 11  1  1  1  1 30.0000000  0  9G14G09G31G11G19G24G18G32G22
  20434590.059    20434589.604    20434586.871   107384561.307 7  83676297.513 8
        44.000          48.000
  23978892.171    23978891.904    23978891.051   126009974.405 3  98189598.935 2
        22.100          13.900
  24020898.309    24020898.326    24020896.688   126230698.973 3  98361591.629 3
        23.800          21.100
  22315506.685    22315506.665    22315503.710   117268802.221 6  91378294.432 5
        38.000          30.100
  23144523.483    23144522.517    23144519.216   121625315.986 6  94772984.677 4
        37.000          25.900
  22204968.066    22204967.648    22204966.391   116687907.302 6  90925644.631 5
        40.000          32.000
  24121790.175    24121789.570    24121788.015   126760921.304 2  98774758.377
        17.800           3.000
  22955798.224    22955797.720    22955796.817   120633546.293 5  94000172.118 4
        34.000          27.100
  21553058.417    21553057.354    21553053.276   113262178.459 7  88256268.011 6
        46.000          37.000
 11  1  1  1  2  0.0000000  0  9G14G09G31G11G19G24G18G32G22
  20437516.691    20437516.334    20437513.625   107399941.902 7  83688282.398 8
        44.000          48.000
  23994497.251    23994496.961    23994496.108   126091977.206 3  98253497.222 2
        21.100          17.000
  24000128.882    24000128.532    24000126.666   126121552.915 4  98276542.828 3
        24.900          23.000
  22303399.775    22303399.733    22303397.156   117205181.302 6  91328719.705 4
        37.000          29.000
  23159491.594    23159490.338    23159487.318   121703972.718 5  94834275.652 4
        35.100          28.100
  22190370.921    22190370.511    22190369.959   116611201.211 6  90865873.672 5
        39.000          33.000
  24138552.149    24138552.088    24138549.990   126849005.836 2  98843395.668
        17.800
  22941171.015    22941170.392    22941169.752   120556679.102 5  93940275.643 4
        35.100          27.100
  21564785.549    21564784.506    21564780.478   113323805.416 7  88304289.016 6
        46.000          37.000
 11  1  1  1  2 30.0000000  0  9G14G09G31G11G19G24G18G32G22
  20440537.868    20440537.599    20440534.967   107415818.726 7  83700653.956 8
        44.000          48.000
  24010195.126    24010195.144    24010193.235   126174469.047 3  98317776.577 2
        19.900          17.000
  23979377.725    23979377.796    23979375.785   126012509.259 3  98191573.836 3
        21.100          19.300
  22291382.085    22291381.712    22291378.823   117142026.449 6  91279508.141 4
        37.000          29.000
  23174523.078    23174522.055    23174519.053   121782963.002 6  94895826.511 4
        36.000          29.000
  22175838.311    22175838.124    22175837.135   116534830.914 6  90806364.365 5
        40.000          33.000
  24155335.817    24155335.257    24155333.608   126937203.823 3  98912121.386
        19.900
  22926575.632    22926575.111    22926574.042   120479978.683 5  93880509.121 4
        35.100          27.100
  21576560.930    21576560.041    21576555.809   113385686.059 7  88352507.704 6
        45.000          37.000
 11  1  1  1  3  0.0000000  0  9G14G09G31G11G19G24G18G32G22
  20443651.817    20443651.413    20443648.768   107432181.576 7  83713404.237 8
        44.000          48.000
  24025983.907    24025983.607    24025981.528   126257438.083 3  98382427.790 1
        21.100          11.000
  23958646.921    23958646.350    23958643.952   125903561.962 4  98106679.929 3
        24.900          19.900
  22279450.824    22279450.901    22279448.189   117079330.356 6  91230654.053 4
        37.000          29.000
  23189615.733    23189614.337    23189611.912   121862275.286 5  94957628.284 5
        35.100          30.100
  22161367.857    22161367.643    22161367.116   116458789.556 6  90747111.373 5
        40.000          33.000
  24172139.623    24172138.831    24172137.280   127025505.576 3  98980927.943 1
        19.900          11.000
  22912009.632    22912009.238    22912008.234   120403436.553 5  93820865.939 4
        34.000          27.100
  21588382.900    21588381.980    21588377.821   113447810.669 7  88400916.492 6
        45.000          37.000
 11  1  1  1  3 30.0000000  0  9G14G09G31G11G19G24G18G32G22
  20446856.580    20446856.146    20446853.485   107449022.770 7  83726527.247 8
        44.000          48.000
  24041860.232    24041860.836    24041858.710   126340875.086 3  98447443.649
        19.300           3.000
  23937932.167    23937932.102    23937929.253   125794707.671 4  98021858.467 2
        25.900          17.800
  22267607.278    22267606.997    22267604.048   117017088.903 6  91182154.238 4
        37.000          29.000
  23204767.275    23204766.012    23204763.845   121941899.993 5  95019673.510 4
        35.100          29.000
  22146959.910    22146959.555    22146958.752   116383073.126 6  90688111.567 5
        41.000          33.000
  24188961.123    24188960.523    24188958.442   127113904.210 3  99049809.993 1
        19.900           6.500
  22897472.401    22897472.059    22897471.906   120327046.927 5  93761341.597 4
        33.000          27.100
  21600249.991    21600248.955    21600244.925   113510172.308 7  88449509.978 6
        45.000          37.000
 11  1  1  1  4  0.0000000  0  9G14G09G31G11G19G24G18G32G22
  20450155.955    20450155.567    20450152.826   107466361.229 7  83740037.741 7
        44.000          47.000
  24057832.253    24057831.649    24057830.117   126424796.411 3  98512836.905 1
        22.100           9.000
  23917240.296    23917240.119    23917237.305   125685968.942 4  97937127.027 3
        29.000          19.900
  22255854.167    22255853.821    22255850.578   116955323.631 6  91134025.459 5
        38.000          30.100
  23219982.667    23219981.258    23219978.388   122021854.251 5  95081975.532 4
        35.100          27.100
  22132617.316    22132616.839    22132615.760   116307703.420 6  90629381.942 5
        40.000          32.000
  24205804.097    24205803.494    24205802.357   127202418.768 2  99118782.380
        16.100
  22882969.783    22882969.067    22882968.133   120250830.095 5  93701951.889 4
        35.100          25.900
  21612165.634    21612164.702    21612160.723   113572790.345 7  88498303.260 6
        45.000          37.000
 11  1  1  1  4 30.0000000  0  9G14G09G31G11G19G24G18G32G22
  20453546.843    20453546.543    20453543.918   107484181.293 7  83753923.512 7
        44.000          47.000
  24073889.626    24073889.319    24073888.452   126509185.051 3  98578594.314
        21.100
  23896567.620    23896567.396    23896564.642   125577334.366 4  97852476.773 3
        29.000          19.300
  22244188.729    22244188.371    22244185.130   116894022.315 6  91086258.209 4
        38.000          29.000
  23235256.530    23235255.351    23235252.864   122102120.635 5  95144520.779 4
        35.100          29.000
  22118338.910    22118338.357    22118337.443   116232668.171 6  90570912.923 5
        40.000          32.000
  24222667.908    24222667.087    24222665.969   127291034.416 2  99187833.490
        13.900
  22868496.454    22868495.868    22868495.020   120174772.302 5  93642686.086 4
        35.100          28.100
  21624127.440    21624126.366    21624122.662   113635649.430 7  88547284.367 6
        45.000          37.000
 11  1  1  1  5  0.0000000  0  9G14G09G31G11G19G24G18G32G22
  20457029.418    20457028.940    20457026.322   107502481.486 7  83768183.406 7
        44.000          47.000
  24090036.745    24090036.484    24090035.314   126594038.016 3  98644713.529
        19.900
  23875915.137    23875915.409    23875912.426   125468807.042 4  97767910.073 3
        28.100          19.900
  22232612.024    22232611.731    22232608.560   116833187.117 6  91038854.166 4
        38.000          29.000
  23250589.622    23250588.343    23250585.853   122182696.476 5  95207307.134 4
        34.000          29.000
  22104124.287    22104123.890    22104122.686   116157969.670 6  90512706.305 5
        41.000          33.000
  24239549.872    24239549.386    24239548.150   127379750.219 2  99256962.689
        17.800
  22854053.259    22854052.596    22854052.148   120098874.120 5  93583544.697 4
        34.000          29.000
  21636135.086    21636134.019    21636130.041   113698749.098 7  88596452.941 6
        45.000          37.000
 11  1  1  1  5 30.0000000  0  9G14G09G31G11G19G24G18G32G22
  20460603.063    20460602.662    20460600.047   107521261.565 7  83782817.243 7
        44.000          47.000
  24106271.237    24106271.275    24106270.286   126679353.181 3  98711192.897
        19.900           3.000
  23855284.688    23855284.258    23855281.320   125360390.684 4  97683429.830 3
        25.900          21.100
  22221124.123    22221124.066    22221121.260   116772820.530 6  90991815.269 5
        38.000          30.100
  23265981.551    23265980.118    23265977.372   122263579.668 5  95270332.984 4
        34.000          28.100
  22089973.910    22089973.569    22089972.639   116083610.988 6  90454764.497 5
        40.000          33.000
  24256450.648    24256450.190    24256449.129   127468566.602 3  99326170.271
        19.300
  22839641.450    22839640.711    22839639.678   120023137.101 6  93524528.848 4
        36.000          29.000
  21648187.904    21648187.037    21648183.074   113762089.358 7  88645808.988 6
        45.000          37.000
 11  1  1  1  6  0.0000000  0  9G14G09G31G11G19G24G18G32G22
  20464269.093    20464268.837    20464266.359   107540527.879 7  83797829.963 7
        44.000          47.000
  24122594.576    24122594.523    24122593.349   126765134.552 2  98778035.555
        17.000
  23834675.924    23834675.931    23834673.785   125252095.693 4  97599044.182 3
        27.100          19.300
  22209727.735    22209727.664    22209724.869   116712931.585 6  90945148.579 5
        38.000          31.000
  23281432.130    23281430.971    23281428.210   122344774.525 5  95333601.707 4
        34.000          28.100
  22075890.808    22075890.349    22075889.061   116009601.300 6  90397094.616 5
        41.000          33.000
  24273372.268    24273372.161    24273370.634   127557490.282 2  99395461.431
        17.000
  22825261.085    22825260.230    22825259.745   119947569.001 5  93465644.645 4
        34.000          29.000
  21660288.390    21660287.512    21660283.408   113825676.987 7  88695357.793 6
        45.000          37.000
 11  1  1  1  6 30.0000000  0  9G14G09G31G11G19G24G18G32G22
  20468026.472    20468025.997    20468023.517   107560271.759 7  83813214.807 7
        44.000          47.000
  24139005.928    24139005.616    24139004.134   126851372.562 3  98845234.032
        19.900
  23814090.685    23814090.745    23814088.258   125143917.791 4  97514749.757 3
        24.900          19.300
  22198421.065    22198421.160    22198418.592   116653515.627 6  90898850.446 5
        39.000          31.000
  23296939.948    23296938.951    23296936.731   122426271.132 5  95397105.548 4
        33.000          28.100
  22061872.546    22061872.123    22061871.286   115935936.001 6  90339693.109 5
        41.000          34.000
  24290312.480    24290312.188    24290310.558   127646513.527 2  99464830.209
        16.100
  22810912.119    22810911.423    22810910.158   119872163.591 6  93406887.208 4
        36.000          28.100
  21672434.367    21672433.407    21672429.465   113889504.613 7  88745093.607 6
        45.000          37.000
 11  1  1  1  7  0.0000000  0  9G14G09G31G11G19G24G18G32G22
  20471874.948    20471874.506    20471871.893   107580495.412 7  83828973.507 7
        44.000          47.000
  24155502.835    24155503.326    24155501.064   126938067.816 2  98912788.771
        17.800
  23793528.526    23793528.622    23793526.274   125035863.851 4  97430551.921 3
        24.900          23.000
  22187206.165    22187205.934    22187202.828   116594578.128 6  90852925.133 5
        38.000          30.100
  23312505.806    23312504.767    23312502.505   122508070.282 5  95460845.140 4
        33.000          27.100
  22047921.231    22047920.880    22047919.529   115862621.002 6  90282564.546 5
        41.000          33.000
  24307272.248    24307271.822    24307270.593   127735639.323 2  99534278.813 1
        13.900          11.000
  22796594.229    22796593.687    22796592.882   119796924.900 5  93348259.661 4
        35.100          28.100
  21684626.712    21684625.824    21684621.762   113953575.069 7  88795018.632 6
        45.000          37.000
 11  1  1  1  7 30.0000000  0  9G14G09G31G11G19G24G18G32G22
  20475815.411    20475814.993    20475812.352   107601202.780 7  83845109.124 7
        44.000          47.000
  24172088.188    24172087.973    24172086.185   127025222.117 2  98980701.206 2
        12.600          12.600
  23772991.567    23772991.655    23772989.719   124927941.873 4  97346456.920 4
        27.100          24.900
  22176082.964    22176082.833    22176079.657   116536125.902 6  90807377.954 5
        39.000          30.100
  23328129.679    23328128.596    23328126.240   122590174.317 5  95524822.318 4
        33.000          27.100
  22034037.581    22034037.264    22034036.432   115789663.260 6  90225714.375 5
        41.000          34.000
  24324254.381    24324253.559    24324252.324   127824872.179 2  99603810.883
        17.800
  22782309.747    22782309.044    22782308.103   119721858.592 6  93289766.476 4
        36.000          29.000
  21696865.854    21696864.987    21696860.962   114017892.590 7  88845136.188 6
        45.000          36.000
 11  1  1  1  8  0.0000000  0  9G14G09G31G11G19G24G18G32G22
  20479845.060    20479844.694    20479842.071   107622379.167 7  83861610.214 7
        44.000          47.000
  24188757.382    24188755.971    24188755.364   127112819.113 2  99048958.606
        12.600           3.000
  23752477.847    23752477.817    23752475.624   124820141.283 4  97262456.515 3
        29.000          23.000
  22165050.221    22165049.978    22165046.713   116478147.433 6  90762199.935 5
        39.000          30.100
  23343808.777    23343807.624    23343804.718   122672566.530 5  95589024.048 4
        34.000          27.100
  22020220.149    22020219.738    22020218.734   115717051.740 6  90169133.982 5
        41.000          34.000
  24341252.086    24341252.047    24341250.596   127914197.852 3  99673415.303
        21.100
  22768055.636    22768054.985    22768053.116   119646951.939 6  93231397.670 4
        36.000          28.100
  21709149.618    21709148.527    21709144.536   114082443.280 7  88895435.430 6
        45.000          37.000
 11  1  1  1  8 30.0000000  0  9G14G09G31G11G19G24G18G32G22
  20483965.809    20483965.423    20483962.722   107644033.487 7  83878483.716 7
        44.000          47.000
  24205512.430    24205512.053    24205510.367   127200866.049 2  99117566.587 1
        13.900           6.500
  23731988.962    23731989.423    23731987.279   124712475.328 4  97178560.996 3
        29.000          23.000
  22154109.648    22154109.289    22154105.898   116420654.825 6  90717400.511 5
        39.000          30.100
  23359543.787    23359542.484    23359539.779   122755254.088 5  95653455.909 4
        34.000          27.100
  22006470.852    22006470.419    22006469.487   115644798.772 6  90112832.984 5
        41.000          33.000
  24358269.212    24358269.296    24358267.793   128003626.228 3  99743099.735
        19.300
  22753834.026    22753833.204    22753831.532   119572215.668 6  93173161.628 4
        36.000          27.100
  21721479.214    21721478.322    21721474.223   114147236.885 7  88945923.956 6
        45.000          36.000
 11  1  1  1  9  0.0000000  0  9G14G09G31G11G19G24G18G32G22
  20488176.844    20488176.442    20488173.691   107666162.673 7  83895727.250 7
        44.000          47.000
  24222351.112    24222351.243    24222349.691   127289358.316 3  99186521.609
        19.300           3.000
  23711527.268    23711527.598    23711524.070   124604945.291 4  97094771.362 2
        29.000          17.800
  22143261.460    22143261.179    22143258.286   116363648.515 6  90672980.012 5
        38.000          31.000
  23375334.255    23375332.932    23375330.113   122838232.668 5  95718114.538 4
        34.000          27.100
  21992789.969    21992789.577    21992788.309   115572904.857 6  90056811.760 5
        41.000          33.000
  24375306.336    24375306.149    24375304.253   128093154.775 2  99812862.246
        16.100           3.000
  22739644.078    22739643.458    22739642.287   119497648.670 6  93115057.473 4
        37.000          29.000
  21733854.922    21733853.929    21733849.800   114212270.613 7  88996599.593 6
        44.000          36.000
 11  1  1  1  9 30.0000000  0  9G14G09G31G11G19G24G18G32G22
  20492476.677    20492476.112    20492473.376   107688757.669 7  83913333.749 7
        44.000          47.000
  24239274.448    24239273.655    24239272.186   127378284.821 3  99255815.031
        21.100           3.000
  23691089.388    23691089.438    23691087.490   124497546.294 4  97011083.839 3
        25.900          23.000
  22132505.052    22132504.768    22132501.801   116307122.327 6  90628933.662 5
        38.000          31.000
  23391177.516    23391176.350    23391173.873   122921491.270 5  95782991.365 4
        33.000          27.100
  21979176.506    21979175.946    21979174.823   115501364.341 7  90001065.914 5
        42.000          34.000
  24392359.845    24392360.089    24392357.818   128182774.978 2  99882696.157
        15.100
  22725484.982    22725484.407    22725483.620   119423243.784 6  93057079.659 4
        36.000          29.000
  21746274.571    21746273.476    21746269.272   114277536.254 7  89047455.934 6
        44.000          36.000
 11  1  1  1 10  0.0000000  0  8G14G31G11G19G24G18G32G22
  20496864.625    20496864.355    20496861.574   107711817.742 7  83931302.646 7
        45.000          47.000
  23670677.467    23670678.082    23670676.246   124390282.040 4  96927501.362 4
        25.900          25.900
  22121840.525    22121840.303    22121837.336   116251078.728 6  90585263.331 5
        39.000          32.000
  23407073.836    23407072.824    23407070.062   123005028.244 5  95848085.098 4
        34.000          25.900
  21965629.967    21965629.687    21965628.812   115430180.303 6  89945597.843 5
        41.000          34.000
  24409431.403    24409431.487    24409429.701   128272487.405 2  99952601.906
        15.100
  22711357.011    22711356.448    22711355.807   119349002.369 6  92999229.218 4
        36.000          29.000
  21758738.329    21758737.333    21758733.193   114343034.149 7  89098493.262 6
        44.000          36.000
 11  1  1  1 10 30.0000000  0  8G14G31G11G19G24G18G32G22
  20501343.701    20501343.201    20501340.447   107735354.251 7  83949642.792 7
        45.000          47.000
  23650295.303    23650295.519    23650292.956   124283168.194 4  96844036.071 4
        28.100          24.900
  22111270.162    22111269.853    22111266.943   116195532.097 6  90541980.253 5
        39.000          31.000
  23423025.583    23423024.246    23423021.248   123088852.858 5  95913402.999 4
        34.000          25.900
  21952154.846    21952154.398    21952153.940   115359367.254 6  89890418.863 5
        41.000          35.100
  24426523.669    24426522.696    24426521.694   128362303.605 2 100022588.567
        12.600
  22697262.717    22697262.405    22697261.815   119274937.500 6  92941516.343 5
        36.000          30.100
  21771248.579    21771247.550    21771243.641   114408776.113 7  89149720.764 6
        44.000          36.000
 11  1  1  1 11  0.0000000  0  8G14G31G11G19G24G18G32G22
  20505912.894    20505912.517    20505909.777   107759366.268 7  83968353.464 7
        44.000          47.000
  23629941.376    23629941.446    23629939.346   124176207.784 4  96760690.326 4
        29.000          25.900
  22100794.609    22100794.498    22100791.784   116140484.619 6  90499086.132 5
        39.000          32.000
  23439030.669    23439030.060    23439027.319   123172962.214 5  95978942.750 4
        34.000          27.100
  21938750.773    21938750.429    21938749.521   115288927.619 7  89835530.846 5
        42.000          34.000
  24443634.560    24443634.629    24443632.848   128452223.153 2 100092655.772
        15.100           3.000
  22683203.209    22683202.475    22683201.329   119201050.092 6  92883941.768 5
        36.000          30.100
  21783805.176    21783804.192    21783799.978   114474761.674 7  89201138.089 6
        44.000          36.000
 11  1  1  1 11 30.0000000  0  8G14G31G11G19G24G18G32G22
  20510570.247    20510569.806    20510567.013   107783840.150 7  83987424.034 7
        45.000          47.000
  23609615.599    23609615.372    23609612.677   124069392.166 5  96677457.426 3
        31.000          23.000
  22090412.324    22090412.302    22090409.522   116085926.253 6  90456573.131 5
        39.000          31.000
  23455088.350    23455087.083    23455083.723   123257341.546 5  96044692.881 4
        34.000          27.100
  21925415.579    21925415.193    21925414.025   115218851.659 6  89780926.220 5
        41.000          34.000
  24460762.996    24460762.536    24460761.340   128542233.572 3 100162793.801
        19.300
  22669174.491    22669174.002    22669172.587   119127328.869 6  92826496.679 5
        37.000          30.100
  21796405.554    21796404.644    21796400.651   114540978.110 7  89252735.314 6
        44.000          36.000
 11  1  1  1 12  0.0000000  0  8G14G31G11G19G24G18G32G22
  20515315.403    20515315.009    20515312.234   107808776.627 7  84006855.064 7
        44.000          47.000
  23589317.097    23589317.423    23589314.440   123962726.553 5  96594341.353 3
        31.000          23.000
  22080124.290    22080124.138    22080121.209   116031860.886 6  90414444.286 5
        39.000          32.000
  23471196.370    23471195.153    23471191.848   123341990.109 5  96110652.790 4
        33.000          25.900
  21912150.692    21912150.440    21912149.483   115149143.770 7  89726608.392 5
        42.000          34.000
  24477909.822    24477909.041    24477907.364   128632336.169 2 100233003.632
        12.600
  22655177.987    22655177.374    22655176.127   119053776.648 6  92769183.284 4
        37.000          29.000
  21809050.718    21809049.599    21809045.687   114607427.231 7  89304513.852 6
        44.000          36.000
 11  1  1  1 12 30.0000000  0  8G14G31G11G19G24G18G32G22
  20520149.063    20520148.665    20520145.931   107834177.777 7  84026648.179 7
        45.000          47.000
  23569048.895    23569048.877    23569046.641   123856217.137 5  96511347.023 3
        30.100          23.800
  22069931.059    22069930.923    22069927.512   115978293.649 6  90372703.583 5
        40.000          31.000
  23487355.243    23487354.043    23487350.673   123426908.317 5  96176822.826 4
        32.000          24.900
  21898956.614    21898956.298    21898955.524   115079809.458 7  89672581.671 5
        42.000          34.000
  24495073.207    24495072.566    24495070.739   128722534.236 1 100303287.845
         9.000
  22641214.314    22641213.727    22641212.656   118980397.421 6  92712004.695 5
        38.000          30.100
  21821740.305    21821739.241    21821735.054   114674111.803 7  89356475.856 5
        44.000          35.100
 11  1  1  1 13  0.0000000  0  8G14G31G11G19G24G18G32G22
  20525071.286    20525070.961    20525068.347   107860045.214 7  84046804.630 7
        45.000          47.000
  23548811.528    23548811.949    23548809.387   123749869.752 5  96428478.943 3
        31.000          22.100
  22059832.883    22059832.759    22059829.943   115925229.212 6  90331354.692 5
        39.000          31.000
  23503565.451    23503564.548    23503561.444   123512096.461 5  96243203.196 3
        32.000          23.000
  21885834.849    21885834.590    21885833.662   115010853.750 7  89618849.954 5
        42.000          35.100
  24512254.729    24512254.327    24512253.463   128812829.768   100373647.969
         3.000
  22627284.168    22627283.646    22627282.350   118907194.727 6  92654963.665 5
        38.000          30.100
  21834474.995    21834474.175    21834470.214   114741034.127 7  89408623.127 5
        44.000          35.100
 11  1  1  1 13 30.0000000  0  8G14G31G11G19G24G18G32G22
  20530080.607    20530080.299    20530077.642   107886369.448 7  84067317.031 7
        45.000          47.000
  23528604.164    23528604.147    23528601.997   123643679.537 4  96345733.327 3
        29.000          22.100
  22049829.735    22049829.524    22049826.599   115872661.496 6  90290392.838 5
        39.000          31.000
  23519826.344    23519825.136    23519821.701   123597543.509 5  96309785.329 3
        33.000          23.000
  21872783.731    21872783.585    21872782.633   114942270.882 7  89565408.768 5
        42.000          34.000
  24529455.522    24529454.961    24529453.652   128903214.381 3 100444077.547
        19.300
  22613386.113    22613385.639    22613384.525   118834161.134 6  92598054.398 4
        37.000          29.000
  21847253.457    21847252.673    21847248.605   114808185.578 7  89460948.935 5
        44.000          35.100
 11  1  1  1 14  0.0000000  0  8G14G31G11G19G24G18G32G22
  20535177.625    20535177.195    20535174.550   107913153.786 7  84088187.952 7
        45.000          47.000
  23508428.490    23508428.089    23508425.550   123537654.048 4  96263116.089 3
        28.100          22.100
  22039922.173    22039921.905    22039919.070   115820596.820 6  90249822.979 5
        40.000          32.000
  23536135.904    23536134.849    23536131.653   123683250.742 5  96376570.195 4
        33.000          25.900
  21859805.267    21859804.970    21859804.228   114874067.383 7  89512263.193 5
        42.000          35.100
  24546672.899    24546672.484    24546671.058   128993691.990 2 100514579.578
        17.800
  22599521.677    22599520.919    22599519.800   118761301.884 6  92541280.983 5
        37.000          30.100
  21860076.535    21860075.510    21860071.383   114875570.016 7  89513456.289 5
        43.000          35.100
 11  1  1  1 14 30.0000000  0  8G14G31G11G19G24G18G32G22
  20540363.073    20540362.575    20540359.895   107940402.985 7  84109421.101 7
        45.000          47.000
  23488285.073    23488285.105    23488282.825   123431802.496 4  96180634.396 3
        28.100          23.000
  22030111.957    22030111.553    22030108.651   115769043.145 6  90209651.294 5
        40.000          32.000
  23552495.564    23552494.435    23552491.842   123769221.572 5  96443560.425 4
        33.000          28.100
  21846900.887    21846900.419    21846898.955   114806251.827 7  89459419.912 5
        42.000          34.000
  24563909.858    24563909.054    24563907.773   129084267.965 3 100585158.258
        19.300
  22585691.594    22585690.771    22585689.913   118688623.912 6  92484648.834 5
        38.000          31.000
  21872944.655    21872943.760    21872939.529   114943192.995 7  89566149.528 5
        44.000          35.100
 11  1  1  1 15  0.0000000  0  7G14G31G11G19G24G32G22
  20545632.824    20545632.436    20545629.713   107968096.235 7  84131000.266 7
        45.000          47.000
  23468172.618    23468172.548    23468170.138   123326108.437 4  96098275.431 4
        29.000          24.900
  22020395.180    22020394.908    22020392.352   115717982.454 6  90169863.755 5
        39.000          32.000
  23568901.401    23568900.178    23568897.064   123855433.559 5  96510738.579 4
        33.000          25.900
  21834066.330    21834065.822    21834064.669   114738806.638 7  89406865.221 5
        42.000          35.100
  22571892.114    22571891.264    22571890.465   118616108.242 6  92428143.147 5
        37.000          30.100
  21885854.309    21885853.248    21885849.145   115011034.384 7  89619012.954 5
        43.000          35.100
 11  1  1  1 15 30.0000000  0  7G14G31G11G19G24G32G22
  20550989.572    20550989.186    20550986.484   107996246.272 7  84152935.369 7
        44.000          47.000
  23448093.292    23448093.302    23448090.736   123220589.462 5  96016052.900 4
        32.000          27.100
  22010775.622    22010775.595    22010772.507   115667431.086 6  90130473.083 5
        40.000          31.000
  23585354.749    23585353.721    23585350.621   123941898.182 5  96578113.625 3
        32.000          23.000
  21821305.712    21821305.257    21821303.925   114671748.471 7  89354612.111 5
        43.000          35.100
  22558126.448    22558125.840    22558125.027   118543769.997 6  92371775.715 5
        37.000          31.000
  21898808.211    21898807.405    21898803.278   115079108.259 7  89672057.534 5
        43.000          35.100
 11  1  1  1 16  0.0000000  0  7G14G31G11G19G24G32G22
  20556434.215    20556433.887    20556431.161   108024858.248 7  84175230.425 7
        45.000          47.000
  23428048.689    23428048.679    23428046.300   123115254.919 5  95933974.087 4
        32.000          29.000
  22001254.533    22001254.382    22001251.079   115617397.202 6  90091485.637 5
        40.000          31.000
  23601856.667    23601855.610    23601852.883   124028618.768 5  96645688.116 3
        31.000          23.000
  21808619.935    21808619.426    21808618.543   114605085.840 7  89302667.213 5
        42.000          35.100
  22544395.786    22544395.311    22544394.859   118471616.332 6  92315552.106 5
        38.000          30.100
  21911807.875    21911806.842    21911802.740   115147420.218 7  89725287.637 5
        43.000          34.000
 11  1  1  1 16 30.0000000  0  7G14G31G11G19G24G32G22
  20561965.505    20561965.142    20561962.443   108053925.251 7  84197880.044 7
        44.000          46.000
  23408038.691    23408038.772    23408036.381   123010102.396 5  95852037.114 4
        31.000          28.100
  21991831.039    21991830.878    21991827.983   115567877.092 6  90052898.549 5
        40.000          31.000
  23618406.403    23618405.202    23618402.522   124115587.232 5  96713455.742 4
        30.100          24.900
  21796009.071    21796008.726    21796007.373   114538815.726 7  89251028.172 5
        43.000          34.000
  22530700.358    22530699.718    22530698.129   118399642.547 6  92259468.655 4
        39.000          29.000
  21924851.082    21924850.236    21924846.262   115215964.576 7  89778698.829 5
        42.000          34.000
 11  1  1  1 17  0.0000000  0  7G14G31G11G19G24G32G22
  20567582.410    20567581.984    20567579.314   108083442.331 7  84220880.376 7
        45.000          46.000
  23388062.774    23388063.273    23388061.149   122905131.623 5  95770241.784 4
        32.000          29.000
  21982505.102    21982504.953    21982502.013   115518869.093 6  90014710.502 5
        40.000          31.000
  23635002.994    23635001.011    23634998.351   124202797.308 5  96781411.609 4
        30.100          27.100
  21783472.727    21783472.426    21783471.581   114472936.817 7  89199693.965 6
        43.000          36.000
  22517037.685    22517037.029    22517035.804   118327845.824 6  92203523.184 5
        38.000          30.100
  21937937.965    21937937.146    21937933.306   115284736.970 7  89832287.710 5
        43.000          35.100
 11  1  1  1 17 30.0000000  0  7G14G31G11G19G24G32G22
  20573284.088    20573283.726    20573280.926   108113404.723 7  84244227.702 7
        45.000          46.000
  23368122.528    23368122.517    23368120.069   122800342.094 5  95688587.666 4
        32.000          27.100
  21973276.625    21973276.434    21973273.059   115470371.292 6  89976920.019 5
        41.000          31.000
  23651642.544    23651641.406    23651638.577   124290242.360 5  96849550.604 4
        33.000          24.900
  21771010.978    21771010.373    21771009.215   114407447.746 7  89148663.522 5
        43.000          35.100
  22503408.350    22503407.705    22503406.284   118256223.428 6  92147713.550 5
        38.000          30.100
  21951067.928    21951066.887    21951062.853   115353733.595 7  89886051.318 5
        43.000          34.000
 11  1  1  1 18  0.0000000  0  7G14G31G11G19G24G32G22
  20579071.008    20579070.735    20579068.021   108143815.973 7  84267924.786 7
        45.000          46.000
  23348217.909    23348217.643    23348214.991   122695741.489 5  95607080.751 3
        31.000          23.800
  21964146.001    21964145.859    21964142.619   115422390.235 6  89939532.185 5
        40.000          32.000
  23668327.637    23668326.291    23668323.653   124377924.278 5  96917874.191 3
        31.000          23.000
  21758624.231    21758623.731    21758622.445   114342355.529 7  89097942.322 5
        43.000          35.100
  22489813.522    22489812.670    22489811.124   118184780.768 6  92092043.957 5
        39.000          30.100
  21964240.895    21964239.985    21964235.908   115422958.728 7  89939992.979 5
        43.000          34.000
 11  1  1  1 18 30.0000000  0  7G14G31G11G19G24G32G22
  20584943.191    20584942.867    20584940.135   108174674.384 7  84291970.309 7
        45.000          46.000
  23328348.523    23328348.688    23328346.524   122591333.182 4  95525723.683 4
        29.000          24.900
  21955114.186    21955113.983    21955110.801   115374927.560 6  89902548.287 5
        41.000          32.000
  23685056.657    23685055.292    23685053.465   124465840.220 4  96986380.111 3
        29.000          23.800
  21746313.071    21746312.682    21746311.924   114277662.107 7  89047531.865 5
        43.000          35.100
  22476252.454    22476251.675    22476250.933   118113518.545 6  92036514.964 5
        39.000          32.000
  21977457.641    21977456.540    21977452.357   115492411.491 7  89994112.010 5
        43.000          34.000
 11  1  1  1 19  0.0000000  0  7G14G31G11G19G24G32G22
  20590899.978    20590899.563    20590896.830   108205977.182 7  84316362.106 7
        45.000          46.000
  23308516.954    23308517.365    23308515.641   122487118.861 5  95444517.788 4
        30.100          24.900
  21946180.690    21946180.625    21946177.924   115327983.661 6  89865968.621 5
        40.000          32.000
  23701830.875    23701829.866    23701826.757   124553985.875 5  97055065.012 4
        31.000          24.900
  21734078.563    21734078.125    21734077.241   114213368.466 7  88997432.934 6
        43.000          36.000
  22462725.898    22462725.343    22462724.326   118042436.247 6  91981126.192 5
        39.000          32.000
  21990716.621    21990715.850    21990711.820   115562090.142 7  90048407.067 5
        43.000          35.100
 11  1  1  1 19 30.0000000  0  7G14G31G11G19G24G32G22
  20596942.180    20596941.763    20596939.024   108237729.009 7  84341103.797 7
        45.000          46.000
  23288724.102    23288724.873    23288722.497   122383107.779 5  95363470.263 4
        31.000          25.900
  21937347.887    21937347.656    21937345.137   115281566.222 6  89829799.202 5
        40.000          33.000
  23718649.349    23718648.084    23718645.149   124642364.404 5  97123931.391 4
        32.000          25.900
  21721921.551    21721921.146    21721920.345   114149483.081 7  88947652.121 6
        43.000          36.000
  22449235.028    22449234.320    22449233.175   117971540.773 6  91925882.982 5
        39.000          31.000
  22004020.599    22004019.495    22004015.406   115632000.264 7  90102882.477 5
        42.000          35.100
 11  1  1  1 20  0.0000000  0  7G14G31G11G19G24G32G22
  20603067.931    20603067.544    20603064.723   108269919.822 7  84366187.556 7
        45.000          46.000
  23268969.983    23268970.043    23268967.382   122279294.188 5  95282576.595 4
        33.000          25.900
  21928614.426    21928614.034    21928610.861   115235668.726 6  89794034.924 5
        40.000          32.000
  23735508.851    23735508.004    23735505.018   124730964.209 5  97192970.186 3
        33.000          23.800
  21709840.751    21709840.371    21709839.440   114085999.072 7  88898184.067 6
        43.000          36.000
  22435778.040    22435777.335    22435776.443   117900823.956 6  91870779.006 5
        39.000          32.000
  22017366.004    22017365.075    22017360.935   115702132.473 7  90157530.948 5
        42.000          34.000
 11  1  1  1 20 30.0000000  0  7G14G31G11G19G24G32G22
  20609277.633    20609277.160    20609274.323   108302551.537 7  84391614.869 7
        45.000          46.000
  23249254.145    23249253.930    23249251.126   122175684.583 5  95201841.881 4
        34.000          25.900
  21919979.718    21919979.542    21919976.389   115190295.386 6  89758679.069 5
        41.000          32.000
  23752411.364    23752409.969    23752407.034   124819785.995 5  97262181.969 3
        32.000          23.000
  21697837.880    21697837.494    21697836.300   114022922.199 7  88849033.262 6
        43.000          36.000
  22422355.850    22422355.128    22422354.043   117830290.140 6  91815817.619 5
        39.000          31.000
  22030754.682    22030753.700    22030749.616   115772489.468 7  90212354.571 5
        42.000          34.000
 11  1  1  1 21  0.0000000  0  7G14G31G11G19G24G32G22
  20615571.084    20615570.753    20615568.007   108335625.091 7  84417386.480 7
        45.000          46.000
  23229577.712    23229577.576    23229574.726   122072284.421 5  95121270.368 4
        34.000          28.100
  21911445.962    21911445.814    21911442.580   115145450.486 6  89723734.987 5
        41.000          32.000
  23769354.952    23769353.761    23769351.302   124908828.955 5  97331566.095 3
        30.100          23.800
  21685913.001    21685912.544    21685911.555   113960257.024 7  88800203.265 6
        43.000          36.000
  22408969.233    22408968.323    22408967.355   117759942.283 6  91761001.147 5
        39.000          32.000
  22044186.088    22044185.167    22044181.283   115843073.509 7  90267355.116 5
        42.000          34.000
 11  1  1  1 21 30.0000000  0  7G14G31G11G19G24G32G22
  20621947.392    20621946.929    20621944.159   108369132.214 7  84443495.933 7
        45.000          46.000
  23209940.180    23209940.016    23209937.791   121969090.141 5  95040859.284 4
        33.000          29.000
  21903011.577    21903011.478    21903008.774   115101128.926 6  89689198.711 5
        40.000          33.000
  23786340.832    23786339.136    23786336.201   124998083.433 5  97401115.015 3
        31.000          23.800
  21674066.020    21674065.472    21674064.177   113897998.977 7  88751690.504 6
        44.000          36.000
  22395616.765    22395616.091    22395614.667   117689774.449 6  91706324.934 5
        40.000          31.000
  22057659.826    22057658.796    22057654.818   115913877.244 7  90322526.848 5
        42.000          34.000
 11  1  1  1 22  0.0000000  0  7G14G31G11G19G24G32G22
  20628405.828    20628405.498    20628402.796   108403072.495 7  84469942.912 7
        45.000          46.000
  23190342.562    23190342.832    23190340.387   121866105.708 5  94960611.731 5
        33.000          30.100
  21894677.646    21894677.540    21894674.841   115057333.148 6  89655072.141 5
        41.000          33.000
  23803365.495    23803363.959    23803360.876   125087547.623 5  97470827.371 4
        31.000          25.900
  21662296.671    21662296.199    21662295.094   113836151.145 7  88703497.396 6
        44.000          36.000
  22382298.877    22382298.103    22382296.796   117619788.416 6  91651790.386 5
        40.000          31.000
  22071174.994    22071174.107    22071170.086   115984900.914 6  90377869.960 5
        41.000          34.000
 11  1  1  1 22 30.0000000  0  7G14G31G11G19G24G32G22
  20634948.426    20634947.947    20634945.162   108437453.109 7  84496733.010 7
        45.000          45.000
  23170787.135    23170787.229    23170785.040   121763342.605 5  94880536.643 4
        31.000          28.100
  21886445.868    21886445.615    21886442.390   115014073.527 6  89621363.335 5
        41.000          32.000
  23820430.321    23820429.186    23820426.599   125177227.109 5  97540707.448 4
        30.100          25.900
  21650607.385    21650606.946    21650605.726   113774724.110 7  88655632.174 6
        44.000          36.000
  22369016.883    22369016.112    22369015.150   117549993.318 6  91597404.605 5
        40.000          32.000
  22084733.638    22084732.800    22084728.953   116056152.711 6  90433390.839 5
        41.000          34.000
 11  1  1  1 23  0.0000000  0  7G14G31G11G19G24G32G22
  20641573.548    20641573.042    20641570.170   108472268.334 7  84523861.761 7
        45.000          45.000
  23151274.123    23151274.091    23151271.692   121660800.110 5  94800633.447 4
        31.000          27.100
  21878315.238    21878315.083    21878312.221   114971347.556 6  89588070.377 5
        41.000          33.000
  23837535.330    23837533.926    23837531.820   125267115.094 4  97610749.994 4
        28.100          25.900
  21638998.192    21638997.731    21638996.497   113713716.133 7  88608093.498 6
        44.000          36.000
  22355771.270    22355770.472    22355769.157   117480386.017 6  91543165.168 5
        40.000          31.000
  22098334.888    22098334.113    22098330.358   116127627.913 6  90489085.787 5
        41.000          34.000
 11  1  1  1 23 30.0000000  0  7G14G31G11G19G24G32G22
  20648281.072    20648280.654    20648277.682   108507516.571 7  84551327.926 7
        45.000          45.000
  23131803.487    23131803.642    23131800.907   121558481.161 5  94720904.430 4
        33.000          28.100
  21870286.897    21870286.580    21870283.418   114929156.300 6  89555194.079 5
        41.000          33.000
  23854679.464    23854678.055    23854675.342   125357208.357 4  97680952.522 3
        28.100          19.900
  21627468.458    21627468.024    21627467.217   113653129.094 7  88560882.825 6
        44.000          36.000
  22342561.268    22342560.470    22342559.343   117410967.042 6  91489072.476 5
        40.000          32.000
  22111978.570    22111977.749    22111973.810   116199325.710 6  90544954.195 5
        41.000          34.000
 11  1  1  1 24  0.0000000  0  7G14G31G11G19G24G32G22
  20655069.351    20655068.908    20655066.047   108543189.164 7  84579124.762 7
        45.000          45.000
  23112374.698    23112374.948    23112371.761   121456382.070 5  94641346.733 4
        33.000          28.100
  21862358.906    21862358.616    21862355.457   114887494.800 6  89522730.579 5
        41.000          33.000
  23871861.310    23871859.860    23871856.653   125447497.365 5  97751307.612 3
        30.100          21.100
  21616018.259    21616017.982    21616016.822   113592958.343 7  88513996.537 6
        44.000          36.000
  22329385.557    22329384.965    22329384.134   117341730.436 6  91435121.914 5
        39.000          33.000
  22125663.522    22125662.434    22125658.447   116271238.839 6  90600990.396 5
        41.000          33.000
 11  1  1  1 24 30.0000000  0  7G14G31G11G19G24G32G22
  20661939.169    20661938.821    20661935.948   108579290.842 7  84607255.946 7
        45.000          45.000
  23092989.460    23092989.457    23092986.596   121354511.398 5  94561967.034 4
        34.000          27.100
  21854533.194    21854532.875    21854529.735   114846370.072 6  89490685.336 5
        41.000          33.000
  23889079.812    23889078.983    23889076.128   125537984.751 4  97821817.266 3
        28.100          22.100
  21604648.843    21604648.448    21604647.505   113533211.640 7  88467440.670 6
        44.000          37.000
  22316246.418    22316245.684    22316244.838   117272682.618 6  91381318.434 5
        40.000          33.000
  22139389.716    22139389.082    22139384.717   116343372.501 6  90657198.442 5
        41.000          33.000
 11  1  1  1 25  0.0000000  0  7G14G31G11G19G24G32G22
  20668889.963    20668889.652    20668886.795   108615817.834 7  84635718.547 7
        45.000          45.000
  23073647.887    23073647.524    23073644.620   121252870.180 5  94482766.110 4
        34.000          27.100
  21846809.074    21846809.032    21846805.887   114805781.828 6  89459058.134 5
        41.000          33.000
  23906335.803    23906334.459    23906331.813   125628665.465 4  97892477.538 3
        27.100          19.900
  21593360.223    21593359.810    21593358.571   113473888.878 7  88421215.143 6
        44.000          36.000
  22303142.722    22303142.042    22303141.387   117203822.230 6  91327661.023 5
        40.000          33.000
  22153158.382    22153157.293    22153152.884   116415724.271 6  90713576.442 5
        41.000          33.000
 11  1  1  1 25 30.0000000  0  7G14G31G11G19G24G32G22
  20675921.933    20675921.565    20675918.797   108652771.029 7  84664513.254 7
        45.000          45.000
  23054350.793    23054350.760    23054347.803   121151464.381 5  94403748.636 4
        35.100          28.100
  21839188.526    21839188.144    21839185.197   114765733.814 6  89427851.891 5
        41.000          33.000
  23923629.115    23923627.530    23923624.342   125719539.281 4  97963288.276 3
        29.000          19.300
  21582153.320    21582152.831    21582151.627   113414994.752 7  88375323.629 6
        44.000          37.000
  22290075.510    22290074.744    22290073.444   117135152.703 6  91274152.326 5
        40.000          32.000
  22166967.904    22166967.017    22166962.761   116488295.848 6  90770125.723 5
        41.000          32.000
 11  1  1  1 26  0.0000000  0  7G14G31G11G19G24G32G22
  20683034.786    20683034.401    20683031.603   108690149.092 7  84693639.023 7
        45.000          45.000
  23035098.576    23035098.912    23035096.307   121050296.505 5  94324916.552 4
        34.000          28.100
  21831670.521    21831670.276    21831667.363   114726227.243 6  89397067.549 5
        41.000          33.000
  23940957.521    23940956.342    23940953.215   125810602.854 5  98034246.909 3
        30.100          19.300
  21571027.873    21571027.412    21571026.201   113356531.280 7  88329767.683 6
        44.000          37.000
  22277044.550    22277043.798    22277042.809   117066674.386 6  91220792.616 5
        40.000          34.000
  22180819.558    22180818.615    22180814.661   116561086.467 6  90826845.685 5
        41.000          33.000
 11  1  1  1 26 30.0000000  0  7G14G31G11G19G24G32G22
  20690227.888    20690227.408    20690224.552   108727948.353 7  84723092.997 7
        45.000          45.000
  23015892.839    23015892.922    23015890.377   120949368.161 5  94246271.132 5
        34.000          30.100
  21824255.452    21824255.459    21824252.482   114687261.983 6  89366705.020 5
        41.000          33.000
  23958321.782    23958320.538    23958317.532   125901851.995 5  98105350.164 3
        31.000          19.900
  21559984.876    21559984.395    21559983.357   113298499.063 7  88284547.787 6
        45.000          37.000
  22264049.650    22264048.904    22264047.732   116998386.635 6  91167581.409 5
        41.000          33.000
  22194712.727    22194711.727    22194707.504   116634094.253 6  90883734.868 5
        41.000          33.000
 11  1  1  1 27  0.0000000  0  7G14G31G11G19G24G32G22
  20697500.657    20697500.209    20697497.463   108766167.773 7  84752874.371 7
        45.000          45.000
  22996733.189    22996733.142    22996730.505   120848682.763 5  94167815.028 5
        34.000          30.100
  21816943.743    21816943.765    21816941.039   114648840.048 6  89336765.850 5
        41.000          33.000
  23975719.769    23975718.956    23975716.935   125993284.026 4  98176595.896 3
        28.100          23.800
  21549023.750    21549023.494    21549022.546   113240900.431 7  88239665.742 6
        45.000          37.000
  22251091.030    22251090.379    22251089.541   116930290.600 6  91114519.574 5
        40.000          33.000
  22208646.854    22208645.890    22208641.608   116707318.640 6  90940792.826 5
        41.000          33.000
 11  1  1  1 27 30.0000000  0  7G14G31G11G19G24G32G22
  20704853.485    20704853.255    20704850.595   108804808.631 7  84782984.136 7
        45.000          45.000
  22977620.594    22977620.800    22977617.952   120748246.285 5  94089552.864 5
        34.000          30.100
  21809737.061    21809736.841    21809733.785   114610965.320 7  89307253.073 5
        42.000          33.000
  23993154.091    23993152.888    23993151.117   126084898.746 4  98247983.941 4
        27.100          25.900
  21538146.829    21538146.478    21538145.422   113183740.396 7  88195125.455 6
        45.000          37.000
  22238170.417    22238169.538    22238168.321   116862389.809 6  91061609.894 5
        41.000          32.000
  22222622.486    22222621.647    22222617.621   116780762.104 6  90998021.500 5
        41.000          33.000
 11  1  1  1 28  0.0000000  0  7G14G31G11G19G24G32G22
  20712287.601    20712287.259    20712284.638   108843874.283 7  84813424.908 7
        45.000          45.000
  22958557.009    22958556.976    22958554.378   120648065.876 5  94011490.252 5
        34.000          30.100
  21802634.805    21802634.561    21802631.607   114573643.648 6  89278171.248 5
        41.000          34.000
  24010623.546    24010621.924    24010619.525   126176697.899 4  98319515.711 3
        29.000          23.800
  21527354.329    21527353.821    21527352.999   113127025.325 7  88150931.903 6
        45.000          37.000
  22225287.284    22225286.499    22225285.399   116794689.409 6  91008856.364 5
        40.000          33.000
  22236640.748    22236639.870    22236635.864   116854428.545 6  91055423.915 5
        40.000          33.000
 11  1  1  1 28 30.0000000  0  7G14G31G11G19G24G32G22
  20719799.327    20719798.841    20719796.168   108883347.857 7  84844183.544 7
        45.000          45.000
  22939540.455    22939540.201    22939537.202   120548130.329 5  93933618.443 5
        35.100          31.000
  21795635.265    21795635.307    21795632.437   114536862.133 7  89249510.336 5
        42.000          34.000
  24028124.001    24028122.638    24028119.908   126268663.699 4  98391177.364 3
        28.100          21.100
  21516644.059    21516643.612    21516642.631   113070742.687 7  88107075.310 6
        45.000          37.000
  22212439.963    22212439.258    22212438.052   116727175.662 6  90956248.268 5
        41.000          33.000
  22250698.482    22250697.584    22250693.439   116928302.805 6  91112988.267 5
        40.000          33.000
 11  1  1  1 29  0.0000000  0  7G14G31G11G19G24G32G22
  20727390.491    20727390.136    20727387.459   108923240.775 7  84875268.940 7
        45.000          45.000
  22920572.508    22920572.602    22920569.714   120448455.423 5  93855949.729 5
        35.100          30.100
  21788741.517    21788741.529    21788738.688   114500634.632 7  89221281.123 5
        42.000          34.000
  24045656.590    24045655.989    24045653.860   126360805.947 3  98462976.526 3
        23.800          19.300
  21506018.912    21506018.529    21506017.283   113014907.272 7  88063567.199 6
        45.000          37.000
  22199630.667    22199629.885    22199628.329   116659862.034 6  90903796.116 5
        41.000          33.000
  22264797.858    22264797.047    22264793.307   117002396.919 6  91170723.942 5
        40.000          33.000
 11  1  1  1 29 30.0000000  0  7G14G31G11G19G24G32G22
  20735056.692    20735056.406    20735053.666   108963526.908 7  84906660.738 7
        45.000          44.000
  22901650.689    22901650.418    22901647.493   120349019.574 5  93778467.279 4
        35.100          29.000
  21781948.729    21781948.521    21781945.551   114464937.958 6  89193465.534 5
        41.000          34.000
  24063219.127    24063218.456    24063216.007   126453097.352 4  98534891.886 3
        25.900          19.300
  21495474.779    21495474.264    21495473.015   112959496.487 7  88020389.966 6
        45.000          37.000
  22186854.899    22186853.978    22186852.515   116592724.732 6  90851481.363 5
        41.000          33.000
  22278934.790    22278933.892    22278930.143   117076685.918 6  91228611.470 5
        40.000          33.000
 11  1  1  1 30  0.0000000  0  7G14G31G11G19G24G32G22
  20742802.426    20742802.036    20742799.349   109004230.884 7  84938378.129 7
        45.000          45.000
  22882779.510    22882779.474    22882776.345   120249852.047 5  93701193.898 4
        35.100          29.000
  21775262.338    21775262.058    21775258.856   114429799.537 7  89166084.941 5
        42.000          34.000
  24080815.685    24080814.241    24080811.670   126545561.198 4  98606941.645 3
        27.100          21.100
  21485016.630    21485016.142    21485014.899   112904538.890 7  87977565.867 6
        45.000          37.000
  22174117.261    22174116.609    22174115.345   116525790.821 6  90799325.084 5
        41.000          33.000
  22293113.895    22293112.802    22293108.602   117151195.415 6  91286670.813 5
        40.000          32.000
 11  1  1  1 30 30.0000000  0  7G14G31G11G19G24G32G22
  20750626.031    20750625.613    20750622.907   109045344.232 7  84970414.509 7
        45.000          44.000
  22863958.152    22863958.376    22863955.830   120150948.843 5  93624126.494 5
        34.000          30.100
  21768680.812    21768680.663    21768677.385   114395213.771 6  89139134.997 5
        41.000          34.000
  24098442.381    24098440.914    24098438.137   126638187.296 5  98679117.816 3
        30.100          23.800
  21474643.802    21474643.184    21474641.887   112850029.129 7  87935090.731 6
        45.000          37.000
  22161417.397    22161416.966    22161415.822   116459054.001 6  90747322.385 5
        41.000          34.000
  22307332.873    22307331.961    22307327.932   117225917.712 6  91344895.967 5
        40.000          32.000
 11  1  1  1 31  0.0000000  0  7G14G31G11G19G24G32G22
  20758527.292    20758526.882    20758524.111   109086865.357 7  85002768.641 7
        45.000          44.000
  22845188.398    22845188.680    22845186.238   120052313.053 5  93547267.461 5
        35.100          31.000
  21762204.669    21762204.541    21762201.425   114361181.866 7  89112616.621 5
        42.000          33.000
  24116098.510    24116097.316    24116095.146   126730973.100 5  98751418.426 4
        30.100          25.900
  21464356.095    21464355.766    21464354.898   112795969.099 7  87892966.041 6
        45.000          37.000
  22148755.780    22148755.257    22148753.991   116392515.036 7  90695473.850 5
        42.000          34.000
  22321592.344    22321591.373    22321587.231   117300852.160 6  91403286.445 5
        39.000          32.000
 11  1  1  1 31 30.0000000  0  7G14G31G11G19G24G32G22
  20766505.527    20766505.122    20766502.422   109128791.577 7  85035438.434 7
        45.000          44.000
  22826470.383    22826470.226    22826467.901   119953946.904 5  93470618.540 5
        35.100          31.000
  21755833.954    21755833.834    21755830.972   114327704.240 6  89086530.158 5
        41.000          34.000
  24133784.911    24133783.575    24133780.989   126823914.702 4  98823840.439 3
        27.100          23.000
  21454154.908    21454154.494    21454153.412   112742359.990 7  87851192.713 6
        45.000          37.000
  22136131.631    22136130.923    22136129.725   116326173.869 7  90643779.463 5
        42.000          34.000
  22335892.214    22335891.088    22335886.904   117375997.685 6  91461841.402 5
        40.000          31.000
 11  1  1  1 32  0.0000000  0  7G14G31G11G19G24G32G22
  20774561.862    20774561.485    20774558.831   109171127.854 7  85068427.745 7
        45.000          44.000
  22807804.934    22807804.982    22807802.504   119855859.735 6  93394187.007 5
        36.000          31.000
  21749570.266    21749570.144    21749567.286   114294788.156 7  89060881.268 5
        42.000          34.000
  24151500.082    24151499.137    24151497.115   126917015.541 4  98896386.505 3
        24.900          21.100
  21444040.877    21444040.464    21444039.135   112689210.463 7  87809777.501 6
        45.000          37.000
  22123546.290    22123545.572    22123544.464   116260037.819 7  90592244.899 5
        42.000          34.000
  22350232.913    22350232.026    22350228.188   117451359.823 6  91520565.138 5
        39.000          32.000
 11  1  1  1 32 30.0000000  0  7G14G31G11G19G24G32G22
  20782692.953    20782692.673    20782690.083   109213857.725 7  85101723.756 7
        45.000          44.000
  22789190.221    22789190.666    22789187.884   119758040.048 6  93317963.889 5
        36.000          31.000
  21743410.952    21743410.805    21743407.926   114262420.768 7  89035659.926 5
        42.000          34.000
  24169244.994    24169243.233    24169239.719   127010258.299 4  98969043.165 1
        25.900           9.000
  21434011.849    21434011.507    21434010.297   112636507.962 7  87768710.616 6
        45.000          37.000
  22110997.452    22110996.704    22110995.618   116194092.955 7  90540859.312 5
        42.000          34.000
  22364612.290    22364611.472    22364607.216   117526923.531 6  91579445.944 5
        39.000          32.000
 11  1  1  1 33  0.0000000  0  7G14G31G11G19G24G32G22
  20790902.313    20790901.869    20790899.343   109256997.776 7  85135339.388 7
        45.000          44.000
  22770631.352    22770631.287    22770628.218   119660508.911 6  93241965.617 5
        36.000          31.000
  21737359.715    21737359.602    21737356.369   114230620.738 7  89010880.683 5
        42.000          33.000
  24187018.297    24187016.705    24187013.338   127103657.898 4  99041822.125 1
        28.100          11.000
  21424071.850    21424071.462    21424070.315   112584272.464 7  87728007.636 6
        45.000          37.000
  22098488.684    22098487.817    22098486.800   116128358.186 7  90489637.429 5
        42.000          34.000
  22379033.268    22379032.235    22379028.412   117602706.410 6  91638497.527 5
        39.000          32.000
 11  1  1  1 33 30.0000000  0  7G14G31G11G19G24G32G22
  20799185.138    20799184.738    20799182.151   109300524.310 7  85169256.176 7
        45.000          44.000
  22752123.072    22752122.886    22752120.145   119563247.080 6  93166177.204 5
        36.000          31.000
  21731412.216    21731412.129    21731409.079   114199367.183 7  88986527.250 5
        42.000          34.000
  24204815.867    24204815.006    24204811.941   127197189.009 4  99114703.531 2
        29.000          16.100
  21414216.787    21414216.282    21414215.244   112532483.572 7  87687652.658 6
        45.000          38.000
  22086015.748    22086014.871    22086013.640   116062812.101 7  90438562.573 5
        42.000          34.000
  22393491.979    22393490.789    22393486.775   117678685.631 6  91697702.099 5
        39.000          32.000
 11  1  1  1 34  0.0000000  0  7G14G31G11G19G24G32G22
  20807545.258    20807544.945    20807542.334   109344457.663 7  85203489.962 7
        45.000          44.000
  22733670.275    22733670.485    22733667.788   119466279.524 6  93090618.086 5
        36.000          31.000
  21725573.402    21725573.240    21725570.373   114168683.771 7  88962618.098 5
        42.000          34.000
  24222643.636    24222642.557    24222639.304   127290871.155 4  99187702.604 2
        28.100          15.100
  21404451.083    21404450.737    21404449.751   112481165.071 7  87647664.223 6
        45.000          38.000
  22073583.037    22073582.190    22073580.759   115997477.404 7  90387652.435 5
        42.000          34.000
  22407991.083    22407990.340    22407986.627   117754882.440 6  91757076.230 5
        39.000          32.000
 11  1  1  1 34 30.0000000  0  7G14G31G11G19G24G32G22
  20815979.620    20815979.310    20815976.624   109388780.572 7  85238027.299 7
        45.000          43.000
  22715271.707    22715271.516    22715268.810   119369593.642 6  93015278.451 5
        37.000          31.000
  21719840.227    21719840.105    21719837.179   114138555.625 7  88939141.623 5
        42.000          34.000
  24240495.366    24240494.487    24240492.249   127384685.642 4  99260804.810 3
        24.900          19.900
  21394772.427    21394772.054    21394770.845   112430303.336 7  87608031.709 6
        45.000          38.000
  22061187.170    22061186.545    22061185.314   115932339.233 7  90336895.440 5
        42.000          34.000
  22422529.609    22422528.713    22422524.741   117831280.848 6  91816607.443 5
        39.000          32.000
 11  1  1  1 35  0.0000000  0  7G14G31G11G19G24G32G22
  20824488.814    20824488.363    20824485.572   109433495.435 7  85272870.055 7
        45.000          43.000
  22696927.680    22696927.849    22696925.320   119273196.964 6  92940164.168 5
        36.000          31.000
  21714213.817    21714213.609    21714210.553   114108988.321 7  88916102.162 5
        42.000          34.000
  24258372.644    24258371.935    24258370.190   127478633.806 4  99334011.130 4
        24.900          24.900
  21385181.907    21385181.481    21385180.220   112379904.551 7  87568759.932 6
        46.000          38.000
  22048829.963    22048829.470    22048828.216   115867402.847 7  90286295.669 5
        42.000          34.000
  22437106.933    22437105.881    22437102.099   117907884.286 6  91876298.423 5
        39.000          32.000
 11  1  1  1 35 30.0000000  0  7G14G31G11G19G24G32G22
  20833072.381    20833071.949    20833069.118   109478602.491 7  85308018.419 7
        45.000          43.000
  22678639.535    22678640.064    22678637.296   119177094.038 6  92865278.788 5
        37.000          31.000
  21708694.391    21708694.347    21708691.121   114079984.713 7  88893501.942 5
        42.000          34.000
  24276276.489    24276275.074    24276272.595   127572714.774 4  99407320.936 3
        24.900          23.000
  21375680.308    21375679.828    21375678.770   112329972.857 7  87529852.121 6
        46.000          38.000
  22036512.114    22036511.473    22036510.173   115802671.013 7  90235855.293 5
        42.000          35.100
  22451723.493    22451722.340    22451718.363   117984694.314 6  91936150.388 5
        39.000          31.000
 11  1  1  1 36  0.0000000  0  7G14G31G11G19G24G32G22
  20841729.927    20841729.466    20841726.758   109524098.588 7  85343469.928 7
        45.000          43.000
  22660408.771    22660408.489    22660405.841   119081286.458 6  92790623.543 5
        37.000          32.000
  21703282.442    21703282.223    21703279.510   114051544.106 7  88871340.422 5
        42.000          34.000
  24294203.452    24294202.251    24294200.378   127666923.585 3  99480730.381 3
        23.800          23.000
  21366267.502    21366267.123    21366266.057   112280508.274 7  87491308.300 6
        46.000          39.000
  22024232.946    22024232.135    22024230.944   115738142.544 7  90185573.389 5
        42.000          35.100
  22466378.606    22466377.491    22466373.414   118061708.561 6  91996161.491 5
        38.000          31.000
 11  1  1  1 36 30.0000000  0  7G14G31G11G19G24G32G22
  20850461.057    20850460.534    20850457.827   109569980.540 7  85379222.107 7
        45.000          43.000
  22642233.119    22642233.454    22642230.589   118985775.523 6  92716199.457 5
        37.000          32.000
  21697977.532    21697977.266    21697974.666   114023665.872 7  88849617.126 5
        42.000          34.000
  24312153.735    24312152.535    24312151.517   127761255.949 3  99554236.080 3
        23.000          23.800
  21356943.609    21356943.192    21356942.041   112231511.201 7  87453128.764 6
        46.000          39.000
  22011991.933    22011991.319    22011990.219   115673816.799 7  90135449.445 5
        42.000          35.100
  22481072.467    22481071.605    22481067.594   118138925.049 6  92056330.176 5
        39.000          31.000
 11  1  1  1 37  0.0000000  0  8G14G20G31G11G19G24G32G22
  20859266.645    20859266.299    20859263.555   109616255.018 7  85415280.146 7
        45.000          43.000
  24222332.211    24222331.486    24222330.750   127289254.742 1  99186444.243
         6.500
  22624116.902    22624117.032    22624114.203   118890572.587 6  92642015.361 5
        37.000          32.000
  21692781.011    21692780.960    21692778.219   113996359.458 7  88828339.403 5
        42.000          35.100
  24330130.014    24330129.150    24330126.686   127855717.607 4  99627842.524 3
        25.900          23.000
  21347710.926    21347710.414    21347709.177   112182991.770 7  87415321.416 6
        46.000          38.000
  21999791.666    21999791.070    21999789.657   115609702.955 7  90085490.620 5
        43.000          35.100
  22495806.011    22495805.129    22495800.851   118216351.127 6  92116662.172 4
        38.000          29.000
 11  1  1  1 37 30.0000000  0  8G14G20G31G11G19G24G32G22
  20868146.625    20868146.191    20868143.476   109662919.289 7  85451641.918 7
        45.000          43.000
  24203508.575    24203508.648    24203507.246   127190337.581 2  99109365.958
        12.600
  22606059.046    22606059.521    22606056.707   118795679.610 6  92568072.800 5
        38.000          33.000
  21687693.781    21687693.771    21687690.656   113969625.092 7  88807507.423 5
        42.000          34.000
  24348129.743    24348128.606    24348125.713   127950304.426 4  99701546.512 3
        27.100          21.100
  21338568.826    21338568.326    21338567.035   112134950.967 7  87377887.029 6
        46.000          38.000
  21987631.397    21987630.739    21987629.386   115545800.932 7  90035696.853 5
        43.000          35.100
  22510579.528    22510578.476    22510574.284   118293985.429 6  92177156.430 4
        37.000          29.000
 11  1  1  1 38  0.0000000  0  8G14G20G31G11G19G24G32G22
  20877099.459    20877099.153    20877096.420   109709967.365 7  85488302.760 7
        45.000          43.000
  24184695.688    24184695.342    24184693.621   127091476.133 2  99032331.129
        13.900
  22588060.504    22588060.334    22588057.818   118701095.040 6  92494370.564 5
        37.000          33.000
  21682714.539    21682714.546    21682711.483   113943459.066 7  88787118.304 5
        42.000          34.000
  24366151.634    24366150.504    24366147.470   128045008.911 4  99775342.185 1
        29.000           6.500
  21329517.536    21329517.055    21329515.855   112087386.032 7  87340823.447 6
        46.000          38.000
  21975510.469    21975509.974    21975508.767   115482106.773 7  89986065.051 5
        43.000          35.100
  22525391.315    22525390.473    22525386.533   118371822.920 6  92237809.013 5
        37.000          31.000
 11  1  1  1 38 30.0000000  0  8G14G20G31G11G19G24G32G22
  20886124.483    20886124.061    20886121.273   109757393.589 7  85525258.267 7
        45.000          43.000
  24165892.122    24165892.727    24165891.384   126992667.665    98955337.572
         3.000
  22570119.437    22570119.983    22570117.266   118606817.880 6  92420907.867 5
        37.000          33.000
  21677842.901    21677842.797    21677839.764   113917858.509 7  88767169.818 5
        42.000          34.000
  24384194.171    24384192.828    24384192.337   128139824.211 4  99849224.288
        29.000
  21320556.389    21320555.872    21320554.779   112040294.914 7  87304129.077 6
        46.000          38.000
  21963429.328    21963428.598    21963426.930   115418617.610 7  89936592.990 5
        43.000          35.100
  22540240.809    22540239.961    22540235.914   118449859.120 6  92298616.427 4
        37.000          29.000
 11  1  1  1 39  0.0000000  0  8G14G20G31G11G19G24G32G22
  20895221.779    20895221.216    20895218.369   109805199.072 7  85562509.295 7
        45.000          42.000
  24147099.861    24147100.425    24147098.540   126893916.020    98878388.268
         3.000
  22552239.197    22552239.340    22552236.510   118512854.327 6  92347689.540 5
        37.000          32.000
  21673079.720    21673079.562    21673076.526   113892827.224 7  88747664.923 5
        42.000          34.000
  24402257.289    24402256.141    24402254.939   128234750.644 4  99923192.991 1
        24.900           9.000
  21311686.393    21311685.867    21311684.880   111993682.470 7  87267807.699 6
        46.000          39.000
  21951387.592    21951386.814    21951385.342   115355337.323 7  89887283.703 5
        43.000          35.100
  22555129.061    22555128.192    22555124.188   118528096.654 6  92359580.733 5
        37.000          30.100
 11  1  1  1 39 30.0000000  0  7G14G31G11G19G24G32G22
  20904390.932    20904390.580    20904387.961   109853385.025 7  85600056.798 7
        45.000          43.000
  22534419.074    22534419.366    22534416.704   118419209.974 6  92274719.942 5
        37.000          33.000
  21668425.618    21668425.405    21668422.304   113868369.330 7  88728606.820 5
        42.000          35.100
  24420341.713    24420340.956    24420339.008   128329788.144 2  99997248.178 2
        16.100          13.900
  21302908.318    21302907.790    21302906.559   111947553.452 7  87231863.012 6
        46.000          38.000
  21939386.135    21939385.254    21939383.940   115292269.543 7  89838139.991 6
        43.000          36.000
  22570055.840    22570054.813    22570051.389   118606537.492 6  92420703.449 5
        36.000          31.000
 11  1  1  1 40  0.0000000  0  8G14G20G31G11G19G24G32G22
  20913632.631    20913632.372    20913629.601   109901950.591 7  85637900.096 7
        45.000          42.000
  24109552.458    24109552.327    24109551.056   126696587.757 1  98724621.855
         6.500
  22516661.255    22516661.138    22516658.219   118325888.585 6  92202002.002 5
        38.000          32.000
  21663880.671    21663880.439    21663877.487   113844485.853 7  88709996.315 5
        42.000          34.000
  24438446.893    24438446.464    24438445.173   128424934.641 2 100071388.209 2
        17.000          15.100
  21294222.614    21294222.165    21294220.975   111901910.164 7  87196296.814 6
        46.000          38.000
  21927425.329    21927424.607    21927423.314   115229415.672 7  89789162.960 5
        43.000          35.100
  22585021.310    22585020.517    22585016.745   118685181.698 6  92481984.622 5
        37.000          30.100
 11  1  1  1 40 30.0000000  0  8G14G20G31G11G19G24G32G22
  20922945.381    20922944.992    20922942.374   109950889.290 7  85676034.155 7
        45.000          42.000
  24090796.289    24090795.848    24090793.946   126598019.323 1  98647815.295
        11.000
  22498963.870    22498963.920    22498960.561   118232888.307 6  92129534.273 5
        39.000          32.000
  21659444.328    21659444.195    21659441.050   113821172.914 7  88691830.380 5
        42.000          34.000
  24456573.248    24456572.515    24456570.465   128520182.033 4 100145606.890 4
        24.900          25.900
  21285628.751    21285628.363    21285627.060   111856749.801 7  87161106.925 6
        46.000          38.000
  21915504.435    21915503.837    21915502.433   115166771.664 7  89740349.457 5
        43.000          35.100
  22600024.633    22600023.862    22600019.725   118764023.918 6  92543420.111 5
        37.000          30.100
 11  1  1  1 41  0.0000000  0  8G14G20G31G11G19G24G32G22
  20932328.081    20932327.688    20932325.091   110000195.855 7  85714454.858 7
        45.000          42.000
  24072050.906    24072049.668    24072048.753   126499507.821 2  98571053.170
        17.000
  22481327.126    22481327.426    22481324.475   118140208.649 6  92057316.383 5
        39.000          33.000
  21655116.435    21655116.194    21655112.938   113798428.499 7  88674107.453 5
        42.000          34.000
  24474717.602    24474716.199    24474713.534   128615524.223 5 100219899.450 4
        30.100          27.100
  21277126.807    21277126.295    21277125.102   111812070.846 7  87126292.159 6
        46.000          38.000
  21903623.192    21903622.603    21903621.190   115104335.095 7  89691697.595 5
        43.000          35.100
  22615064.604    22615063.788    22615059.915   118843060.387 6  92605006.971 5
        37.000          31.000
 11  1  1  1 41 30.0000000  0  8G14G20G31G11G19G24G32G22
  20941780.576    20941780.238    20941777.568   110049868.932 7  85753161.154 7
        45.000          42.000
  24053315.123    24053314.566    24053314.332   126401054.507 3  98494336.305
        22.100
  22463752.254    22463752.510    22463749.695   118047852.465 6  91985350.564 5
        39.000          34.000
  21650896.751    21650896.527    21650893.311   113776253.459 7  88656828.194 5
        42.000          35.100
  24492877.424    24492876.496    24492873.917   128710958.365 5 100294263.683 4
        30.100          24.900
  21268716.555    21268716.096    21268714.988   111767874.867 7  87091853.742 6
        46.000          38.000
  21891781.653    21891780.950    21891779.355   115042106.830 7  89643208.057 6
        44.000          36.000
  22630142.003    22630141.114    22630137.529   118922290.334 6  92666744.571 5
        37.000          31.000
 11  1  1  1 42  0.0000000  0  8G14G20G31G11G19G24G32G22
  20951303.723    20951303.451    20951300.723   110099913.635 7  85792157.032 7
        45.000          42.000
  24034592.870    24034591.651    24034591.516   126302667.187 3  98417670.885
        19.300
  22446241.016    22446241.087    22446238.286   117955829.867 6  91913644.676 5
        39.000          34.000
  21646786.492    21646786.354    21646783.367   113754655.342 7  88639998.491 5
        42.000          35.100
  24511056.413    24511055.215    24511052.950   128806488.740 4 100368702.928 3
        29.000          23.000
  21260399.635    21260399.312    21260398.059   111724170.697 7  87057798.548 6
        46.000          38.000
  21879980.896    21879980.268    21879978.738   114980094.713 7  89594886.946 5
        43.000          35.100
  22645256.811    22645256.252    22645252.219   119001720.152 6  92728637.922 5
        38.000          30.100
 11  1  1  1 42 30.0000000  0  8G14G20G31G11G19G24G32G22
  20960895.997    20960895.570    20960892.779   110150320.598 7  85831435.193 7
        45.000          42.000
  24015881.508    24015881.245    24015880.529   126204339.737 3  98341052.138
        23.000
  22428791.884    22428792.071    22428789.365   117864135.947 6  91842194.904 5
        39.000          34.000
  21642785.132    21642784.884    21642781.800   113733627.423 7  88623613.094 5
        42.000          34.000
  24529251.215    24529250.160    24529247.532   128902104.712 3 100443208.885
        23.000           3.000
  21252175.667    21252175.257    21252173.970   111680952.553 7  87024122.071 6
        46.000          38.000
  21868220.291    21868219.543    21868218.105   114918291.832 7  89546728.870 6
        43.000          36.000
  22660408.437    22660407.619    22660403.489   119081341.560 6  92790680.574 5
        38.000          30.100
 11  1  1  1 43  0.0000000  0  8G14G20G31G11G19G24G32G22
  20970559.210    20970558.857    20970556.104   110201101.484 7  85871004.722 7
        45.000          42.000
  23997184.976    23997184.367    23997183.859   126106086.612 3  98264491.282
        23.800
  22411409.180    22411409.155    22411406.354   117772786.929 6  91771013.894 5
        39.000          34.000
  21638894.611    21638894.452    21638891.460   113713183.562 7  88607682.808 5
        42.000          35.100
  24547464.072    24547463.064    24547461.533   128997816.771 3 100517789.725
        22.100
  21244047.003    21244046.478    21244045.308   111638235.383 7  86990835.972 6
        46.000          38.000
  21856502.061    21856501.306    21856499.993   114856712.321 7  89498744.851 6
        43.000          36.000
  22675598.733    22675597.878    22675594.128   119161167.214 6  92852882.365 5
        37.000          31.000
 11  1  1  1 43 30.0000000  0  8G14G20G31G11G19G24G32G22
  20980291.521    20980291.167    20980288.419   110252244.990 7  85910856.809 7
        45.000          42.000
  23978500.828    23978499.879    23978499.537   126007899.631 4  98187981.922
        25.900
  22394090.372    22394090.581    22394087.429   117681776.391 6  91700096.623 5
        39.000          34.000
  21635113.486    21635113.428    21635110.792   113693315.195 7  88592200.958 5
        42.000          35.100
  24565692.180    24565691.765    24565690.020   129093612.453 2 100592435.720 1
        15.100           6.500
  21236012.062    21236011.597    21236010.262   111596011.478 7  86957934.234 6
        46.000          39.000
  21844824.883    21844824.168    21844822.850   114795347.682 7  89450928.260 6
        44.000          36.000
  22690825.632    22690825.004    22690821.295   119241187.325 6  92915235.671 5
        36.000          30.100
 11  1  1  1 44  0.0000000  0  8G14G20G31G11G19G24G32G22
  20990093.370    20990092.949    20990090.137   110303753.582 7  85950993.376 7
        45.000          42.000
  23959829.427    23959829.102    23959827.155   125909783.583 4  98111527.863 2
        27.100          13.900
  22376837.570    22376837.352    22376834.337   117591110.982 6  91629448.289 5
        39.000          34.000
  21631443.538    21631443.244    21631440.324   113674027.124 7  88577171.290 5
        42.000          35.100
  24583939.590    24583938.238    24583935.332   129189492.949 3 100667147.771 1
        22.100          11.000
  21228071.855    21228071.442    21228070.338   111554286.558 7  86925421.307 6
        46.000          39.000
  21833189.608    21833188.745    21833187.463   114734202.690 7  89403282.823 6
        44.000          36.000
  22706091.134    22706090.115    22706085.858   119321405.234 6  92977743.125 4
        36.000          28.100
 11  1  1  1 44 30.0000000  0  8G14G20G31G11G19G24G32G22
  20999963.218    20999962.813    20999959.904   110355620.081 7  85991408.839 7
        45.000          42.000
  23941171.505    23941170.526    23941169.096   125811734.534 3  98035126.073 3
        23.000          19.300
  22359649.296    22359649.485    22359646.290   117500788.428 6  91559067.107 5
        39.000          34.000
  21627882.600    21627882.423    21627879.513   113655314.464 7  88562589.997 5
        42.000          35.100
  24602199.025    24602198.434    24602195.656   129285450.015 4 100741919.461 2
        24.900          15.100
  21220226.108    21220225.672    21220224.729   111513056.801 7  86893294.233 6
        46.000          39.000
  21821594.345    21821593.888    21821592.776   114673272.739 7  89355804.952 6
        44.000          37.000
  22721391.601    22721390.951    22721387.544   119401814.494 5  93040399.675 5
        35.100          30.100
 11  1  1  1 45  0.0000000  0  8G14G20G31G11G19G24G32G22
  21009901.541    21009901.236    21009898.487   110407847.385 7  86032105.444 6
        45.000          41.000
  23922526.846    23922526.126    23922524.596   125713758.078 3  97958780.846 3
        21.100          21.100
  22342528.158    22342528.320    22342525.224   117410815.927 6  91488958.693 5
        40.000          34.000
  21624432.391    21624432.154    21624428.879   113637182.533 7  88548461.217 5
        42.000          35.100
  24620474.057    24620473.235    24620470.146   129381485.296 4 100816752.156 3
        24.900          19.300
  21212475.871    21212475.444    21212474.464   111472328.714 7  86861558.065 6
        46.000          39.000
  21810041.820    21810041.265    21810040.162   114612563.352 7  89308498.960 6
        44.000          37.000
  22736731.055    22736730.023    22736726.009   119482419.580 6  93103208.818 4
        36.000          29.000
 11  1  1  1 45 30.0000000  0  8G14G20G31G11G19G24G32G22
  21019908.067    21019907.650    21019904.842   110460431.399 7  86073080.007 6
        45.000          41.000
  23903896.963    23903896.212    23903893.655   125615852.934 3  97882491.192 2
        23.000          17.000
  22325473.604    22325473.738    22325470.865   117321194.611 6  91419123.926 5
        39.000          34.000
  21621092.025    21621091.769    21621088.652   113619629.730 7  88534783.709 5
        42.000          34.000
  24638762.357    24638761.398    24638759.545   129477593.663 3 100891641.749 3
        21.100          19.300
  21204820.835    21204820.479    21204819.505   111432101.457 7  86830212.156 6
        47.000          39.000
  21798531.217    21798530.394    21798529.098   114552072.994 7  89261363.634 6
        44.000          37.000
  22752105.880    22752105.473    22752101.370   119563217.376 6  93166168.129 4
        36.000          28.100
 11  1  1  1 46  0.0000000  0  8G14G20G31G11G19G24G32G22
  21029981.922    21029981.442    21029978.557   110513369.113 7  86114330.181 6
        45.000          41.000
  23885278.477    23885278.849    23885276.477   125518019.297 4  97806257.246 2
        24.900          16.100
  22308486.234    22308486.417    22308483.487   117231925.476 6  91349563.594 5
        39.000          34.000
  21617861.979    21617861.663    21617859.057   113602655.375 7  88521556.942 5
        42.000          35.100
  24657065.351    24657064.164    24657061.536   129573770.893 3 100966585.011 3
        23.000          19.300
  21197261.614    21197261.103    21197259.683   111392375.445 7  86799256.821 6
        47.000          39.000
  21787061.641    21787061.102    21787059.686   114491801.157 7  89214398.574 6
        44.000          36.000
  22767517.512    22767516.664    22767512.903   119644205.801 5  93229275.989 4
        35.100          28.100
 11  1  1  1 46 30.0000000  0  8G14G20G31G11G19G24G32G22
  21040122.737    21040122.216    21040119.440   110566659.468 7  86155855.139 6
        44.000          41.000
  23866675.373    23866675.630    23866673.545   125420259.089 4  97730080.510 2
        24.900          16.100
  22291567.100    22291566.966    22291563.788   117143012.040 6  91280280.427 5
        40.000          34.000
  21614742.240    21614742.041    21614739.090   113586260.204 7  88508781.487 5
        42.000          35.100
  24675380.398    24675379.276    24675375.925   129670014.615 3 101041580.102 2
        23.000          17.000
  21189797.665    21189797.161    21189795.972   111353152.803 7  86768693.729 6
        46.000          39.000
  21775634.255    21775633.574    21775632.366   114431749.277 7  89167604.922 6
        44.000          37.000
  22782965.670    22782964.756    22782961.189   119725384.970 5  93292532.469 4
        35.100          28.100
 11  1  1  1 47  0.0000000  0  8G14G20G31G11G19G24G32G22
  21050329.714    21050329.382    21050326.638   110620298.612 7  86197651.883 6
        45.000          41.000
  23848085.984    23848085.683    23848083.318   125322571.003 4  97653959.974 1
        24.900          11.000
  22274714.806    22274714.925    22274712.076   117054455.156 6  91211275.093 5
        40.000          35.100
  21611732.315    21611732.129    21611728.872   113570443.477 7  88496456.767 5
        42.000          35.100
  24693706.382    24693705.126    24693702.511   129766320.240 3 101116623.401 2
        22.100          16.100
  21182429.585    21182429.000    21182427.980   111314433.376 7  86738522.752 6
        46.000          40.000
  21764248.511    21764247.741    21764246.525   114371916.168 7  89120981.735 6
        44.000          37.000
  22798449.299    22798448.346    22798444.521   119806752.191 5  93355935.480 4
        35.100          28.100
 11  1  1  1 47 30.0000000  0  8G14G20G31G11G19G24G32G22
  21060603.705    21060603.388    21060600.589   110674288.855 7  86239722.212 6
        45.000          41.000
  23829512.644    23829511.807    23829509.184   125224960.708 4  97577900.017 1
        25.900           6.500
  22257932.334    22257932.315    22257929.410   116966261.761 6  91142553.000 6
        40.000          36.000
  21608833.426    21608833.144    21608829.883   113555209.781 7  88484586.350 5
        42.000          34.000
  24712045.076    24712043.320    24712040.605   129862688.917 4 101191715.856 1
        24.900          11.000
  21175158.021    21175157.731    21175156.565   111276222.636 7  86708748.148 6
        47.000          39.000
  21752905.038    21752904.410    21752903.031   114312306.800 7  89074532.894 6
        44.000          37.000
  22813969.266    22813968.595    22813964.695   119888311.008 5  93419487.804 4
        35.100          29.000
 11  1  1  1 48  0.0000000  0  8G14G20G31G11G19G24G32G22
  21070944.402    21070943.995    21070941.198   110728628.966 7  86282065.163 6
        45.000          41.000
  23810951.866    23810950.939    23810949.687   125127429.652 3  97501901.835 2
        19.900          12.600
  22241218.955    22241219.349    22241216.598   116878435.108 6  91074116.675 6
        40.000          36.000
  21606045.459    21606045.264    21606042.139   113540559.563 7  88473170.598 5
        42.000          35.100
  24730394.602    24730393.287    24730390.638   129959117.896 3 101266855.306 1
        23.000           9.000
  21167984.238    21167983.753    21167982.592   111238522.582 7  86679371.486 6
        46.000          40.000
  21741604.586    21741604.020    21741602.371   114252922.481 7  89028259.412 6
        45.000          37.000
  22829525.983    22829525.041    22829521.725   119970061.177 5  93483189.209 5
        35.100          30.100
 11  1  1  1 48 30.0000000  0  8G14G20G31G11G19G24G32G22
  21081349.849    21081349.564    21081346.741   110783310.295 7  86324673.995 6
        45.000          41.000
  23792406.643    23792405.665    23792404.268   125029972.319 3  97425961.105 1
        21.100           9.000
  22224575.461    22224575.619    22224572.570   116790971.181 6  91005962.995 5
        40.000          35.100
  21603367.341    21603367.180    21603364.426   113526487.031 7  88462204.991 5
        42.000          35.100
  24748754.432    24748752.790    24748750.376   130055597.912 3 101342034.549 1
        23.000           6.500
  21160906.317    21160905.864    21160904.655   111201328.052 7  86650388.740 6
        46.000          39.000
  21730346.221    21730345.382    21730343.619   114193757.319 7  88982156.708 6
        45.000          37.000
  22845117.489    22845116.677    22845112.786   120051995.121 5  93547033.814 4
        35.100          29.000
 11  1  1  1 49  0.0000000  0  8G14G20G31G11G19G24G32G22
  21091822.808    21091822.416    21091819.631   110838345.915 7  86367558.904 6
        44.000          41.000
  23773877.757    23773877.547    23773875.634   124932604.483 3  97350090.107 2
        23.800          12.600
  22208004.299    22208004.223    22208001.032   116703887.372 6  90938105.511 5
        41.000          35.100
  21600802.539    21600802.334    21600799.451   113513007.065 7  88451701.122 6
        42.000          36.000
  24767125.167    24767123.907    24767121.755   130152140.787 3 101417262.733 1
        22.100           9.000
  21153927.604    21153927.096    21153926.058   111164655.237 7  86621812.521 6
        46.000          40.000
  21719131.923    21719131.128    21719129.589   114134826.636 7  88936236.705 6
        44.000          37.000
  22860746.704    22860745.810    22860741.738   120134127.186 5  93611032.809 4
        34.000          28.100
 11  1  1  1 49 30.0000000  0  8G14G20G31G11G19G24G32G22
  21102359.792    21102359.301    21102356.544   110893717.822 7  86410705.850 6
        44.000          40.000
  23755362.646    23755362.912    23755361.817   124835310.860 4  97274276.915 1
        25.900          11.000
  22191502.325    22191502.505    22191499.249   116617169.977 6  90870533.536 5
        41.000          35.100
  21598347.134    21598346.891    21598343.956   113500103.606 7  88441646.478 5
        42.000          35.100
  24785505.042    24785504.450    24785505.042   130248726.780 3 101492524.558
        23.800
  21147045.392    21147044.930    21147043.908   111128489.177 7  86593631.180 6
        46.000          40.000
  21707959.437    21707958.719    21707957.038   114076114.792 7  88890487.230 6
        45.000          37.000
  22876410.336    22876409.448    22876406.091   120216440.054 5  93675172.687 4
        35.100          29.000
 11  1  1  1 50  0.0000000  0  8G14G20G31G11G19G24G32G22
  21112962.028    21112961.826    21112959.242   110949435.358 7  86454122.121 6
        44.000          40.000
  23736865.553    23736865.189    23736863.479   124738104.403 4  97198531.664 1
        25.900          11.000
  22175072.738    22175072.916    22175069.955   116530833.619 6  90803258.475 5
        41.000          35.100
  21596003.313    21596003.242    21596000.480   113487788.946 7  88432050.641 6
        42.000          36.000
  24803894.789    24803893.672    24803890.482   130345364.913 3 101567826.940 2
        22.100          12.600
  21140262.176    21140261.701    21140260.642   111092843.199 7  86565855.096 6
        46.000          40.000
  21696830.797    21696830.088    21696828.537   114017634.417 7  88844918.118 6
        45.000          37.000
  22892110.893    22892109.764    22892105.822   120298944.671 5  93739461.989 4
        34.000          28.100
 11  1  1  1 50 30.0000000  0  8G14G20G31G11G19G24G32G22
  21123629.178    21123628.784    21123626.147   111005490.428 7  86497801.400 6
        44.000          40.000
  23718384.138    23718383.264    23718382.154   124640979.610 4  97122850.018 2
        27.100          12.600
  22158715.014    22158715.266    22158712.374   116444874.310 6  90736277.217 5
        40.000          35.100
  21593770.684    21593770.709    21593767.796   113476056.783 7  88422908.696 5
        42.000          35.100
  24822292.508    24822291.219    24822288.599   130442045.844 3 101643162.697 2
        19.300          16.100
  21133577.051    21133576.494    21133575.589   111057712.125 7  86538480.240 6
        46.000          40.000
  21685745.331    21685744.529    21685742.816   113959379.666 7  88799524.820 6
        45.000          36.000
  22907845.394    22907844.820    22907840.722   120381633.646 5  93803894.930 4
        34.000          25.900
 11  1  1  1 51  0.0000000  0  8G14G20G31G11G19G24G32G22
  21134360.261    21134359.773    21134357.000   111061881.790 7  86541742.729 6
        44.000          40.000
  23699917.190    23699917.182    23699914.733   124543938.399 4  97047233.499 1
        28.100           9.000
  22142429.977    22142430.234    22142427.331   116359295.445 6  90669592.407 6
        41.000          36.000
  21591649.497    21591649.264    21591645.997   113464908.077 7  88414221.386 5
        42.000          35.100
  24840698.159    24840696.412    24840693.881   130538767.159 3 101718529.959 2
        19.300          12.600
  21126990.066    21126989.574    21126988.563   111023097.847 7  86511508.080 6
        46.000          40.000
  21674702.862    21674702.176    21674700.582   113901351.896 7  88754308.388 6
        45.000          37.000
  22923616.261    22923615.422    22923611.180   120464506.803 5  93868471.405 4
        34.000          27.100
 11  1  1  1 51 30.0000000  0  8G14G20G31G11G19G24G32G22
  21145154.702    21145154.287    21145151.609   111118607.817 7  86585944.833 6
        44.000          40.000
  23681467.233    23681466.558    23681464.604   124446982.223 4  96971683.243 2
        28.100          15.100
  22126218.282    22126218.194    22126215.157   116274099.778 6  90603206.196 6
        41.000          36.000
  21589639.082    21589638.759    21589635.858   113454343.155 7  88405988.973 5
        42.000          35.100
  24859110.469    24859109.829    24859107.435   130635526.176 3 101793926.560 2
        22.100          17.000
  21120501.678    21120501.273    21120500.348   110989002.173 7  86484940.028 6
        46.000          40.000
  21663703.744    21663703.179    21663701.963   113843552.230 7  88709269.700 6
        45.000          37.000
  22939421.080    22939420.334    22939416.839   120547564.208 5  93933191.430 4
        34.000          28.100
 11  1  1  1 52  0.0000000  0  8G14G20G31G11G19G24G32G22
  21156012.546    21156012.182    21156009.587   111175666.667 7  86630406.282 6
        44.000          40.000
  23663032.685    23663032.501    23663030.334   124350112.263 4  96896200.174 1
        28.100          11.000
  22110079.467    22110079.532    22110076.444   116189290.082 6  90537120.746 6
        41.000          36.000
  21587739.857    21587739.562    21587736.701   113444362.670 7  88398211.972 5
        42.000          35.100
  24877530.354    24877528.991    24877526.781   130732319.964 3 101869350.268 2
        21.100          15.100
  21114112.308    21114111.948    21114110.876   110955426.264 7  86458776.988 6
        46.000          39.000
  21652748.777    21652747.959    21652746.614   113785981.438 7  88664409.355 6
        45.000          38.000
  22955261.778    22955260.874    22955256.805   120630804.825 5  93998054.220 4
        35.100          25.900
 11  1  1  1 52 30.0000000  0  8G14G20G31G11G19G24G32G22
  21166934.311    21166934.135    21166931.655   111233061.966 7  86675129.895 6
        44.000          40.000
  23644616.435    23644616.229    23644614.783   124253334.906 4  96820789.273 2
        27.100          17.000
  22094015.738    22094015.665    22094012.489   116104874.213 6  90471342.163 6
        41.000          36.000
  21585952.844    21585952.520    21585949.694   113434971.961 7  88390894.535 5
        42.000          35.100
  24895956.220    24895955.385    24895953.043   130829150.988 2 101944803.017 2
        17.800          13.900
  21107823.325    21107822.956    21107821.846   110922376.779 7  86433024.138 6
        46.000          40.000
  21641837.862    21641837.230    21641835.901   113728645.520 7  88619732.026 6
        45.000          37.000
  22971138.176    22971136.984    22971132.386   120714233.280 5  94063063.397 4
        34.000          24.900
 11  1  1  1 53  0.0000000  0  8G14G20G31G11G19G24G32G22
  21177918.056    21177917.723    21177914.976   111290780.147 7  86720105.108 6
        44.000          40.000
  23626216.511    23626216.139    23626214.331   124156639.463 4  96745442.171 3
        27.100          21.100
  22078024.804    22078024.937    22078021.737   116020843.082 7  90405863.378 6
        42.000          36.000
  21584275.861    21584275.670    21584272.745   113426159.461 7  88384027.648 6
        42.000          36.000
  24914388.037    24914386.004    24914383.319   130926004.545 3 102020273.270 2
        19.900          16.100
  21101632.641    21101632.193    21101631.099   110889843.344 7  86407673.419 6
        46.000          40.000
  21630969.534    21630968.964    21630967.898   113671533.436 7  88575229.109 6
        45.000          38.000
  22987046.597    22987045.801    22987041.958   120797836.712 5  94128208.931 4
        33.000          27.100
 11  1  1  1 53 30.0000000  0  7G14G20G31G11G24G32G22
  21188965.210    21188964.818    21188962.095   111348833.298 7  86765341.335 6
        44.000          40.000
  23607834.287    23607833.537    23607832.850   124060041.228 4  96670170.858 3
        24.900          22.100
  22062110.645    22062110.703    22062107.525   115937213.225 7  90340697.273 6
        42.000          36.000
  21582711.774    21582711.492    21582708.647   113417939.308 7  88377622.334 6
        42.000          36.000
  21095542.810    21095542.391    21095541.162   110857841.397 7  86382736.839 6
        46.000          40.000
  21620147.128    21620146.432    21620145.382   113614660.050 7  88530912.198 6
        45.000          38.000
  23002991.999    23002991.233    23002987.170   120881628.890 5  94193501.488 4
        34.000          28.100
 11  1  1  1 54  0.0000000  0  7G14G20G31G11G24G32G22
  21200071.863    21200071.641    21200069.000   111407200.727 7  86810822.450 6
        44.000          40.000
  23589466.243    23589466.356    23589465.520   123963522.594 3  96594961.586 3
        23.000          21.100
  22046269.623    22046269.699    22046266.649   115853968.687 7  90275831.414 6
        42.000          36.000
  21581256.564    21581256.218    21581253.510   113410293.159 7  88371664.291 6
        42.000          36.000
  21089550.753    21089550.402    21089549.356   110826353.717 7  86358200.986 6
        46.000          40.000
  21609366.384    21609365.890    21609364.462   113558007.603 7  88486767.445 6
        45.000          38.000
  23018969.134    23018968.179    23018964.266   120965590.123 5  94258925.808 4
        33.000          25.900
 11  1  1  1 54 30.0000000  0  7G14G20G31G11G24G32G22
  21211242.837    21211242.338    21211239.535   111465902.012 7  86856563.709 6
        44.000          39.000
  23571120.100    23571119.499    23571118.211   123867106.587 3  96519832.283 3
        23.800          22.100
  22030506.459    22030506.795    22030503.731   115771133.766 7  90211284.738 6
        42.000          37.000
  21579914.684    21579914.553    21579911.983   113403242.779 7  88366170.483 6
        42.000          36.000
  21083661.209    21083660.736    21083659.448   110795402.822 7  86334083.412 6
        46.000          39.000
  21598632.319    21598631.597    21598630.071   113501598.145 7  88442812.041 6
        45.000          38.000
  23034982.128    23034981.416    23034977.387   121049741.040 5  94324497.943 4
        33.000          25.900
 11  1  1  1 55  0.0000000  0  7G14G20G31G11G24G32G22
  21222475.793    21222475.527    21222472.793   111524933.113 7  86902561.980 6
        44.000          40.000
  23552791.985    23552791.231    23552789.705   123770791.381 4  96444781.483 3
        24.900          19.900
  22014821.360    22014821.677    22014818.699   115688707.933 7  90147056.841 6
        42.000          37.000
  21578686.459    21578686.150    21578683.219   113396785.441 7  88361138.783 6
        42.000          36.000
  21077873.314    21077872.857    21077871.549   110764987.589 7  86310383.232 6
        47.000          40.000
  21587943.831    21587943.136    21587941.644   113445429.849 7  88399044.550 6
        46.000          38.000
  23051031.052    23051030.536    23051026.861   121134078.459 5  94390215.411 4
        33.000          28.100
 11  1  1  1 55 30.0000000  0  7G14G20G31G11G24G32G22
  21233769.646    21233769.182    21233766.434   111584281.575 7  86948807.538 6
        44.000          39.000
  23534481.615    23534481.086    23534478.751   123674567.896 4  96369802.179 2
        28.100          17.000
  21999212.543    21999212.831    21999209.914   115606683.732 7  90083141.893 6
        42.000          37.000
  21577568.385    21577568.133    21577565.243   113390910.867 7  88356561.190 6
        42.000          36.000
  21072185.758    21072185.292    21072183.950   110735098.909 7  86287093.358 6
        46.000          40.000
  21577299.505    21577298.791    21577297.178   113389493.309 7  88355457.647 6
        46.000          38.000
  23067113.763    23067112.701    23067109.522   121218591.453 5  94456069.668 4
        32.000          29.000
 11  1  1  1 56  0.0000000  0  7G14G20G31G11G24G32G22
  21245123.964    21245123.484    21245120.750   111643949.244 7  86995301.832 6
        44.000          39.000
  23516189.113    23516188.840    23516186.125   123578440.866 4  96294898.003 2
        29.000          12.600
  21983681.620    21983681.731    21983678.821   115525067.133 7  90019544.561 6
        42.000          37.000
  21576561.781    21576561.729    21576559.063   113385622.698 7  88352440.533 6
        42.000          36.000
  21066599.040    21066598.716    21066597.511   110705741.250 7  86264217.266 6
        47.000          40.000
  21566699.675    21566699.205    21566697.740   113333792.721 7  88312054.605 6
        46.000          38.000
  23083229.798    23083228.794    23083225.473   121303282.574 5  94522062.713 4
        31.000          27.100
 11  1  1  1 56 30.0000000  0  7G14G20G31G11G24G32G22
  21256539.177    21256538.728    21256535.789   111703935.595 7  87042044.443 6
        44.000          39.000
  23497916.448    23497915.497    23497914.377   123482412.963 4  96220071.072
        29.000           3.000
  21968229.126    21968229.120    21968225.927   115443862.231 7  89956268.028 6
        42.000          37.000
  21575667.126    21575667.106    21575664.490   113380922.555 7  88348778.082 6
        42.000          36.000
  21061114.058    21061113.780    21061112.490   110676917.727 7  86241757.381 6
        47.000          40.000
  21556145.578    21556145.066    21556143.658   113278330.460 7  88268837.272 6
        46.000          38.000
  23099380.183    23099379.239    23099375.184   121388152.359 5  94588195.016 4
        33.000          25.900
 11  1  1  1 57  0.0000000  0  7G14G20G31G11G24G32G22
  21268013.253    21268012.861    21268009.788   111764232.546 7  87089029.085 6
        44.000          38.000
  23479660.358    23479659.726    23479657.895   123386479.366 4  96145317.582 1
        29.000          11.000
  21952853.981    21952853.940    21952850.741   115363065.260 7  89893309.368 6
        42.000          37.000
  21574884.060    21574883.815    21574880.737   113376804.323 7  88345569.062 5
        42.000          35.100
  21055729.961    21055729.493    21055728.296   110648623.184 7  86219709.689 6
        47.000          40.000
  21545636.151    21545635.333    21545633.845   113223101.011 7  88225801.354 6
        46.000          38.000
  23115562.582    23115562.042    23115558.570   121473194.035 5  94654461.243 4
        32.000          27.100
 11  1  1  1 57 30.0000000  0  7G14G20G31G11G24G32G22
  21279546.677    21279546.291    21279543.347   111824842.146 7  87136257.354 6
        44.000          38.000
  23461423.824    23461422.714    23461420.315   123290644.972 4  96070641.419 2
        28.100          12.600
  21937557.269    21937557.465    21937554.515   115282682.754 7  89830673.673 6
        42.000          37.000
  21574211.669    21574211.554    21574208.487   113373271.649 7  88342816.322 6
        43.000          36.000
  21050446.998    21050446.678    21050445.543   110620862.422 7  86198077.926 6
        46.000          40.000
  21535171.070    21535170.492    21535169.090   113168108.803 7  88182950.290 6
        46.000          39.000
  23131779.319    23131778.149    23131774.703   121558410.644 5  94720863.768 4
        32.000          25.900
 11  1  1  1 58  0.0000000  0  7G14G20G31G11G24G32G22
  21291140.844    21291140.475    21291137.668   111885770.356 7  87183733.889 6
        44.000          38.000
  23443206.641    23443206.182    23443204.325   123194918.762 4  95996049.601 2
        27.100          16.100
  21922341.810    21922341.949    21922339.005   115202724.741 7  89768368.747 6
        42.000          37.000
  21573652.311    21573652.154    21573649.246   113370332.278 7  88340525.892 6
        43.000          36.000
  21045267.688    21045267.383    21045266.110   110593644.664 7  86176869.284 6
        47.000          40.000
  21524753.277    21524752.639    21524751.177   113113362.654 7  88140290.969 6
        46.000          38.000
  23148030.463    23148029.395    23148025.326   121643809.108 5  94787408.005 4
        33.000          25.900
 11  1  1  1 58 30.0000000  0  7G14G20G31G11G24G32G22
  21302793.994    21302793.651    21302790.962   111947008.831 7  87231452.186 6
        44.000          38.000
  23425010.319    23425009.724    23425007.530   123099295.609 4  95921538.060 2
        25.900          12.600
  21907206.401    21907206.603    21907203.532   115123187.612 7  89706391.780 6
        43.000          37.000
  21573204.501    21573204.301    21573201.571   113367979.897 7  88338692.862 6
        42.000          36.000
  21040190.700    21040190.301    21040189.254   110566964.613 7  86156079.637 6
        47.000          40.000
  21514381.389    21514380.586    21514378.989   113058856.940 7  88097819.003 6
        45.000          38.000
  23164313.959    23164313.012    23164308.911   121729382.212 5  94854088.363 3
        32.000          23.000
 11  1  1  1 59  0.0000000  0  7G14G20G31G11G24G32G22
  21314504.753    21314504.526    21314501.818   112008549.583 7  87279406.023 6
        43.000          38.000
  23406832.563    23406831.602    23406830.165   123003770.569 4  95847102.970 3
        24.900          19.300
  21892150.515    21892150.680    21892147.455   115044067.632 7  89644739.855 6
        43.000          37.000
  21572867.440    21572867.245    21572864.323   113366208.207 7  88337312.322 5
        42.000          35.100
  21035214.983    21035214.554    21035213.542   110540817.109 7  86135704.967 6
        46.000          40.000
  21504053.696    21504053.115    21504051.692   113004586.281 7  88055530.196 6
        46.000          38.000
  23180630.429    23180629.267    23180625.065   121815123.269 5  94920899.577 4
        32.000          24.900
 11  1  1  1 59 30.0000000  0  7G14G20G31G11G24G32G22
  21326275.027    21326274.462    21326271.832   112070400.511 7  87327601.549 6
        43.000          38.000
  23388674.752    23388674.462    23388673.249   122908354.690 4  95772752.977 3
        25.900          19.300
  21877176.069    21877176.273    21877173.254   114965376.744 7  89583422.290 6
        43.000          37.000
  21572642.646    21572642.531    21572639.331   113365026.905 7  88336391.820 5
        42.000          35.100
  21030342.668    21030342.284    21030341.238   110515213.120 7  86115753.813 6
        46.000          40.000
  21493773.061    21493772.457    21493770.920   112950561.114 7  88013432.672 6
        46.000          38.000
  23196979.414    23196978.937    23196975.039   121901041.267 5  94987848.649 3
        31.000          23.800
                            4 14
RINEX FILE SPLICE                                           COMMENT
teqc  2009Oct19     WCDA Operator       20110101 03:07:05UTCCOMMENT
teqc  2009Oct19     WCDA Operator       20110101 03:07:04UTCCOMMENT
CONTACT gps@pgc.nrcan.gc.ca FOR ADDITIONAL INFORMATION      COMMENT
    P1 =    P1  TurboRogue; =    Y1  Benchmark              COMMENT
    L1 = L1(CA)                                             COMMENT
    P2 =    P2  TurboRogue; =    Y2  Benchmark              COMMENT
    L2 = L2(P2) TurboRogue; = L2(Y2) Benchmark              COMMENT
 SNR is mapped to RINEX snr flag value [0-9]                COMMENT
  L1 & L2: min(max(int(snr_dBHz/6), 0), 9)                  COMMENT
teqc windowed: start @ 2011 Jan  1 00:00:00.000             COMMENT
teqc windowed:  end  @ 2011 Jan  1 23:59:59.000             COMMENT
teqc windowed: start @ 2011 Jan  1 02:00:00.000             COMMENT
teqc windowed:  end  @ 2011 Jan  1 02:59:59.000             COMMENT
 11  1  1  2  0  0.0000000  0  7G14G20G31G11G24G32G22
  21338102.260    21338101.822    21338099.250   112132554.283 7  87376033.065 6
        43.000          38.000
  23370538.323    23370538.071    23370536.397   122813043.360 4  95698484.423 3
        29.000          23.000
  21862282.856    21862282.970    21862279.910   114887111.827 7  89522436.659 6
        43.000          37.000
  21572529.411    21572529.214    21572525.754   113364430.224 7  88335926.870 5
        43.000          35.100
  21025572.858    21025572.574    21025571.450   110490147.766 7  86096222.373 6
        46.000          40.000
  21483538.511    21483537.754    21483536.047   112896776.467 7  87971522.574 6
        46.000          38.000
  23213362.520    23213361.325    23213357.121   121987129.321 5  95054930.216 4
        32.000          24.900
 11  1  1  2  0 30.0000000  0  7G14G20G31G11G24G32G22
  21349987.515    21349987.074    21349984.453   112195011.731 7  87424701.211 6
        43.000          38.000
  23352422.175    23352421.249    23352420.237   122717841.030 4  95624300.804 4
        27.100          24.900
  21847472.014    21847471.823    21847468.539   114809278.402 7  89461787.258 6
        43.000          37.000
  21572527.726    21572527.559    21572524.172   113364420.666 7  88335919.415 6
        43.000          36.000
  21020906.442    21020906.062    21020904.830   110465625.428 7  86077114.058 6
        46.000          40.000
  21473349.933    21473349.315    21473347.586   112843236.161 7  87929802.869 6
        46.000          38.000
  23229776.403    23229775.773    23229771.887   122073389.807 5  95122146.153 4
        31.000          25.900
 11  1  1  2  1  0.0000000  0  7G14G20G31G11G24G32G22
  21361930.274    21361929.767    21361927.056   112257770.639 7  87473604.259 6
        43.000          38.000
  23334326.821    23334326.195    23334324.171   122622748.232 4  95550202.547 2
        29.000          17.800
  21832742.804    21832743.011    21832739.569   114731878.295 7  89401475.499 6
        43.000          37.000
  21572637.439    21572637.110    21572634.165   113364997.561 7  88336368.947 6
        42.000          36.000
  21016343.429    21016343.059    21016342.007   110441646.633 7  86058429.288 6
        46.000          41.000
  21463208.172    21463207.418    21463206.004   112789940.435 7  87888273.743 6
        46.000          39.000
  23246223.967    23246223.114    23246218.924   122159821.516 5  95189495.520 3
        31.000          23.000
 11  1  1  2  1 30.0000000  0  7G14G20G31G11G24G32G22
  21373929.627    21373929.193    21373926.639   112320828.306 7  87522740.104 6
        43.000          38.000
  23316252.254    23316251.423    23316248.975   122527765.650 4  95476190.148 3
        28.100          19.300
  21818096.925    21818097.112    21818093.639   114654913.440 7  89341502.904 6
        44.000          37.000
  21572858.301    21572858.194    21572855.698   113366160.587 7  88337275.208 6
        42.000          36.000
  21011884.018    21011883.502    21011882.469   110418211.948 7  86040168.496 6
        46.000          40.000
  21453113.069    21453112.310    21453110.778   112736889.626 7  87846935.460 6
        46.000          39.000
  23262703.376    23262702.616    23262699.521   122246422.905 5  95256977.101 4
        31.000          25.900
 11  1  1  2  2  0.0000000  0  7G14G20G31G11G24G32G22
  21385986.217    21385986.059    21385983.527   112384187.561 7  87572110.956 6
        43.000          38.000
  23298198.966    23298199.013    23298196.857   122432898.802 5  95402267.939 3
        30.100          19.300
  21803534.950    21803535.082    21803531.753   114578390.589 7  89281874.732 6
        43.000          38.000
  21573191.916    21573191.753    21573189.306   113367913.757 7  88338641.313 6
        42.000          36.000
  21007529.147    21007528.716    21007527.590   110395326.546 7  86022335.717 6
        46.000          41.000
  21443065.323    21443064.658    21443062.927   112684088.915 7  87805792.058 6
        46.000          39.000
  23279216.094    23279215.608    23279212.376   122333197.556 5  95324593.673 4
        32.000          25.900
 11  1  1  2  2 30.0000000  0  7G14G20G31G11G24G32G22
  21398099.669    21398099.303    21398096.607   112447842.457 7  87621712.174 6
        43.000          37.000
  23280168.341    23280168.068    23280164.935   122338145.099 4  95328433.897 2
        29.000          16.100
  21789056.691    21789056.863    21789053.669   114502308.023 7  89222589.634 6
        43.000          38.000
  21573637.093    21573636.945    21573634.211   113370252.645 7  88340463.818 6
        42.000          36.000
  21003278.135    21003277.630    21003276.581   110372987.473 7  86004928.649 6
        46.000          41.000
  21433064.828    21433064.083    21433062.564   112631534.933 7  87764840.912 6
        47.000          39.000
  23295761.464    23295760.295    23295756.837   122420140.770 5  95392341.604 4
        30.100          25.900
 11  1  1  2  3  0.0000000  0  7G14G20G31G11G24G32G22
  21410268.569    21410268.135    21410265.267   112511790.236 7  87671541.615 6
        43.000          37.000
  23262158.816    23262158.642    23262155.773   122243505.103 4  95254688.435 2
        29.000          15.100
  21774663.039    21774663.080    21774659.994   114426667.600 7  89163649.062 6
        43.000          38.000
  21574193.336    21574193.233    21574190.428   113373176.245 7  88342741.943 6
        42.000          36.000
  20999130.978    20999130.524    20999129.594   110351194.774 7  85987947.331 6
        46.000          41.000
  21423111.043    21423110.397    21423108.876   112579227.863 7  87724082.171 6
        47.000          40.000
  23312337.790    23312336.940    23312332.723   122507250.883 5  95460219.590 3
        31.000          23.800
 11  1  1  2  3 30.0000000  0  7G14G20G31G11G24G32G22
  21422493.166    21422492.681    21422489.749   112576030.436 7  87721598.918 6
        43.000          37.000
  23244171.264    23244171.234    23244169.124   122148981.106 4  95181033.422 3
        28.100          19.300
  21760353.836    21760353.865    21760350.913   114351472.568 7  89105055.557 6
        43.000          38.000
  21574861.171    21574861.050    21574858.025   113376685.216 7  88345476.207 6
        42.000          36.000
  20995088.470    20995088.116    20995086.992   110329950.795 7  85971393.576 6
        46.000          41.000
  21413204.822    21413204.072    21413202.415   112527169.530 7  87683517.248 6
        47.000          40.000
  23328946.184    23328945.171    23328941.310   122594528.570 5  95528228.182 3
        31.000          23.000
 11  1  1  2  4  0.0000000  0  7G14G20G31G11G24G32G22
  21434773.447    21434773.123    21434770.205   112640565.005 7  87771885.599 6
        43.000          37.000
  23226207.168    23226206.946    23226204.664   122054578.527 5  95107472.989 2
        30.100          17.000
  21746130.523    21746130.799    21746127.822   114276729.131 7  89046813.944 6
        43.000          39.000
  21575641.246    21575641.107    21575637.721   113380783.498 7  88348669.676 5
        43.000          35.100
  20991151.326    20991150.870    20991149.912   110309260.404 7  85955271.199 6
        46.000          41.000
  21403346.070    21403345.585    21403344.206   112475364.737 7  87643149.898 6
        47.000          40.000
  23345586.666    23345585.645    23345582.410   122681976.681 5  95596369.564 3
        30.100          23.800
 11  1  1  2  4 30.0000000  0  7G14G20G31G11G24G32G22
  21447108.212    21447107.916    21447105.171   112705384.762 7  87822394.503 6
        43.000          37.000
  23208264.835    23208264.402    23208262.431   121960291.098 5  95034002.306 3
        30.100          21.100
  21731992.717    21731992.745    21731989.720   114202432.420 7  88988920.426 6
        44.000          39.000
  21576531.650    21576531.536    21576528.145   113385463.526 7  88352316.453 5
        42.000          35.100
  20987318.207    20987317.709    20987316.689   110289117.050 7  85939575.083 6
        46.000          41.000
  21393535.024    21393534.531    21393533.027   112423806.911 7  87602974.976 6
        47.000          40.000
  23362258.033    23362257.295    23362253.944   122769586.998 4  95664637.329 3
        29.000          23.000
 11  1  1  2  5  0.0000000  0  7G14G20G31G11G24G32G22
  21459499.358    21459499.015    21459496.244   112770500.253 7  87873133.845 6
        43.000          37.000
  23190347.734    23190346.836    23190344.940   121866132.501 5  94960632.013 3
        31.000          22.100
  21717942.008    21717942.138    21717939.206   114128596.962 7  88931386.328 6
        44.000          39.000
  21577535.306    21577535.082    21577531.700   113390737.094 7  88356425.725 5
        42.000          35.100
  20983591.660    20983591.223    20983590.107   110269534.099 7  85924315.647 6
        46.000          41.000
  21383773.610    21383772.765    21383771.461   112372509.204 7  87563002.750 6
        46.000          40.000
  23378963.408    23378962.463    23378958.734   122857370.988 5  95733040.432 3
        30.100          23.800
 11  1  1  2  5 30.0000000  0  7G14G20G31G11G24G32G22
  21471944.067    21471943.522    21471940.692   112835895.949 7  87924091.536 6
        43.000          37.000
  23172451.331    23172450.647    23172448.841   121772090.156 5  94887352.312 3
        30.100          21.100
  21703977.208    21703977.262    21703974.081   114055211.275 7  88874202.699 6
        44.000          39.000
  21578648.991    21578648.878    21578645.647   113396589.740 7  88360986.209 5
        42.000          35.100
  20979969.312    20979968.812    20979967.695   110250498.216 7  85909482.495 6
        46.000          41.000
  21374058.947    21374058.099    21374056.681   112321458.376 7  87523222.899 6
        46.000          40.000
  23395699.208    23395698.002    23395693.613   122945314.170 5  95801567.581 3
        31.000          23.000
 11  1  1  2  6  0.0000000  0  7G14G20G31G11G24G32G22
  21484441.788    21484441.377    21484438.572   112901573.141 7  87975268.573 6
        43.000          36.000
  23154579.367    23154578.623    23154576.339   121678169.260 5  94814167.222 3
        31.000          22.100
  21690098.805    21690099.184    21690095.763   113982281.518 7  88817374.338 6
        44.000          38.000
  21579873.990    21579873.708    21579870.607   113403025.023 7  88366000.714 6
        43.000          36.000
  20976451.814    20976451.390    20976450.335   110232014.380 7  85895079.507 6
        46.000          41.000
  21364391.882    21364391.247    21364389.931   112270659.227 7  87483639.165 6
        46.000          40.000
  23412464.162    23412463.198    23412459.768   123033419.336 4  95870220.949 3
        29.000          23.000
 11  1  1  2  6 30.0000000  0  7G14G20G31G11G24G32G22
  21496992.724    21496992.247    21496989.337   112967528.319 7  88026662.217 6
        42.000          37.000
  23136729.400    23136728.606    23136726.388   121584368.736 4  94741075.951 3
        29.000          19.900
  21676307.828    21676307.965    21676304.586   113909807.701 7  88760901.254 6
        44.000          39.000
  21581209.042    21581208.781    21581205.456   113410040.243 7  88371467.117 6
        43.000          36.000
  20973039.463    20973039.013    20973037.675   110214081.317 7  85881105.690 6
        47.000          41.000
  21354772.914    21354772.260    21354770.723   112220110.328 7  87444250.426 6
        46.000          39.000
  23429259.896    23429259.093    23429256.016   123121683.548 4  95938998.218 3
        28.100          23.000
 11  1  1  2  7  0.0000000  0  7G14G20G31G11G24G32G22
  21509597.782    21509597.351    21509594.514   113033769.119 7  88078278.432 6
        42.000          36.000
  23118905.249    23118904.363    23118901.690   121490699.461 5  94668086.930 3
        30.100          19.300
  21662605.532    21662605.692    21662602.321   113837801.656 7  88704792.673 6
        45.000          38.000
  21582655.533    21582655.535    21582652.414   113417644.826 7  88377392.768 5
        42.000          35.100
  20969733.512    20969733.132    20969731.998   110196709.199 7  85867568.976 6
        46.000          41.000
  21345203.283    21345202.679    21345201.146   112169822.009 7  87405064.737 6
        47.000          39.000
  23446088.605    23446087.903    23446084.072   123210115.770 5  96007906.411 3
        30.100          22.100
 11  1  1  2  7 30.0000000  0  7G14G20G31G11G24G32G22
  21522255.800    21522255.603    21522252.787   113100288.460 7  88130111.688 6
        42.000          36.000
  23101103.937    23101103.781    23101101.276   121397157.736 5  94595197.294 3
        30.100          21.100
  21648991.881    21648991.764    21648988.459   113766260.190 7  88649046.092 6
        45.000          38.000
  21584213.800    21584213.537    21584210.378   113425832.770 7  88383772.976 5
        42.000          35.100
  20966533.352    20966533.046    20966532.079   110179893.598 7  85854465.914 6
        46.000          41.000
  21335682.526    21335681.901    21335680.224   112119789.802 7  87366078.614 6
        47.000          39.000
  23462947.401    23462946.542    23462942.830   123298709.316 5  96076940.313 3
        30.100          22.100
 11  1  1  2  8  0.0000000  0  7G14G20G31G11G24G32G22
  21534966.943    21534966.480    21534963.757   113167084.802 7  88182160.790 6
        42.000          36.000
  23083327.965    23083327.490    23083325.572   121303744.797 4  94522408.038 3
        29.000          22.100
  21635466.895    21635466.744    21635463.468   113695185.972 7  88593663.603 6
        45.000          39.000
  21585883.139    21585882.610    21585879.182   113434603.667 7  88390607.446 5
        42.000          35.100
  20963439.683    20963439.310    20963438.302   110163635.679 7  85841797.405 6
        46.000          41.000
  21326210.811    21326210.029    21326208.274   112070014.779 7  87327292.892 6
        47.000          39.000
  23479836.925    23479835.757    23479832.194   123387464.143 4  96146099.891 3
        29.000          23.000
 11  1  1  2  8 30.0000000  0  7G14G20G31G11G24G32G22
  21547730.465    21547730.106    21547727.187   113234158.162 7  88234425.749 6
        42.000          36.000
  23065577.232    23065576.664    23065573.834   121210464.119 4  94449721.823 2
        29.000          16.100
  21622031.168    21622031.417    21622028.294   113624583.456 7  88538648.673 6
        44.000          39.000
  21587662.973    21587662.747    21587659.771   113443959.232 7  88397897.490 5
        42.000          35.100
  20960452.444    20960452.133    20960451.029   110147938.180 7  85829565.594 6
        46.000          41.000
  21316788.326    21316787.658    21316785.925   112020499.775 7  87288709.784 6
        47.000          40.000
  23496757.170    23496756.582    23496752.617   123476381.490 5  96215386.106 3
        30.100          22.100
 11  1  1  2  9  0.0000000  0  7G14G20G31G11G24G32G22
  21560544.915    21560544.590    21560541.915   113301498.919 7  88286899.071 6
        42.000          36.000
  23047851.359    23047850.731    23047848.185   121117309.069 5  94377133.470 3
        32.000          22.100
  21608684.601    21608684.776    21608681.653   113554446.527 7  88483996.542 6
        44.000          39.000
  21589552.690    21589552.633    21589550.117   113453890.983 7  88405636.511 6
        42.000          36.000
  20957570.885    20957570.451    20957569.253   110132793.830 7  85817764.802 6
        47.000          41.000
  21307414.157    21307413.512    21307411.669   111971237.782 7  87250323.826 6
        47.000          39.000
  23513707.231    23513706.394    23513701.812   123565452.496 5  96284792.089 3
        30.100          23.000
 11  1  1  2  9 30.0000000  0  7G14G20G31G11G24G32G22
  21573411.270    21573410.964    21573408.098   113369112.368 7  88339584.882 5
        42.000          35.100
  23030149.583    23030148.985    23030146.631   121024288.161 5  94304649.662 3
        30.100          23.000
  21595428.074    21595428.391    21595425.288   113484784.453 7  88429714.428 6
        44.000          39.000
  21591553.538    21591553.625    21591551.127   113464405.207 7  88413829.412 6
        42.000          36.000
  20954795.772    20954795.346    20954794.072   110118210.461 7  85806401.135 6
        47.000          41.000
  21298089.546    21298088.823    21298087.093   111922236.420 7  87212140.957 6
        47.000          40.000
  23530686.585    23530685.908    23530682.229   123654682.854 5  96354322.213 3
        30.100          23.800
 11  1  1  2 10  0.0000000  0  7G14G20G31G11G24G32G22
  21586329.144    21586328.866    21586326.119   113436996.757 6  88392481.811 6
        41.000          36.000
  23012474.330    23012473.574    23012471.378   120931402.816 5  94232271.488 3
        32.000          22.100
  21582263.203    21582263.095    21582259.784   113415599.714 7  88375804.262 6
        44.000          39.000
  21593665.629    21593665.506    21593662.653   113475501.778 7  88422476.084 6
        42.000          36.000
  20952127.714    20952127.227    20952126.062   110104189.133 7  85795475.427 6
        47.000          41.000
  21288814.641    21288814.049    21288812.312   111873496.943 7  87174162.156 6
        47.000          40.000
  23547696.475    23547696.000    23547692.976   123744072.458 4  96423976.410 3
        28.100          23.800
 11  1  1  2 10 30.0000000  0  7G14G20G31G11G24G32G22
  21599298.446    21599298.113    21599295.406   113505150.218 6  88445588.409 6
        41.000          36.000
  22994824.432    22994823.953    22994821.548   120838654.605 5  94160000.173 3
        31.000          21.100
  21569188.749    21569188.834    21569185.461   113346894.535 7  88322267.783 6
        44.000          39.000
  21595887.678    21595887.559    21595884.893   113487180.142 7  88431576.106 5
        42.000          35.100
  20949566.468    20949566.080    20949564.981   110090730.510 7  85784988.188 6
        47.000          41.000
  21279589.801    21279589.188    21279587.536   111825020.161 8  87136388.049 6
        48.000          40.000
  23564737.474    23564736.547    23564732.707   123833620.419 4  96493754.029 3
        29.000          21.100
 11  1  1  2 11  0.0000000  0  7G14G20G31G11G24G32G22
  21612318.674    21612318.175    21612315.305   113573570.656 7  88498903.039 5
        42.000          35.100
  22977201.154    22977200.748    22977198.630   120746044.544 5  94087836.511 3
        32.000          23.000
  21556205.988    21556206.262    21556203.088   113278670.684 7  88269106.358 6
        45.000          40.000
  21598220.371    21598220.276    21598217.319   113499439.167 7  88441128.583 5
        42.000          35.100
  20947112.389    20947111.987    20947111.035   110077834.913 7  85774939.673 6
        47.000          41.000
  21270414.956    21270414.283    21270412.775   111776806.412 7  87098818.903 6
        47.000          40.000
  23581807.711    23581807.095    23581802.895   123923325.431 4  96563654.032 3
        28.100          19.300
 11  1  1  2 11 30.0000000  0  7G14G20G31G11G24G32G22
  21625389.119    21625388.731    21625386.034   113642257.751 6  88552425.461 5
        41.000          35.100
  22959604.709    22959604.270    22959601.942   120653574.942 5  94015782.316 3
        32.000          23.000
  21543315.936    21543316.102    21543312.928   113210931.491 7  88216322.591 6
        45.000          40.000
  21600664.094    21600663.884    21600660.812   113512279.482 7  88451134.022 5
        42.000          35.100
  20944766.184    20944765.608    20944764.511   110065504.359 7  85765331.451 6
        47.000          41.000
  21261290.815    21261290.017    21261288.449   111728858.148 7  87061456.628 6
        47.000          40.000
  23598907.945    23598907.048    23598903.686   124013188.374 4  96633677.108 3
        28.100          21.100
 11  1  1  2 12  0.0000000  0  7G14G20G31G11G24G32G22
  21638507.925    21638507.523    21638504.756   113711197.346 6  88606144.625 5
        41.000          35.100
  22942033.285    22942032.586    22942030.086   120561235.012 5  93943829.114 3
        32.000          21.100
  21530515.931    21530516.017    21530512.710   113143666.648 7  88163908.452 6
        45.000          40.000
  21603215.687    21603215.545    21603212.353   113525687.912 7  88461582.147 6
        42.000          36.000
  20942524.666    20942524.368    20942523.307   110053726.805 7  85756154.138 6
        47.000          41.000
  21252214.667    21252213.958    21252212.445   111681163.463 7  87024291.943 6
        47.000          40.000
  23616035.421    23616034.772    23616031.818   124103195.447 4  96703812.470 3
        27.100          23.800
 11  1  1  2 12 30.0000000  0  7G14G20G31G11G24G32G22
  21651677.262    21651677.109    21651674.460   113780404.380 6  88660072.189 5
        41.000          35.100
  22924490.140    22924489.470    22924487.264   120469043.590 5  93871991.668 3
        32.000          23.000
  21517809.477    21517809.817    21517806.620   113076895.507 7  88111879.010 6
        45.000          40.000
  21605878.495    21605878.283    21605875.339   113539681.168 7  88472485.983 5
        42.000          35.100
  20940392.162    20940391.868    20940390.623   110042520.321 7  85747421.817 6
        47.000          41.000
  21243190.427    21243189.659    21243188.121   111633740.416 7  86987338.934 6
        47.000          40.000
  23633193.585    23633193.117    23633189.925   124193363.262 4  96774073.079 3
        27.100          23.000
 11  1  1  2 13  0.0000000  0  7G14G20G31G11G24G32G22
  21664896.838    21664896.497    21664893.701   113849871.888 6  88714202.720 5
        41.000          35.100
  22906973.985    22906973.255    22906971.045   120376996.285 5  93800266.520 3
        32.000          23.000
  21505197.078    21505197.115    21505193.782   113010614.955 7  88060231.844 6
        45.000          40.000
  21608651.423    21608651.161    21608648.262   113554253.128 7  88483840.756 6
        42.000          36.000
  20938367.317    20938366.990    20938365.793   110031879.946 7  85739130.614 6
        46.000          41.000
  21234217.008    21234216.210    21234214.690   111586584.709 7  86950594.235 6
        47.000          41.000
  23650382.452    23650381.759    23650377.005   124283685.639 4  96844454.117 3
        28.100          19.300
 11  1  1  2 13 30.0000000  0  7G14G20G31G11G24G32G22
  21678163.898    21678163.741    21678161.379   113919593.068 6  88768530.917 5
        41.000          35.100
  22889484.744    22889484.233    22889481.673   120285089.644 5  93728650.978 3
        33.000          22.100
  21492676.959    21492677.068    21492673.755   112944821.837 7  88008964.497 6
        45.000          40.000
  21611533.179    21611533.013    21611530.232   113569397.676 7  88495641.702 6
        42.000          36.000
  20936449.491    20936449.129    20936447.767   110021801.165 7  85731277.012 6
        47.000          41.000
  21225293.443    21225292.805    21225291.229   111539691.906 7  86914054.397 6
        47.000          41.000
  23667598.532    23667597.366    23667593.026   124374156.401 4  96914950.833 2
        28.100          15.100
 11  1  1  2 14  0.0000000  0  7G14G20G31G11G24G32G22
  21691480.722    21691480.362    21691477.730   113989571.871 6  88823059.855 5
        41.000          35.100
  22872023.119    22872022.686    22872020.449   120193330.781 5  93657150.587 3
        32.000          23.000
  21480251.184    21480251.283    21480248.018   112879523.797 7  87958082.926 6
        46.000          40.000
  21614525.058    21614524.939    21614522.072   113585120.096 7  88507892.930 6
        42.000          36.000
  20934639.872    20934639.403    20934638.060   110012290.221 7  85723865.890 6
        47.000          41.000
  21216421.279    21216420.661    21216419.243   111493068.532 7  86877724.504 6
        47.000          41.000
  23684843.444    23684842.302    23684838.412   124464780.562 4  96985567.056 2
        27.100          17.800
 11  1  1  2 14 30.0000000  0  7G14G20G31G11G24G32G22
  21704845.643    21704845.136    21704842.523   114059804.276 6  88877786.407 5
        41.000          34.000
  22854590.489    22854589.814    22854587.365   120101718.861 5  93585764.693 3
        33.000          22.100
  21467919.547    21467919.539    21467916.214   112814720.543 7  87907586.901 6
        46.000          40.000
  21617626.138    21617626.006    21617623.398   113601417.196 6  88520591.970 6
        41.000          36.000
  20932937.745    20932937.281    20932936.039   110003345.728 7  85716896.155 6
        47.000          41.000
  21207599.966    21207599.563    21207598.178   111446713.288 7  86841603.545 6
        47.000          41.000
  23702116.945    23702116.101    23702113.190   124555555.197 5  97056300.498 3
        30.100          23.000
 11  1  1  2 15  0.0000000  0  7G14G20G31G11G24G32G22
  21718258.484    21718258.364    21718255.675   114130291.097 6  88932711.205 5
        41.000          34.000
  22837185.813    22837185.320    22837182.550   120010258.101 5  93514496.584 3
        33.000          23.000
  21455682.875    21455682.906    21455679.554   112750417.142 7  87857480.376 6
        45.000          40.000
  21620837.157    21620837.008    21620834.512   113618290.955 7  88533740.353 6
        42.000          36.000
  20931343.871    20931343.437    20931342.367   109994970.824 7  85710370.254 6
        46.000          41.000
  21198830.556    21198830.069    21198828.701   111400629.676 7  86805694.245 6
        47.000          41.000
  23719419.350    23719419.274    23719416.177   124646482.129 4  97127152.611 3
        29.000          23.000
 11  1  1  2 15 30.0000000  0  7G14G20G31G11G24G32G22
  21731720.331    21731719.976    21731716.912   114201031.491 6  88987833.596 5
        41.000          34.000
  22819810.245    22819809.745    22819807.402   119918950.671 5  93443347.959 3
        32.000          22.100
  21443541.826    21443542.024    21443538.757   112686616.407 7  87807765.537 6
        45.000          40.000
  21624158.151    21624157.983    21624155.145   113635741.403 7  88547338.101 5
        42.000          35.100
  20929859.125    20929858.553    20929857.287   109987166.928 7  85704289.295 6
        47.000          41.000
  21190113.639    21190112.884    21190111.208   111354819.456 7  86769997.977 6
        47.000          41.000
  23736752.290    23736751.259    23736747.045   124737561.331 4  97198123.378 3
        28.100          19.300
 11  1  1  2 16  0.0000000  0  7G14G20G31G11G24G32G22
  21745227.279    21745226.994    21745224.296   114272011.759 6  89043142.902 5
        40.000          34.000
  22802462.394    22802461.688    22802459.572   119827785.594 5  93372310.255 3
        33.000          23.800
  21431494.494    21431494.753    21431491.620   112623308.112 7  87758434.419 6
        45.000          40.000
  21627585.819    21627585.747    21627582.859   113653755.532 7  88561375.085 5
        42.000          35.100
  20928480.286    20928479.793    20928478.628   109979922.165 7  85698644.026 6
        46.000          41.000
  21181446.118    21181445.238    21181443.625   111309271.150 7  86734505.797 6
        47.000          41.000
  23754110.067    23754109.278    23754105.064   124828779.544 4  97269202.499 2
        27.100          13.900
 11  1  1  2 16 30.0000000  0  7G14G20G31G11G24G32G22
  21758782.536    21758782.023    21758779.189   114343242.920 6  89098647.706 5
        41.000          34.000
  22785143.513    22785143.321    22785141.278   119736777.598 5  93301394.967 4
        33.000          24.900
  21419544.074    21419544.134    21419540.849   112560506.964 7  87709498.481 6
        45.000          40.000
  21631123.772    21631123.465    21631120.292   113672345.307 7  88575860.621 5
        42.000          35.100
  20927210.466    20927210.081    20927209.007   109973250.286 7  85693445.157 6
        46.000          41.000
  21172831.016    21172830.309    21172828.546   111263998.959 8  86699228.775 6
        48.000          41.000
  23771497.411    23771496.538    23771492.976   124920149.244 4  97340399.634 3
        25.900          23.000
 11  1  1  2 17  0.0000000  0  7G14G20G31G11G24G32G22
  21772385.763    21772385.350    21772382.649   114414730.015 6  89154351.937 5
        40.000          34.000
  22767857.315    22767856.795    22767854.459   119645934.720 5  93230608.326 3
        33.000          23.800
  21407691.647    21407691.774    21407688.377   112498221.851 7  87660964.647 6
        45.000          40.000
  21634771.660    21634771.536    21634768.666   113691516.611 7  88590799.298 6
        42.000          36.000
  20926051.236    20926050.890    20926049.671   109967158.012 7  85688697.932 6
        46.000          41.000
  21164270.029    21164269.278    21164267.547   111219010.213 8  86664172.616 6
        48.000          41.000
  23788914.891    23788913.695    23788910.564   125011676.104 4  97411719.212 4
        27.100          24.900
 11  1  1  2 17 30.0000000  0  7G14G20G31G11G24G32G22
  21786034.927    21786034.610    21786031.708   114486457.141 6  89210243.210 5
        40.000          34.000
  22750599.258    22750598.846    22750596.870   119555244.850 5  93159940.931 4
        33.000          24.900
  21395934.865    21395935.032    21395931.828   112436440.942 7  87612823.703 6
        46.000          40.000
  21638528.003    21638527.783    21638524.830   113711255.362 7  88606180.138 6
        42.000          36.000
  20924999.688    20924999.368    20924998.163   109961632.170 7  85684392.077 6
        46.000          41.000
  21155760.179    21155759.572    21155757.825   111174292.006 8  86629327.268 6
        48.000          41.000
  23806358.537    23806357.792    23806354.334   125103345.703 4  97483150.006 3
        25.900          19.900
 11  1  1  2 18  0.0000000  0  7G14G20G31G11G24G32G22
  21799732.194    21799731.801    21799728.976   114558436.460 6  89266330.991 5
        40.000          34.000
  22733373.437    22733372.684    22733370.860   119464723.183 5  93089404.592 3
        33.000          23.800
  21384277.333    21384277.414    21384274.129   112375179.761 7  87565087.732 6
        46.000          40.000
  21642394.378    21642394.192    21642391.197   113731573.397 7  88622012.373 5
        42.000          35.100
  20924058.632    20924058.351    20924057.095   109956686.759 7  85680538.509 6
        46.000          41.000
  21147305.205    21147304.352    21147302.545   111129858.845 8  86594704.032 6
        48.000          41.000
  23823832.095    23823830.985    23823827.414   125195170.643 4  97554701.873 2
        24.900          13.900
 11  1  1  2 18 30.0000000  0  7G14G20G31G11G24G32G22
  21813472.612    21813472.327    21813469.532   114630643.843 6  89322596.488 5
        40.000          34.000
  22716175.959    22716175.175    22716173.286   119374348.729 5  93018982.960 4
        33.000          24.900
  21372714.678    21372715.004    21372711.618   112314418.039 7  87517740.955 6
        46.000          40.000
  21646366.693    21646366.544    21646363.453   113752447.891 7  88638278.207 5
        42.000          35.100
  20923224.140    20923223.652    20923222.299   109952300.062 7  85677120.302 6
        46.000          41.000
  21138899.920    21138899.111    21138897.402   111085689.506 8  86560286.374 6
        48.000          41.000
  23841330.579    23841330.231    23841326.049   125287128.078 4  97626357.000 2
        25.900          12.600
 11  1  1  2 19  0.0000000  0  8G14G20G31G11G25G24G32G22
  21827258.557    21827258.275    21827255.455   114703088.498 6  89379046.864 5
        40.000          34.000
  22699009.023    22699008.375    22699005.864   119284133.697 5  92948685.566 4
        35.100          24.900
  21361249.787    21361249.886    21361246.515   112254168.042 7  87470792.919 6
        46.000          41.000
  21650446.546    21650446.312    21650443.518   113773888.397 6  88654985.091 5
        41.000          35.100
  24693688.737    24693687.959    24693687.465   129766193.366 3 101116514.070 2
        21.100          12.600
  20922497.626    20922497.229    20922495.950   109948483.092 7  85674146.037 6
        47.000          41.000
  21130546.960    21130546.253    21130544.583   111041795.339 8  86526083.136 6
        48.000          41.000
  23858856.681    23858856.211    23858852.688   125379227.496 4  97698122.765 3
        24.900          19.300
 11  1  1  2 19 30.0000000  0  8G14G20G31G11G25G24G32G22
  21841089.032    21841088.587    21841085.526   114775766.788 6  89435679.306 5
        40.000          33.000
  22681871.625    22681871.197    22681868.609   119194077.675 5  92878512.046 3
        34.000          23.800
  21349881.889    21349882.053    21349878.737   112194429.855 7  87424243.697 6
        46.000          41.000
  21654633.772    21654633.648    21654630.495   113795892.026 7  88672130.768 5
        42.000          35.100
  24683384.894    24683384.677    24683385.431   129712053.284 3 101074327.016 2
        21.100          16.100
  20921879.054    20921878.740    20921877.735   109945234.094 7  85671614.351 6
        46.000          41.000
  21122246.296    21122245.607    21122243.896   110998175.111 7  86492093.355 6
        47.000          41.000
  23876409.519    23876408.803    23876405.593   125471466.200 4  97769997.026 3
        27.100          19.900
 11  1  1  2 20  0.0000000  0  8G14G20G31G11G25G24G32G22
  21854963.574    21854963.386    21854960.660   114848680.516 6  89492495.195 5
        40.000          33.000
  22664765.887    22664765.330    22664762.690   119104185.818 5  92808466.454 4
        35.100          24.900
  21338612.612    21338612.733    21338609.473   112135209.495 7  87378097.980 6
        46.000          41.000
  21658928.700    21658928.434    21658925.357   113818461.770 6  88689717.586 5
        41.000          35.100
  24673159.942    24673159.402    24673160.077   129658318.603 3 101032455.887 2
        21.100          15.100
  20921369.975    20921369.498    20921368.319   109942557.541 7  85669528.724 6
        46.000          41.000
  21113998.646    21113997.963    21113996.356   110954833.928 7  86458321.010 6
        47.000          41.000
  23893989.247    23893988.338    23893985.156   125563847.262 4  97841982.203 3
        24.900          21.100
 11  1  1  2 20 30.0000000  0  8G14G20G31G11G25G24G32G22
  21868883.676    21868883.141    21868879.952   114921828.693 6  89549493.776 5
        39.000          33.000
  22647691.900    22647691.177    22647689.046   119014460.323 5  92738550.505 4
        34.000          25.900
  21327442.235    21327442.482    21327439.048   112076509.196 7  87332357.504 6
        46.000          41.000
  21663330.966    21663330.842    21663327.836   113841597.094 6  88707745.100 5
        41.000          35.100
  24663011.752    24663011.742    24663012.002   129604992.162 3 100990902.819 1
        19.300          11.000
  20920969.891    20920969.403    20920968.156   109940454.218 7  85667889.768 6
        46.000          41.000
  21105804.626    21105803.845    21105802.113   110911773.045 8  86424767.082 6
        48.000          41.000
  23911595.735    23911594.813    23911590.826   125656370.347 4  97914078.078 2
        25.900          15.100
 11  1  1  2 21  0.0000000  0  8G14G20G31G11G25G24G32G22
  21882847.173    21882846.571    21882843.688   114995207.095 6  89606671.754 5
        39.000          33.000
  22630648.733    22630648.202    22630645.994   118924900.038 5  92668763.296 4
        35.100          25.900
  21316370.883    21316370.895    21316367.423   112018328.017 7  87287021.535 6
        46.000          41.000
  21667840.389    21667840.243    21667837.176   113865294.205 6  88726210.370 5
        41.000          35.100
  24652941.908    24652941.473    24652941.817   129552073.818 3 100949667.739
        21.100           3.000
  20920678.264    20920677.848    20920676.693   109938921.982 7  85666695.814 6
        46.000          41.000
  21097663.346    21097662.621    21097660.939   110868990.879 8  86391430.339 6
        48.000          41.000
  23929229.684    23929228.226    23929223.178   125749032.029 4  97986281.999 1
        29.000           6.500
 11  1  1  2 21 30.0000000  0  8G14G20G31G11G25G24G32G22
  21896855.403    21896854.960    21896851.816   115068821.227 6  89664033.418 5
        40.000          32.000
  22613639.228    22613638.592    22613636.587   118835513.845 5  92599111.742 4
        34.000          27.100
  21305399.882    21305399.811    21305396.498   111960674.991 7  87242097.117 6
        46.000          41.000
  21672458.197    21672457.957    21672454.682   113889559.454 6  88745118.362 5
        41.000          35.100
  24642951.039    24642951.250    24642951.395   129499573.208 3 100908758.215 1
        22.100           6.500
  20920496.923    20920496.365    20920495.235   109937968.111 7  85665952.538 6
        46.000          41.000
  21089576.867    21089576.053    21089574.483   110826495.420 8  86358317.008 6
        48.000          41.000
  23946890.075    23946888.782    23946884.768   125841838.571 4  98058598.786 2
        27.100          17.000
 11  1  1  2 22  0.0000000  0  8G14G20G31G11G25G24G32G22
  21910908.169    21910907.743    21910904.826   115142670.071 6  89721577.979 5
        39.000          33.000
  22596662.818    22596662.323    22596660.524   118746304.075 5  92529597.677 4
        34.000          27.100
  21294529.671    21294529.833    21294526.539   111903553.012 7  87197586.505 6
        46.000          41.000
  21677183.601    21677183.461    21677180.453   113914392.655 6  88764468.898 5
        41.000          35.100
  24633040.845    24633040.868    24633040.462   129447493.715 3 100868176.831
        19.300           3.000
  20920425.348    20920424.932    20920423.860   109937593.845 7  85665660.903 6
        46.000          41.000
  21081544.914    21081544.250    21081542.724   110784288.508 8  86325428.516 7
        48.000          42.000
  23964577.357    23964576.398    23964573.080   125934790.252 4  98131028.648 3
        24.900          19.900
 11  1  1  2 22 30.0000000  0  8G14G20G31G11G25G24G32G22
  21925001.621    21925001.076    21924998.278   115216731.111 6  89779287.885 5
        39.000          33.000
  22579717.048    22579716.263    22579713.944   118657250.963 5  92460205.667 4
        34.000          25.900
  21283757.143    21283757.219    21283753.950   111846942.828 7  87153474.692 6
        46.000          41.000
  21682013.087    21682012.940    21682010.042   113939771.576 6  88784244.678 5
        41.000          35.100
  24623207.156    24623206.656    24623207.154   129395816.600 3 100827908.955 1
        19.900           6.500
  20920460.548    20920460.115    20920458.976   109937778.264 7  85665804.607 6
        46.000          41.000
  21073564.179    21073563.561    21073561.961   110742349.857 8  86292749.056 6
        48.000          41.000
  23982288.421    23982287.529    23982284.957   126027865.077 3  98203554.442 3
        23.800          21.100
