     2.11           OBSERVATION DATA    G (GPS)             RINEX VERSION / TYPE
teqc  2009Oct19     WCDA Operator       20110102 00:10:44UTCPGM / RUN BY / DATE
Solaris x86 5.10|AMD64|cc SC5.8 -xarch=amd64|=+|=+          COMMENT
teqc  2009Oct19     WCDA Operator       20110102 00:10:41UTCCOMMENT
BIT 2 OF LLI FLAGS DATA COLLECTED UNDER A/S CONDITION       COMMENT
Stainless steel-pipe pedestal monument                      COMMENT
CONTACT gps@pgc.nrcan.gc.ca FOR ADDITIONAL INFORMATION      COMMENT
 SNR is mapped to RINEX snr flag value [0-9]                COMMENT
  L1 & L2: min(max(int(snr_dBHz/6), 0), 9)                  COMMENT
teqc windowed: start @ 2011 Jan  1 00:00:00.000             COMMENT
teqc windowed:  end  @ 2011 Jan  1 23:59:59.000             COMMENT
chwk  WCDA-ACP   987020   Chilliwack BC Canada              MARKER NAME
40142M001                                                   MARKER NUMBER
PGC-WCDA            GEOL. SURV. CANADA                      OBSERVER / AGENCY
4641123492          TRIMBLE NETRS       1.3-0   05 Apr 2010 REC # / TYPE / VERS
0220365587          TRM29659.00     SCIS                    ANT # / TYPE
 -2215259.7300 -3543996.8300  4802098.7700                  APPROX POSITION XYZ
        0.0000        0.0000        0.0000                  ANTENNA: DELTA H/E/N
     1     1                                                WAVELENGTH FACT L1/2
     8    C1    C2    P1    P2    L1    L2    S1    S2      # / TYPES OF OBSERV
teqc windowed: start @ 2011 Jan  1 00:00:00.000             COMMENT
teqc windowed:  end  @ 2011 Jan  1 23:59:59.000             COMMENT
  2011     1     1     0     0    0.0000000     GPS         TIME OF FIRST OBS
                                                            END OF HEADER
 11  1  1  0  0  0.0000000  0 10G06G14G21G19G22G27G24G18G03G09
  23195998.820                                    23195989.984    -6602990.534 6
  -2592258.06844        41.500          25.400
  20862290.633                                    20862279.980   -16908147.606 8
 -12073209.56547        50.900          42.100
  24476902.289                                    24476892.926    -2636423.266 6
   -858114.05842        38.000          15.600
  22011932.977                                    22011920.273    -8453017.001 7
  -6576659.43846        46.100          38.300
  20465719.117                                    20465705.945   -18234535.776 8
 -13185280.60547        51.200          45.500
  24435894.422                                    24435886.465    -2216262.007 6
  -1021375.16543        40.000          23.600
  24384305.727                                                      252561.43215
                        31.900
  22153886.078                                    22153874.840   -11344515.596 8
  -7663310.78145        48.000          35.200
  22967336.898                                    22967326.949    -1428501.267 7
   -409427.33644        44.600          26.700
  22776003.445                                    22775991.914   -10067390.458 7
  -7490022.88744        43.900          27.700
 11  1  1  0  0 30.0000000  0 10G06G14G21G19G22G27G24G18G03G09
  23213106.344                                    23213098.797    -6513084.859 6
  -2522201.73644        41.300          24.500
  20852605.219                                    20852593.688   -16959047.129 8
 -12112871.52646        50.800          41.800
  24497332.000                                    24497324.570    -2529056.470 5
   -774451.67142        34.000          16.300
  22016198.617                                    22016185.621    -8430602.672 8
  -6559193.76046        50.100          38.800
  20470375.156                                    20470361.809   -18210069.884 8
 -13166216.27347        53.200          45.600
  24445156.156                                    24445144.449    -2167606.091 6
   -983461.47143        41.700          22.000
  24364977.156                                                      150971.376 5
                        35.600
  22167079.195                                    22167067.195   -11275189.478 8
  -7609290.44145        49.300          34.700
  22984419.734                                    22984408.320    -1338737.478 7
   -339481.52844        45.800          29.000
  22777168.633                                    22777157.570   -10061266.918 7
  -7485251.27644        42.600          28.100
 11  1  1  0  1  0.0000000  0 10G06G14G21G19G22G27G24G18G03G09
  23230261.188                                    23230251.355    -6422948.811 7
  -2451965.83744        43.400          25.800
  20843014.875                                    20843003.637   -17009443.260 8
 -12152141.21646        50.500          41.500
  24517793.063                                    24517783.816    -2421546.312 6
   -690677.51142        37.200          16.300
  22020573.859                                    22020561.566    -8407607.645 8
  -6541275.56746        49.400          38.500
  20475094.492                                    20475081.203   -18185268.895 8
 -13146890.82347        53.700          45.700
  24454500.016                                    24454490.887    -2118492.954 6
   -945191.45243        40.900          22.600
  24345658.930                                                       49469.216 5
                        31.300
  22180309.797                                    22180298.383   -11205658.797 7
  -7555110.68245        47.800          34.900
  23001554.063                                    23001544.582    -1248689.224 7
   -269314.06744        44.600          29.800
  22778464.898                                    22778454.891   -10054451.314 7
  -7479940.41544        43.200          27.800
 11  1  1  0  1 30.0000000  0 11G06G14G21G19G22G27G24G18G03G11G09
  23247453.492                                    23247445.125    -6332592.635 6
  -2381558.41743        41.500          21.800
  20833519.328                                    20833508.734   -17059342.462 8
 -12191023.69046        50.300          41.900
  24538279.203                                    24538267.379    -2313901.890 6
   -606798.81742        40.400          15.600
  22025058.828                                    22025046.887    -8384040.659 7
  -6522911.67546        45.300          39.000
  20479876.195                                    20479862.789   -18160140.945 8
 -13127310.59447        50.200          45.500
  24463931.336                                    24463922.324    -2068931.643 6
   -906572.22044        40.100          24.600
  24326357.656                                                      -51950.82315
                        31.500
  22193578.297                                    22193567.469   -11135931.542 7
  -7500777.76245        47.500          35.200
  23018741.953                                    23018732.180    -1158367.049 7
   -198933.17144        44.700          28.600
  24304144.078                                                      414295.47915
                        34.100
  22779892.008                                    22779881.297   -10046951.274 7
  -7474096.19644        42.700          27.300
 11  1  1  0  2  0.0000000  0 11G06G14G21G19G22G27G24G18G03G11G09
  23264691.352                                    23264681.871    -6242016.983 7
  -2310979.98644        42.900          24.800
  20824118.820                                    20824108.109   -17108741.520 8
 -12229516.44646        50.300          41.500
  24558786.859                                    24558777.086    -2206123.179 6
   -522815.40542        40.200          15.600
  22029652.055                                    22029640.172    -8359900.720 8
  -6504101.32846        49.200          39.300
  20484720.484                                    20484706.961   -18134684.487 8
 -13107474.38147        52.700          45.600
  24473448.781                                    24473440.121    -2018921.539 7
   -867603.35344        42.100          25.300
  24307077.461                                                     -153284.969 6
                        37.900
  22206884.906                                    22206873.199   -11066006.690 8
  -7446290.86945        48.100          34.300
  23035981.266                                    23035972.664    -1067771.695 7
   -128339.42444        44.100          28.500
  24284713.672                                                      312193.133 5
                        33.300
  22781450.070                                    22781440.063   -10038764.253 7
  -7467716.67844        43.400          28.000
 11  1  1  0  2 30.0000000  0 11G06G14G21G19G22G27G24G18G03G11G09
  23281970.117                                    23281959.934    -6151223.107 7
  -2240231.54644        43.400          26.200
  20814814.172                                    20814803.168   -17157637.951 8
 -12267617.53946        50.100          41.800
  24579322.602                                    24579312.008    -2098209.908 6
   -438727.14842        38.700          16.300
  22034355.031                                    22034342.445    -8335186.823 7
  -6484843.77146        45.300          38.300
  20489627.211                                    20489613.922   -18108898.329 8
 -13087381.26847        51.300          45.600
  24483050.578                                    24483040.980    -1968462.848 6
   -828284.83943        40.600          22.500
  24287811.656                                                     -254529.980 6
                        38.100
  22220229.563                                    22220217.152   -10995883.559 8
  -7391649.45945        48.400          33.900
  23053271.859                                    23053263.727     -976904.991 7
    -57534.21844        44.000          28.400
  24265319.523                                                      210281.413 5
                        30.800
  22783139.930                                    22783128.574   -10029889.330 7
  -7460801.13444        44.700          28.500
 11  1  1  0  3  0.0000000  0 11G06G14G21G19G22G27G24G18G03G11G09
  23299285.602                                    23299277.469    -6060213.375 7
  -2169314.92743        42.200          22.800
  20805605.367                                    20805594.480   -17206030.472 8
 -12305325.98746        50.900          41.800
  24599880.000                                    24599872.922    -1990163.405 6
   -354535.02542        36.300          16.300
  22039167.305                                    22039154.367    -8309899.725 8
  -6465139.55346        48.900          37.700
  20494597.063                                    20494583.422   -18082782.584 8
 -13067031.33747        53.200          45.300
  24492737.141                                    24492727.133    -1917556.516 6
   -788617.53943        39.600          22.300
  24268560.547                                                     -355683.467 6
                        36.100
  22233611.047                                    22233598.227   -10925562.189 8
  -7336853.58245        48.000          34.000
  23070614.320                                    23070605.836     -885769.341 7
     13480.52844        42.600          27.700
  24245963.539                                                      108562.62414
                        25.900
  22784959.375                                    22784948.723   -10020325.885 7
  -7453349.09644        43.500          28.300
 11  1  1  0  3 30.0000000  0 10G06G14G21G19G22G27G24G18G03G09
  23316646.266                                    23316635.496    -5968992.249 6
  -2098233.51643        41.300          22.600
  20796492.516                                    20796481.453   -17253919.943 8
 -12342642.43147        50.200          42.000
  24620466.047                                    24620458.441    -1881986.900 5
   -270241.63742        35.700          15.600
  22044087.414                                    22044074.711    -8284042.176 7
  -6444990.83246        47.800          37.900
  20499629.063                                    20499615.715   -18056339.177 8
 -13046426.08247        52.400          45.800
  24502510.008                                    24502500.527    -1866205.688 6
   -748603.87944        40.900          24.500
  24249331.383                                    24249322.547     -456745.069 6
    353139.04553        39.900          18.300
  22247029.375                                    22247018.137   -10855045.063 7
  -7281905.17545        47.800          33.900
  23088008.758                                    23087998.750     -794369.443 7
     84701.23644        45.400          29.400
  22786909.766                                    22786898.938   -10010075.458 7
  -7445361.71144        44.200          28.300
 11  1  1  0  4  0.0000000  0 10G06G14G21G19G22G27G24G18G03G09
  23334043.445                                    23334034.023    -5877562.698 6
  -2026989.69443        41.500          22.900
  20787475.328                                    20787464.441   -17301305.423 8
 -12379566.15546        49.800          41.800
  24641077.211                                    24641068.023    -1773682.384 6
   -185848.59642        37.700          16.300
  22049116.906                                    22049104.145    -8257616.010 7
  -6424399.03446        46.200          39.800
  20504722.984                                    20504709.754   -18029569.317 8
 -13025566.44647        50.700          45.500
  24512365.875                                    24512355.691    -1814412.385 6
   -708245.47143        40.800          22.600
  24230117.695                                    24230107.570     -557713.746 6
    274462.19343        40.600          18.300
  22260485.172                                    22260473.758   -10784333.324 7
  -7226805.11745        46.400          33.700
  23105449.688                                    23105441.906     -702708.803 7
    156125.08944        43.200          27.900
  22788990.383                                    22788980.258    -9999138.480 7
  -7436839.39944        43.600          27.700
 11  1  1  0  4 30.0000000  0 10G06G14G21G19G22G27G24G18G03G09
  23351479.219                                    23351472.551    -5785927.509 6
  -1955585.68543        38.800          22.800
  20778554.102                                    20778543.273   -17348185.806 8
 -12416096.30946        51.000          41.900
  24661711.711                                    24661702.055    -1665251.135 6
   -101356.75942        37.200          16.900
  22054253.148                                    22054241.031    -8230621.544 7
  -6403364.38646        45.000          38.300
  20509879.398                                    20509866.285   -18002473.235 8
 -13004452.61347        49.300          45.100
  24522306.156                                    24522295.504    -1762178.142 6
   -667543.44443        40.700          22.500
  24210921.898                                    24210911.012     -658587.255 6
    195859.60243        40.200          18.300
  22273978.461                                    22273966.637   -10713427.265 7
  -7171553.63945        47.300          33.300
  23122941.867                                    23122933.617     -610790.171 7
    227749.99644        44.900          29.600
  22791201.773                                    22791192.820    -9987514.973 7
  -7427782.08744        43.900          27.900
 11  1  1  0  5  0.0000000  0 10G06G14G21G19G22G27G24G18G03G09
  23368958.203                                    23368948.547    -5694088.206 6
  -1884022.64643        39.700          20.900
  20769729.375                                    20769718.605   -17394559.414 8
 -12452231.56347        50.800          42.500
  24682369.477                                    24682360.230    -1556694.052 6
    -16766.82542        37.100          16.300
  22059498.344                                    22059486.109    -8203059.276 7
  -6381887.31446        45.900          38.500
  20515097.508                                    20515084.277   -17975050.613 8
 -12983084.32847        50.600          45.100
  24532329.578                                    24532319.102    -1709503.513 6
   -626498.23943        41.300          22.800
  24191743.781                                    24191733.773     -759363.013 6
    117333.09243        39.700          20.600
  22287508.383                                    22287496.969   -10642326.826 7
  -7116150.72145        47.000          33.600
  23140480.977                                    23140473.254     -518615.722 7
    299574.21444        43.800          28.700
  22793545.102                                    22793535.035    -9975204.346 7
  -7418189.38744        44.000          28.600
 11  1  1  0  5 30.0000000  0 10G06G14G21G19G22G27G24G18G03G09
  23386472.492                                    23386462.602    -5602049.034 6
  -1812303.80743        40.200          22.300
  20761001.359                                    20760990.473   -17440426.561 8
 -12487972.18047        51.000          42.600
  24703052.359                                    24703042.176    -1448013.981 6
     67918.97542        36.500          15.600
  22064850.789                                    22064838.965    -8174931.403 8
  -6359969.49246        48.000          38.600
  20520377.680                                    20520364.508   -17947302.933 8
 -12961462.75447        51.900          45.400
  24542435.922                                    24542425.387    -1656390.991 6
   -585111.85044        40.600          25.200
  24172586.453                                    24172575.566     -860039.877 6
     38883.65943        40.300          19.300
  22301074.797                                    22301063.383   -10571033.904 7
  -7060597.79145        47.300          33.300
  23158070.758                                    23158061.336     -426189.441 7
    371594.68944        44.600          27.600
  22796019.680                                    22796007.680    -9962207.654 7
  -7408062.07844        45.900          28.400
 11  1  1  0  6  0.0000000  0 10G06G14G21G19G22G27G24G18G03G09
  23404027.930                                    23404017.512    -5509802.832 6
  -1740423.65644        41.100          25.200
  20752371.391                                    20752360.680   -17485776.605 8
 -12523309.86147        50.500          42.600
  24723753.539                                    24723749.688    -1339202.653 5
    152707.03342        31.600          14.800
  22070312.273                                    22070300.215    -8146229.129 7
  -6337604.09346        47.900          38.300
  20525721.742                                    20525708.336   -17919221.093 8
 -12939580.79447        52.000          45.200
  24552628.344                                    24552617.867    -1602832.689 6
   -543378.06043        40.300          22.600
  24153448.195                                    24153438.656     -960606.586 6
    -39479.92342        38.900          16.300
  22314679.391                                    22314668.504   -10499539.482 7
  -7004887.84345        45.700          33.900
  23175707.867                                    23175697.801     -333504.736 7
    443816.53544        43.800          27.900
  22798624.773                                    22798613.477    -9948515.650 7
  -7397392.98044        44.500          28.900
 11  1  1  0  6 30.0000000  0 10G06G14G21G19G22G27G24G18G03G09
  23421616.336                                    23421607.207    -5417370.983 6
  -1668398.85743        41.400          22.300
  20743837.086                                    20743825.613   -17530626.868 8
 -12558258.09747        51.700          42.400
  24744479.805                                                    -1230279.79214
                        26.800
  22075879.852                                    22075867.793    -8116972.177 7
  -6314806.47646        45.200          38.100
  20531125.281                                    20531112.285   -17890823.650 8
 -12917452.90147        49.900          44.900
  24562900.297                                    24562890.465    -1548848.396 6
   -501312.36443        38.800          21.700
  24134330.008                                    24134319.355    -1061079.617 6
   -117770.58442        39.200          17.400
  22328319.227                                    22328308.340   -10427862.296 7
  -6949035.49345        47.500          33.700
  23193391.172                                    23193380.402     -240582.914 7
    516223.13044        44.200          27.200
  22801357.625                                    22801347.734    -9934146.663 7
  -7386196.35244        43.400          27.600
 11  1  1  0  7  0.0000000  0 10G06G14G21G19G22G27G24G18G03G09
  23439240.375                                    23439232.418    -5324745.289 6
  -1596223.04343        37.200          21.300
  20735399.203                                    20735388.434   -17574966.076 8
 -12592808.10647        51.600          42.800
  24765230.305                                                    -1121236.816 5
                        31.200
  22081554.766                                    22081542.531    -8087151.305 8
  -6291569.44446        49.200          39.500
  20536591.383                                    20536577.859   -17862100.803 8
 -12895071.46547        52.200          44.900
  24573254.891                                    24573246.523    -1494429.337 6
   -458907.91343        38.400          22.200
  24115229.516                                    24115220.211    -1161446.756 6
   -195978.69442        37.900          17.400
  22341996.094                                    22341984.211   -10355992.844 8
  -6893033.33845        48.400          33.300
  23211118.094                                    23211108.848     -147416.998 7
    588819.92144        42.000          26.300
  22804222.039                                    22804212.852    -9919090.672 7
  -7374464.38344        43.400          27.700
 11  1  1  0  7 30.0000000  0 10G06G14G21G19G22G27G24G18G03G09
  23456902.227                                    23456892.922    -5231937.500 6
  -1523905.28643        38.700          20.900
  20727057.625                                    20727046.797   -17618801.944 8
 -12626965.91647        51.200          42.900
  24786005.383                                                    -1012083.922 5
                        33.200
  22087334.836                                    22087322.191    -8056776.262 7
  -6267900.57346        44.700          38.300
  20542117.313                                    20542103.906   -17833061.409 8
 -12872443.36147        49.600          45.100
  24583692.281                                    24583683.035    -1439585.773 6
   -416172.68643        38.800          20.400
  24096147.797                                    24096140.777    -1261714.438 5
   -274109.32742        35.700          16.300
  22355707.219                                    22355694.926   -10283940.442 8
  -6836888.59345        48.100          34.200
  23228892.625                                    23228883.379      -54017.820 7
    661598.50144        42.800          28.500
  22807216.992                                    22807206.633    -9903356.614 7
  -7362204.07544        44.500          28.100
 11  1  1  0  8  0.0000000  0 11G06G14G21G19G22G27G24G18G03G11G09
  23474599.453                                    23474590.793    -5138935.507 6
  -1451436.16443        38.400          21.500
  20718814.625                                    20718803.621   -17662119.576 8
 -12660719.90347        51.600          42.500
  24806800.539                                                     -902808.648 5
                        33.700
  22093222.797                                    22093211.148    -8025834.002 8
  -6243789.74146        48.000          37.600
  20547705.492                                    20547693.023   -17803691.959 8
 -12849558.06647        52.100          45.600
  24594214.469                                    24594202.645    -1384305.297 6
   -373096.97143        40.200          20.400
  24077087.969                                                    -1361866.575 5
                        34.200
  22369455.133                                    22369443.953   -10211691.499 7
  -6780590.72445        47.900          33.700
  23246710.922                                    23246702.086       39625.454 6
    734567.27544        41.100          26.700
  24054502.219                                                      506146.77415
                        34.900
  22810342.539                                    22810332.590    -9886930.144 7
  -7349404.20244        44.600          28.000
 11  1  1  0  8 30.0000000  0 11G06G14G21G19G22G27G24G18G03G11G09
  23492330.969                                    23492322.953    -5045752.666 5
  -1378826.17043        35.900          20.100
  20710668.195                                    20710657.250   -17704927.738 8
 -12694076.89747        51.100          42.700
  24827615.453                                                     -793422.208 5
                        34.600
  22099215.375                                    22099204.840    -7994335.510 7
  -6219245.46446        47.900          37.700
  20553356.102                                    20553342.285   -17774002.246 8
 -12826423.23247        52.600          45.100
  24604811.859                                    24604802.555    -1328598.977 6
   -329689.36943        39.600          22.200
  24058053.195                                                    -1461910.883 6
                        38.700
  22383239.648                                    22383228.000   -10139256.114 8
  -6724147.57745        48.000          32.800
  23264575.063                                    23264566.461      133500.021 7
    807716.25744        42.300          27.200
  24035577.539                                                      406688.785 6
                        36.600
  22813598.195                                    22813588.832    -9869821.415 7
  -7336072.71844        45.000          29.400
 11  1  1  0  9  0.0000000  0 10G06G14G19G22G27G24G18G03G11G09
  23510101.656                                    23510090.945    -4952379.219 6
  -1306067.71443        36.900          21.300
  20702621.367                                    20702610.422   -17747213.923 8
 -12727027.14447        51.000          42.500
  22105318.148                                    22105306.031    -7962270.355 7
  -6194259.66746        43.500          37.800
  20559068.375                                    20559055.320   -17743981.377 8
 -12803030.34247        49.800          45.300
  24615495.469                                    24615486.633    -1272456.820 6
   -285942.24643        38.700          21.100
  24039037.594                                    24039028.406    -1561833.586 6
   -338778.19353        37.600          18.600
  22397061.203                                    22397049.496   -10066623.393 8
  -6667550.64845        48.900          33.400
  23282484.242                                    23282475.875      227614.874 6
    881052.50244        41.400          26.400
  24016693.172                                                      307460.109 5
                        32.900
  22816987.141                                    22816975.609    -9852018.987 7
  -7322200.70644        45.800          27.200
 11  1  1  0  9 30.0000000  0 10G06G14G19G22G27G24G18G03G11G09
  23527901.055                                    23527892.160    -4858835.779 6
  -1233176.73343        37.300          20.600
  20694671.461                                    20694660.047   -17788995.065 8
 -12759583.87447        51.800          43.100
  22111525.344                                    22111512.348    -7929657.765 8
  -6168847.25846        48.800          38.000
  20564841.047                                    20564828.051   -17713647.581 8
 -12779393.61147        52.900          45.900
  24626259.992                                    24626249.516    -1215898.573 6
   -241870.92343        39.700          21.500
  24020042.547                                    24020034.766    -1661650.846 6
   -416557.84043        39.600          21.300
  22410916.711                                    22410905.590    -9993812.108 8
  -6610814.58945        48.400          33.200
  23300436.227                                    23300427.391      321948.837 7
    954559.44344        42.600          26.900
  23997851.852                                                      208445.124 5
                        31.300
  22820502.875                                    22820492.398    -9833541.711 7
  -7307802.82644        44.900          26.600
 11  1  1  0 10  0.0000000  0  9G06G14G19G22G27G24G18G03G09
  23545735.633                                    23545726.621    -4765117.334 6
  -1160149.37743        38.700          20.100
  20686818.367                                    20686807.188   -17830262.050 8
 -12791739.95247        51.500          42.400
  22117835.898                                    22117823.664    -7896490.338 8
  -6143002.52946        48.000          37.400
  20570673.828                                    20570659.895   -17682992.937 8
 -12755506.86847        52.300          45.800
  24637103.102                                    24637092.684    -1158917.415 6
   -197469.94743        40.100          21.700
  24001070.070                                    24001061.410    -1761352.473 6
   -494247.40143        40.400          21.700
  22424807.438                                    22424796.609    -9920814.264 7
  -6553933.15445        47.800          33.500
  23318430.461                                    23318421.508      416507.363 7
   1028241.39644        43.000          25.600
  22824148.320                                    22824137.609    -9814381.297 7
  -7292872.60244        45.200          26.400
 11  1  1  0 10 30.0000000  0  9G06G14G19G22G27G24G18G03G09
  23563603.406                                    23563593.633    -4671225.898 5
  -1086987.25543        35.700          20.100
  20679063.055                                    20679052.344   -17871014.107 8
 -12823494.78647        51.400          42.900
  22124254.359                                    22124241.246    -7862769.311 8
  -6116726.42146        49.700          38.300
  20576568.641                                    20576555.176   -17652017.594 8
 -12731370.23447        52.800          45.000
  24648023.102                                    24648015.262    -1101514.567 5
   -152740.44843        33.700          19.000
  23982119.727                                    23982112.063    -1860936.141 6
   -571845.02343        40.500          22.500
  22438734.008                                    22438722.887    -9847630.410 8
  -6496906.76645        48.700          33.200
  23336466.703                                    23336457.223      511287.697 6
   1102096.20244        41.600          26.100
  22827925.063                                    22827914.410    -9794537.732 7
  -7277410.06844        44.400          27.200
 11  1  1  0 11  0.0000000  0  9G06G14G19G22G27G24G18G03G09
  23581500.133                                    23581492.879    -4577163.278 5
  -1013691.72843        35.900          19.900
  20671406.547                                    20671395.777   -17911249.163 8
 -12854846.77147        51.400          42.800
  22130775.977                                    22130763.273    -7828494.886 7
  -6090019.09146        44.300          37.900
  20582525.969                                    20582510.863   -17620720.986 8
 -12706983.26647        50.500          45.300
  24659028.086                                    24659019.074    -1043690.688 6
   -107682.87943        36.700          18.600
  23963193.492                                    23963184.891    -1960398.550 6
   -649348.16343        39.500          21.500
  22452696.445                                    22452684.973    -9774259.970 8
  -6439734.99645        48.300          32.900
  23354544.992                                    23354535.102      606288.285 7
   1176122.60344        43.600          26.000
  22831830.398                                    22831820.801    -9774010.460 7
  -7261414.79144        44.100          27.900
 11  1  1  0 11 30.0000000  0 10G06G14G19G22G27G24G18G03G11G09
  23599432.813                                    23599423.918    -4482936.102 6
   -940267.96843        36.900          19.000
  20663848.039                                    20663836.859   -17950970.417 8
 -12885798.37147        51.500          42.900
  22137401.922                                    22137389.863    -7793672.389 8
  -6062884.69746        49.200          37.600
  20588539.906                                    20588526.441   -17589107.631 8
 -12682349.48747        52.800          45.500
  24670111.266                                    24670100.906     -985451.268 6
    -62301.48043        38.000          20.900
  23944288.336                                    23944279.910    -2059741.708 6
   -726758.38743        39.500          18.300
  22466691.711                                    22466681.293    -9700707.517 7
  -6382421.40145        47.500          32.800
  23372662.719                                    23372653.590      701502.233 7
   1250315.26144        42.800          26.400
  23922919.922                                                      376167.94815
                        34.800
  22835866.102                                    22835855.742    -9752804.273 7
  -7244890.47544        43.900          27.000
 11  1  1  0 12  0.0000000  0 10G06G14G19G22G27G24G18G03G11G09
  23617395.727                                    23617385.484    -4388544.330 6
   -866715.95843        36.800          18.600
  20656387.531                                    20656376.879   -17990174.680 8
 -12916347.13147        51.400          43.100
  22144132.836                                    22144120.426    -7758300.842 8
  -6035322.45446        49.700          37.700
  20594616.852                                    20594603.211   -17557175.288 8
 -12657467.13347        52.600          45.000
  24681272.914                                    24681262.906     -926795.579 6
    -16595.76143        37.700          20.600
  23925408.797                                    23925397.910    -2158960.879 6
   -804072.00143        40.300          18.600
  22480723.430                                    22480713.070    -9626971.064 7
  -6324964.43345        46.400          33.000
  23390822.742                                    23390812.559      796928.638 7
   1324673.50544        43.700          28.300
  23904295.164                                                      278299.374 5
                        33.900
  22840031.891                                    22840021.355    -9730916.684 7
  -7227835.19944        43.800          26.900
 11  1  1  0 12 30.0000000  0 10G06G14G19G22G27G24G18G03G11G09
  23635387.273                                    23635379.082    -4293991.252 5
   -793038.21843        34.000          18.600
  20649026.039                                    20649015.035   -18028861.168 8
 -12946492.43847        51.200          43.500
  22150969.430                                    22150956.141    -7722381.266 8
  -6007333.19346        50.500          37.600
  20600753.547                                    20600740.258   -17524924.300 8
 -12632336.49847        52.100          44.300
  24692512.859                                    24692503.906     -867725.468 6
     29432.94643        36.200          19.000
  23906550.250                                    23906540.828    -2258054.361 6
   -881287.61643        38.700          18.600
  22494790.070                                    22494779.066    -9553051.516 7
  -6267364.79045        47.600          32.300
  23409022.273                                    23409012.090      892564.892 7
   1399195.23744        42.600          25.300
  23885715.148                                                      180667.85615
                        32.400
  22844326.281                                    22844315.922    -9708348.282 7
  -7210249.41944        43.200          27.300
 11  1  1  0 13  0.0000000  0 10G06G14G19G22G27G24G18G03G11G09
  23653410.453                                    23653402.203    -4199279.875 6
   -719237.19843        37.200          21.100
  20641762.289                                    20641751.578   -18067030.535 8
 -12976234.78147        51.000          43.400
  22157907.188                                    22157894.953    -7685916.248 7
  -5978918.90646        46.900          37.500
  20606951.141                                    20606937.852   -17492356.533 8
 -12606959.02547        51.900          44.500
  24703833.180                                    24703822.820     -808244.035 6
     75782.17643        39.000          19.600
  23887718.094                                    23887708.027    -2357021.299 6
   -958404.70843        39.700          19.600
  22508891.008                                    22508880.238    -9478950.398 7
  -6209623.68045        47.200          32.300
  23427259.234                                    23427250.047      988406.580 6
   1473877.07744        41.900          26.000
  23867177.477                                                       83274.56114
                        29.600
  22848749.992                                    22848739.574    -9685100.984 7
  -7192134.65644        43.400          27.400
 11  1  1  0 13 30.0000000  0 10G06G14G19G22G27G24G18G03G11G09
  23671463.453                                    23671454.559    -4104412.855 6
   -645314.91443        37.400          20.400
  20634598.117                                    20634586.879   -18104681.383 8
 -13005573.08447        50.800          42.800
  22164950.352                                    22164937.473    -7648906.712 8
  -5950080.28946        49.400          37.300
  20613209.195                                    20613195.672   -17459471.697 8
 -12581334.47247        52.200          44.700
  24715227.680                                    24715219.664     -748352.298 6
    122451.10643        37.200          19.000
  23868908.141                                    23868899.832    -2455859.199 6
  -1035421.17443        36.200          20.600
  22523026.875                                    22523015.461    -9404667.682 8
  -6151741.02545        48.100          33.000
  23445536.086                                    23445525.844     1084451.564 6
   1548717.29743        41.700          23.400
  23848690.055                                                      -13877.51714
                        28.900
  22853303.242                                    22853292.648    -9661174.800 7
  -7173490.84444        43.500          26.600
 11  1  1  0 14  0.0000000  0 10G06G14G19G22G27G24G18G03G11G09
  23689545.797                                    23689535.145    -4009393.717 6
   -571273.98943        40.200          19.900
  20627532.227                                    20627520.520   -18141813.792 8
 -13034507.41747        50.900          42.900
  22172095.531                                    22172083.531    -7611355.018 8
  -5920819.24946        48.900          37.600
  20619526.828                                    20619513.246   -17426271.015 8
 -12555463.80947        52.000          44.900
  24726704.313                                    24726694.598     -688052.490 6
    169437.99143        36.900          19.300
  23850126.250                                    23850117.590    -2554566.648 6
  -1112336.00343        38.700          21.700
  22537197.172                                    22537185.230    -9330205.129 7
  -6093718.26845        47.500          32.700
  23463850.695                                    23463841.918     1180695.944 6
   1623712.90244        39.200          24.200
  23830251.164                                                     -110786.59215
                        33.400
  22857985.063                                    22857974.879    -9636571.314 6
  -7154319.27444        41.900          26.200
 11  1  1  0 14 30.0000000  0 10G06G14G19G22G27G24G18G03G11G09
  23707654.547                                    23707645.359    -3914223.531 6
   -497115.43143        39.000          20.600
  20620565.023                                    20620553.551   -18178425.349 8
 -13063035.88747        50.800          43.100
  22179344.898                                    22179332.723    -7573260.534 8
  -5891135.21646        49.400          37.300
  20625904.906                                    20625891.852   -17392753.127 8
 -12529345.98647        51.600          44.700
  24738254.430                                    24738246.883     -627344.748 5
    216742.72743        33.800          20.400
  23831369.578                                    23831360.156    -2653139.984 6
  -1189146.30043        39.300          22.500
  22551399.836                                    22551389.125    -9255561.263 7
  -6035554.22945        46.100          31.900
  23482202.211                                    23482194.078     1277138.602 6
   1698862.98744        40.400          24.100
  23811861.430                                                     -207448.730 6
                        36.700
  22862796.227                                    22862785.281    -9611289.164 7
  -7134618.89544        43.300          27.000
 11  1  1  0 15  0.0000000  0 10G06G14G19G22G27G24G18G03G11G09
  23725793.398                                    23725784.621    -3818906.655 6
   -422842.57843        39.500          20.100
  20613696.406                                    20613685.344   -18214517.696 8
 -13091159.77747        50.700          42.900
  22186697.516                                    22186684.461    -7534627.247 8
  -5861031.39046        50.800          37.400
  20632342.758                                    20632329.762   -17358920.869 8
 -12502983.18047        51.100          44.800
  24749885.102                                    24749876.793     -566233.351 6
    264362.01543        37.500          21.500
  23812637.258                                    23812626.898    -2751579.361 6
  -1265852.25543        38.300          21.800
  22565639.383                                    22565628.672    -9180739.021 7
  -5977251.18545        47.900          32.300
  23500592.492                                    23500582.367     1373774.286 6
   1774163.54243        41.100          22.800
  23793510.883                                                     -303863.32715
                        33.100
  22867734.477                                    22867725.055    -9585331.640 6
  -7114392.25744        41.700          26.000
 11  1  1  0 15 30.0000000  0 10G06G14G19G22G27G24G18G03G11G09
  23743960.008                                    23743950.879    -3723445.605 6
   -348457.37943        37.900          19.300
  20606927.367                                    20606916.188   -18250089.529 8
 -13118878.08647        51.000          43.500
  22194150.313                                    22194137.902    -7495456.098 8
  -5830508.40046        48.200          36.500
  20638841.156                                    20638827.809   -17324774.189 8
 -12476375.37947        52.100          44.700
  24761592.242                                    24761581.355     -504719.290 6
    312295.06943        37.500          21.300
  23793929.555                                    23793919.020    -2849881.984 6
  -1342451.57543        37.500          20.600
  22579910.992                                    22579900.164    -9105738.583 7
  -5918809.29045        46.500          30.800
  23519018.281                                    23519008.625     1470600.719 7
   1849612.68644        42.200          25.600
  23775211.055                                                     -400027.18615
                        31.800
  22872804.109                                    22872792.930    -9558698.586 7
  -7093639.18644        44.500          28.000
 11  1  1  0 16  0.0000000  0  9G06G14G19G22G27G24G18G03G09
  23762150.422                                    23762143.051    -3627843.303 5
   -273962.07142        35.000          16.300
  20600257.602                                    20600246.773   -18285140.701 8
 -13146190.66647        50.900          43.500
  22201707.188                                    22201694.602    -7455748.577 8
  -5799567.48946        50.200          37.600
  20645398.453                                    20645385.398   -17290313.415 8
 -12449522.82547        51.800          44.500
  24773374.133                                    24773364.535     -442804.526 6
    360540.34843        39.800          22.200
  23775249.336                                    23775239.797    -2948046.037 6
  -1418942.98143        37.800          20.100
  22594217.477                                    22594205.652    -9030560.539 7
  -5860228.97845        46.900          31.500
  23537479.688                                    23537468.977     1567614.578 7
   1925207.88844        42.000          25.100
  22877999.211                                    22877990.141    -9531390.715 7
  -7072360.32744        42.300          27.900
 11  1  1  0 16 30.0000000  0  9G06G14G19G22G27G24G18G03G09
  23780371.469                                    23780362.164    -3532101.250 6
   -199357.85742        37.100          16.300
  20593686.656                                    20593675.418   -18319669.348 8
 -13173096.09347        50.600          42.600
  22209364.977                                    22209352.566    -7415505.386 8
  -5768209.16846        49.400          36.800
  20652016.164                                    20652002.875   -17255537.940 8
 -12422425.04647        52.300          44.100
  24785231.328                                    24785220.910     -380489.783 6
    409097.32943        39.600          19.900
  23756597.523                                    23756586.871    -3046068.786 6
  -1495324.27943        39.500          21.300
  22608556.977                                    22608545.621    -8955204.599 7
  -5801510.07745        45.900          31.100
  23555974.297                                    23555965.988     1664813.940 6
   2000947.62144        41.100          25.600
  22883324.305                                    22883314.648    -9503408.037 6
  -7050555.63644        41.800          26.700
 11  1  1  0 17  0.0000000  0  9G06G14G19G22G27G24G18G03G09
  23798613.969                                    23798607.008    -3436224.117 5
   -124648.50642        35.000          17.400
  20587215.422                                    20587204.008   -18353677.049 8
 -13199595.58747        51.000          42.500
  22217124.234                                    22217111.824    -7374730.378 8
  -5736436.45246        49.600          36.600
  20658693.445                                    20658680.332   -17220450.168 8
 -12395083.92547        52.700          44.500
  24797165.953                                    24797155.301     -317778.638 6
    457963.15543        40.200          21.300
  23737971.703                                    23737961.344    -3143949.891 6
  -1571595.21743        38.900          21.100
  22622929.836                                    22622918.715    -8879673.076 7
  -5742654.35145        46.700          30.000
  23574506.367                                    23574496.242     1762193.654 6
   2076827.89443        41.300          23.600
  22888777.656                                    22888766.418    -9474753.269 7
  -7028227.21044        42.500          25.000
 11  1  1  0 17 30.0000000  0  9G06G14G19G22G27G24G18G03G09
  23816886.891                                    23816877.293    -3340213.841 6
    -49835.31543        38.400          19.900
  20580843.430                                    20580832.602   -18387162.356 8
 -13225688.01447        51.100          43.200
  22224983.891                                    22224971.949    -7333423.594 7
  -5704249.33046        47.800          36.400
  20665429.773                                    20665416.484   -17185050.014 8
 -12367499.37947        53.000          44.500
  24809172.117                                    24809163.750     -254672.368 6
    507136.95443        37.300          20.600
  23719372.359                                    23719362.293    -3241686.258 6
  -1647753.38143        39.500          19.300
  22637336.781                                    22637325.133    -8803965.878 7
  -5683661.72644        46.700          29.700
  23593070.305                                    23593061.938     1859752.311 6
   2152847.60843        40.400          22.900
  22894358.664                                    22894348.422    -9445426.478 6
  -7005375.16344        41.500          26.900
 11  1  1  0 18  0.0000000  0  9G06G14G19G22G27G24G18G03G09
  23835179.156                                    23835171.258    -3244073.580 6
     25079.18742        36.800          17.800
  20574570.711                                    20574559.590   -18420125.802 8
 -13251373.80647        49.700          42.800
  22232945.883                                    22232934.234    -7291587.054 8
  -5671649.42946        49.500          37.600
  20672225.359                                    20672212.129   -17149338.088 8
 -12339671.89747        52.200          44.200
  24821258.461                                    24821247.164     -191172.991 6
    556617.04343        39.500          22.000
  23700800.750                                    23700791.504    -3339276.323 6
  -1723797.48543        38.700          21.300
  22651777.172                                    22651764.703    -8728084.065 7
  -5624533.02544        47.000          29.900
  23611669.008                                    23611659.820     1957485.979 6
   2229003.71443        41.100          22.900
  22900067.055                                    22900056.871    -9415429.139 7
  -6982000.61144        43.700          26.500
 11  1  1  0 18 30.0000000  0 10G06G14G19G22G27G24G18G03G11G09
  23853498.758                                    23853491.270    -3147804.701 6
    100093.83042        36.700          17.400
  20568397.625                                    20568386.445   -18452564.573 8
 -13276650.76247        50.200          43.400
  22241007.656                                    22240995.012    -7249221.468 8
  -5638637.30446        49.400          37.500
  20679080.680                                    20679067.215   -17113313.362 8
 -12311600.66947        52.300          44.200
  24833414.781                                    24833405.770     -127281.208 6
    606402.82243        37.900          20.100
  23682257.414                                    23682249.516    -3436716.635 6
  -1799724.95543        39.400          21.300
  22666249.406                                    22666238.051    -8652027.151 7
  -5565267.90245        46.800          30.700
  23630300.844                                    23630290.895     2055392.955 6
   2305294.91543        41.300          21.500
  23666440.734                                                      471057.09215
                        35.600
  22905902.422                                    22905892.590    -9384760.706 7
  -6958103.10844        42.200          27.000
 11  1  1  0 19  0.0000000  0 10G06G14G19G22G27G24G18G03G11G09
  23871843.602                                    23871834.473    -3051412.516 6
    175204.63643        38.900          18.600
  20562324.203                                    20562312.613   -18484481.037 8
 -13301520.71847        48.800          43.200
  22249169.547                                    22249157.371    -7206331.484 8
  -5605216.52746        49.300          36.800
  20685994.508                                    20685981.160   -17076979.649 8
 -12283288.67547        52.700          44.200
  24845647.594                                    24845637.645      -63001.454 5
    656490.97843        34.800          19.000
  23663744.266                                    23663735.254    -3534007.814 6
  -1875536.18343        39.900          20.900
  22680756.438                                    22680743.969    -8575798.098 7
  -5505868.65745        46.400          30.400
  23648963.000                                    23648953.871     2153468.012 6
   2381716.95643        40.300          22.200
  23648488.977                                    23648476.391      376714.563 6
    422532.16053        36.300          19.000
  22911865.820                                    22911856.398    -9353424.841 7
  -6933685.55544        42.400          27.700
 11  1  1  0 19 30.0000000  0 10G06G14G19G22G27G24G18G03G11G09
  23890208.734                                    23890199.840    -2954897.883 6
    250410.81542        37.700          17.400
  20556350.945                                    20556338.887   -18515873.246 8
 -13325982.16547        48.800          43.500
  22257431.039                                    22257418.980    -7162915.926 8
  -5571386.24246        48.500          37.100
  20692967.820                                    20692954.531   -17040335.198 8
 -12254734.54847        52.600          44.400
  24857954.406                                    24857943.461        1666.578 5
    706881.67143        34.300          18.300
  23645259.813                                    23645249.980    -3631145.877 6
  -1951228.15343        39.600          21.500
  22695294.000                                    22695282.410    -8499395.408 7
  -5446334.11244        45.000          29.400
  23667657.313                                    23667649.355     2251709.999 6
   2458269.16243        39.500          20.100
  23630588.961                                    23630576.844      282642.355 6
    349229.25542        36.500          17.400
  22917954.227                                    22917944.980    -9321420.558 6
  -6908747.13044        40.700          24.500
 11  1  1  0 20  0.0000000  0 10G06G14G19G22G27G24G18G03G11G09
  23908600.102                                    23908588.746    -2858264.072 6
    325709.84042        39.500          17.400
  20550476.375                                    20550465.605   -18546741.148 8
 -13350035.05947        49.500          43.400
  22265792.727                                    22265779.613    -7118977.564 8
  -5537148.55946        48.900          36.700
  20700000.461                                    20699986.820   -17003380.978 8
 -12225939.05847        52.600          43.900
  24870334.641                                    24870322.641       66720.167 6
    757572.80342        36.000          17.400
  23626805.195                                    23626795.129    -3728129.468 6
  -2026799.69443        40.800          22.800
  22709866.219                                    22709854.395    -8422820.714 7
  -5386665.52445        45.400          30.300
  23686383.930                                    23686374.215     2350115.015 6
   2534948.34343        38.400          19.600
  23612738.953                                    23612727.656      188842.485 6
    276138.45942        36.300          16.900
  22924173.164                                    22924162.922    -9288749.514 7
  -6883289.16744        42.800          26.000
 11  1  1  0 20 30.0000000  0 10G06G14G19G22G27G24G18G03G11G09
  23927008.672                                    23926999.719    -2761514.096 6
    401099.38442        38.300          17.800
  20544702.000                                    20544691.113   -18577084.712 8
 -13373679.38047        49.600          43.200
  22274253.250                                    22274240.840    -7074518.506 8
  -5502505.15946        49.200          37.100
  20707090.781                                    20707077.844   -16966117.472 8
 -12196902.54247        52.800          44.500
  24882785.078                                    24882775.129      132156.820 5
    808562.35742        34.800          16.900
  23608379.477                                    23608369.352    -3824956.780 6
  -2102249.50243        41.100          22.200
  22724470.359                                    22724458.828    -8346075.024 7
  -5326863.68044        44.700          29.900
  23705138.977                                    23705130.082     2448680.030 6
   2611752.24942        37.500          17.800
  23594940.945                                    23594930.645       95317.402 5
    203261.75942        32.200          13.900
  22930515.406                                    22930505.926    -9255412.793 7
  -6857312.51444        42.000          26.600
 11  1  1  0 21  0.0000000  0 10G06G14G19G22G27G24G18G03G11G09
  23945441.578                                    23945432.215    -2664651.447 6
    476576.77443        37.700          18.600
  20539027.406                                    20539016.344   -18606904.271 8
 -13396915.37347        50.100          43.100
  22282811.344                                    22282799.285    -7029540.844 8
  -5467457.63146        48.500          36.000
  20714240.445                                    20714227.273   -16928546.248 8
 -12167626.26647        52.700          44.100
  24895309.828                                    24895300.055      197974.081 6
    859848.67942        36.300          15.600
  23589981.805                                    23589973.789    -3921626.426 6
  -2177576.50343        40.100          22.200
  22739107.430                                    22739096.074    -8269159.296 7
  -5266929.34445        46.500          30.500
  23723924.758                                    23723915.980     2547401.312 6
   2688677.95143        36.900          18.300
  23577194.039                                    23577186.609        2068.511 5
    130600.39742        30.800          14.800
  22936985.617                                    22936976.781    -9221412.437 6
  -6830818.69144        41.900          26.900
 11  1  1  0 21 30.0000000  0 10G06G14G19G22G27G24G18G03G11G09
  23963895.516                                    23963886.094    -2567676.168 6
    552141.89242        36.100          16.900
  20533453.867                                    20533442.219   -18636196.835 8
 -13419740.73747        51.300          43.700
  22291468.648                                    22291456.941    -6984044.054 8
  -5432005.60946        48.300          36.600
  20721448.820                                    20721435.590   -16890665.123 8
 -12138108.50447        52.200          44.400
  24907907.086                                    24907897.840      264172.696 6
    911432.03742        36.800          17.400
  23571619.719                                    23571608.949    -4018133.694 7
  -2252776.96343        42.300          23.000
  22753776.367                                    22753764.777    -8192071.698 7
  -5206861.09744        45.700          29.300
  23742743.492                                    23742732.723     2646279.007 6
   2765725.44843        40.400          18.300
  23559501.906                                                      -90898.836 5
                        31.000
  22943583.031                                    22943573.551    -9186746.914 7
  -6803806.61944        42.800          26.400
 11  1  1  0 22  0.0000000  0 10G06G14G19G22G27G24G18G03G11G09
  23982371.188                                    23982360.594    -2470592.868 5
    627791.18542        34.900          16.300
  20527977.672                                    20527967.898   -18664963.875 8
 -13442156.59447        50.900          43.700
  22300224.891                                    22300212.305    -6938031.847 8
  -5396151.93646        48.900          36.100
  20728716.063                                    20728702.949   -16852476.296 8
 -12108350.95447        52.400          44.000
  24920574.734                                    24920566.836      330748.815 6
    963309.55542        37.000          17.800
  23553285.156                                    23553274.797    -4114478.276 6
  -2327850.60043        40.900          21.800
  22768477.922                                    22768466.391    -8114814.534 7
  -5146660.72245        45.800          30.200
  23761587.055                                    23761577.750     2745307.850 6
   2842890.83143        40.400          19.600
  23541868.133                                    23541853.320     -183584.278 6
     90507.93553        36.100          19.600
  22950307.180                                    22950295.883    -9151419.298 7
  -6776278.60444        44.800          26.700
 11  1  1  0 22 30.0000000  0 10G06G14G19G22G27G24G18G03G11G09
  24000863.094                                    24000854.785    -2373406.272 5
    703520.97442        35.000          16.300
  20522604.586                                    20522593.230   -18693207.145 8
 -13464164.31847        50.500          44.000
  22309078.578                                    22309065.582    -6891507.927 8
  -5359899.54846        49.200          36.800
  20736041.414                                    20736027.949   -16813982.405 8
 -12078355.70847        52.500          44.200
  24933315.133                                    24933306.590      397698.673 6
   1015478.29142        36.900          17.800
  23534982.430                                    23534971.660    -4210660.101 7
  -2402797.42143        42.600          21.500
  22783211.883                                    22783199.883    -8037390.595 7
  -5086330.37944        45.800          29.400
  23780458.922                                    23780450.672     2844482.458 6
   2920169.67943        38.300          18.300
  23524283.180                                    23524272.527     -275987.196 5
     18505.67942        35.700          17.400
  22957153.547                                    22957143.656    -9115432.540 6
  -6748236.95244        41.800          26.100
 11  1  1  0 23  0.0000000  0 10G06G14G19G22G27G24G18G03G11G09
  24019377.219                                    24019369.086    -2276116.615 5
    779331.03942        35.500          14.800
  20517330.414                                    20517319.586   -18720923.865 8
 -13485761.74747        50.900          43.000
  22318029.344                                    22318017.051    -6844471.621 8
  -5323247.89346        49.500          36.900
  20743424.906                                    20743411.734   -16775181.471 8
 -12048121.21547        52.800          43.900
  24946125.594                                    24946117.344      465022.824 5
   1067938.64342        35.000          16.300
  23516711.695                                    23516700.809    -4306674.557 7
  -2477613.84443        43.200          22.600
  22797977.125                                    22797964.891    -7959798.009 7
  -5025868.64344        46.000          29.400
  23799357.031                                    23799350.598     2943802.695 6
   2997562.00042        37.100          17.400
  23506756.211                                    23506744.328     -368102.579 6
    -53272.46943        37.500          18.600
  22964128.617                                    22964117.906    -9078785.822 7
  -6719681.05544        44.500          28.500
 11  1  1  0 23 30.0000000  0 10G06G14G19G22G27G24G18G03G11G09
  24037909.664                                    24037902.000    -2178728.626 5
    855217.81242        33.700          14.800
  20512156.430                                    20512145.309   -18748115.612 8
 -13506950.09347        50.500          43.500
  22327075.961                                    22327064.313    -6796926.675 8
  -5286199.88946        48.700          36.200
  20750866.242                                    20750853.070   -16736075.760 8
 -12017649.22047        51.900          43.700
  24959010.109                                    24958998.988      532717.143 6
   1120687.50342        37.900          17.400
  23498472.258                                    23498461.488    -4402521.321 7
  -2552299.62343        42.600          22.600
  22812774.133                                    22812761.781    -7882039.450 7
  -4965277.54644        46.100          29.900
  23818288.172                                    23818277.461     3043263.766 6
   3075064.16642        38.700          15.600
  23489279.563                                    23489271.430     -459930.016 5
   -124826.34242        35.700          16.300
  22971226.078                                    22971215.660    -9041481.654 7
  -6690612.87244        43.100          27.300
 11  1  1  0 24  0.0000000  0  9G06G14G19G22G27G24G18G11G09
  24056461.102                                                    -2081237.552 5
                        32.800
  20507082.945                                    20507072.000   -18774774.918 8
 -13527723.56247        49.900          43.500
  22336221.609                                    22336209.609    -6748867.784 8
  -5248751.39846        48.200          36.400
  20758367.672                                    20758353.914   -16696658.753 8
 -11986934.67747        53.000          43.600
  24971962.445                                    24971952.848      600786.972 5
   1173728.97142        35.900          16.900
  23480265.563                                    23480256.082    -4498191.274 6
  -2626847.62343        41.000          21.300
  22827602.789                                    22827591.844    -7804108.008 7
  -4904551.76044        45.000          29.200
  23471861.305                                    23471854.051     -551459.611 6
   -196148.03842        36.500          16.300
  22978450.578                                    22978442.035    -9003514.433 7
  -6661028.00844        43.000          28.100
 11  1  1  0 24 30.0000000  0 10G06G14G19G22G27G24G18G03G11G09
  24075028.477                                                    -1983665.235 5
                        31.900
  20502107.703                                    20502096.699   -18800920.556 8
 -13548096.76847        50.300          43.300
  22345461.375                                    22345449.082    -6700315.436 8
  -5210918.39946        49.500          36.800
  20765923.430                                    20765910.199   -16656949.832 8
 -11955992.64447        52.500          43.700
  24984982.289                                    24984973.863      669211.724 5
   1227046.95242        33.900          16.300
  23462091.680                                    23462082.316    -4593701.320 7
  -2701270.95343        42.800          23.300
  22842463.078                                    22842450.727    -7726023.313 7
  -4843706.55544        46.000          29.300
  23856216.883                                                     3242599.87115
                        34.700
  23454500.773                                    23454490.063     -642707.920 6
   -267250.59242        39.800          17.400
  22985799.984                                    22985788.453    -8964904.145 7
  -6630942.07344        44.700          27.900
 11  1  1  0 25  0.0000000  0 10G06G14G19G22G27G24G18G03G11G09
  24093615.938                                                    -1885993.483 5
                        32.000
  20497233.695                                    20497222.633   -18826531.479 8
 -13568053.31747        49.800          43.800
  22354797.375                                    22354785.082    -6651251.176 8
  -5172686.51146        48.800          36.900
  20773539.219                                    20773525.930   -16616928.883 8
 -11924807.48147        53.100          43.600
  24998071.578                                    24998066.023      738009.692 5
   1280655.81342        30.800          16.300
  23443950.578                                    23443941.332    -4689028.459 7
  -2775551.81744        43.400          24.400
  22857354.789                                    22857343.199    -7647765.554 7
  -4782726.48945        46.600          30.200
  23875223.852                                                     3342469.805 6
                        38.900
  23437193.070                                    23437182.652     -733652.026 6
   -338116.06742        40.600          16.300
  22993271.844                                    22993261.426    -8925631.872 7
  -6600340.25344        44.000          27.600
 11  1  1  0 25 30.0000000  0 10G06G14G19G22G27G24G18G03G11G09
  24112215.664                                                    -1788241.008 4
                        27.300
  20492459.391                                    20492447.742   -18851623.115 8
 -13587605.22347        50.900          43.300
  22364227.789                                    22364215.848    -6601692.584 7
  -5134069.42346        47.300          36.000
  20781211.242                                    20781197.777   -16576611.744 8
 -11893391.52747        52.700          43.600
  25011235.453                                    25011225.035      807163.43015
   1334541.81352        35.400          15.600
  23425843.227                                    23425833.512    -4784186.334 7
  -2849700.81244        42.600          25.100
  22872275.977                                    22872265.500    -7569350.790 7
  -4721624.08144        44.600          28.300
  23894252.234                                    23894240.938     3442461.776 6
   3212640.65852        37.000          14.800
  23419941.523                                    23419931.047     -824304.571 6
   -408754.42642        39.900          17.400
  23000867.719                                    23000858.648    -8885714.398 7
  -6569235.70844        44.100          28.300
 11  1  1  0 26  0.0000000  0 10G06G14G19G22G27G24G18G03G11G09
  24130838.492                                                    -1690385.648 5
                        30.800
  20487788.367                                    20487776.777   -18876170.652 8
 -13606733.15947        51.700          42.800
  22373758.336                                    22373745.164    -6551616.763 8
  -5095049.31746        49.500          36.100
  20788944.203                                    20788930.914   -16535974.569 8
 -11861726.18947        52.200          43.700
  25024465.555                                    25024455.781      876695.424 5
   1388722.65842        33.900          17.800
  23407772.203                                    23407762.781    -4879147.994 7
  -2923696.89144        42.200          24.700
  22887231.633                                    22887221.566    -7490755.087 7
  -4660380.66444        43.900          28.700
  23913305.297                                                     3542598.11615
                        33.200
  23402752.070                                    23402740.246     -914638.526 6
   -479144.43743        41.400          19.300
  23008591.172                                    23008580.754    -8845128.204 7
  -6537610.12444        44.300          27.400
 11  1  1  0 26 30.0000000  0 10G06G14G19G22G27G24G18G03G11G09
  24149471.609                                                    -1592458.38114
                        24.600
  20483214.586                                    20483203.582   -18900202.516 8
 -13625459.26947        51.100          43.400
  22383378.961                                    22383367.020    -6501053.969 7
  -5055649.72246        47.700          36.200
  20796732.984                                    20796719.461   -16495046.069 8
 -11829833.85747        53.100          43.800
  25037763.594                                    25037754.406      946575.340 6
   1443174.47342        36.600          17.400
  23389734.992                                    23389724.457    -4973939.758 7
  -2997560.52844        43.300          25.100
  22902217.156                                    22902206.973    -7412007.168 7
  -4599018.66844        44.300          29.400
  23932380.445                                                     3642846.88615
                        32.400
  23385618.688                                    23385605.105    -1004680.073 6
   -549306.64543        41.600          19.300
  23016435.273                                    23016426.262    -8803903.231 7
  -6505486.70944        43.500          27.600
 11  1  1  0 27  0.0000000  0  9G14G19G22G27G24G18G03G11G09
  20478740.305                                    20478729.301   -18923715.302 8
 -13643780.90847        50.500          43.700
  22393093.406                                    22393081.582    -6450003.263 7
  -5015869.97946        47.600          36.300
  20804577.117                                    20804564.004   -16453823.650 8
 -11797712.48347        52.700          43.800
  25051127.398                                    25051118.563     1016804.090 5
   1497898.25542        34.600          17.400
  23371728.992                                    23371719.277    -5068556.412 6
  -3071287.77943        41.700          23.800
  22917232.555                                    22917220.730    -7333104.987 7
  -4537536.42244        45.100          29.400
  23951481.047                                                     3743208.611 5
                        33.200
  23368540.320                                    23368528.555    -1094423.724 7
   -619236.72643        42.000          22.000
  23024402.672                                    23024393.367    -8762037.930 7
  -6472864.40144        44.100          28.000
 11  1  1  0 27 30.0000000  0 10G32G14G19G22G27G24G18G03G11G09
  24122368.508                                                      544469.97215
                        31.000
  20474369.875                                    20474358.109   -18946684.460 8
 -13661678.93847        50.500          43.500
  22402905.414                                    22402893.063    -6398442.247 7
  -4975692.56546        47.300          36.000
  20812482.313                                    20812469.082   -16412283.596 8
 -11765343.62147        52.000          43.300
  25064561.281                                    25064553.676     1087404.240 5
   1552911.34742        33.700          14.800
  23353763.492                                    23353753.133    -5162971.337 7
  -3144857.79244        42.600          24.300
  22932280.914                                    22932269.441    -7254024.487 7
  -4475915.26344        45.800          29.100
  23970602.727                                                     3843704.654 5
                        32.300
  23351525.953                                    23351513.016    -1183842.202 6
   -688913.51843        41.900          22.000
  23032495.055                                    23032485.164    -8719509.333 7
  -6439725.21544        44.100          26.900
 11  1  1  0 28  0.0000000  0 10G32G14G19G22G27G24G18G03G11G09
  24105657.695                                                      456652.106 6
                        36.200
  20470096.680                                    20470084.914   -18969140.079 8
 -13679176.81147        50.800          43.300
  22412809.023                                    22412796.672    -6346403.004 8
  -4935142.51046        48.700          36.600
  20820441.313                                    20820428.434   -16370456.464 8
 -11732751.04547        52.100          43.100
  25078059.914                                                     1158343.53914
                        28.300
  23335828.359                                    23335819.582    -5257212.618 7
  -3218292.48544        42.700          27.000
  22947357.508                                    22947345.859    -7174796.319 7
  -4414179.03044        45.400          28.200
  23989746.445                                                     3944301.43514
                        29.100
  23334564.578                                    23334552.988    -1272963.469 6
   -758358.61443        41.700          20.400
  23040707.664                                    23040698.125    -8676348.866 7
  -6406093.65444        44.000          27.600
 11  1  1  0 28 30.0000000  0  9G32G14G19G22G24G18G03G11G09
  24088963.820                                                      368952.212 5
                        31.600
  20465924.547                                    20465913.309   -18991064.389 8
 -13696260.67147        49.800          42.800
  22422805.164                                    22422793.164    -6293870.168 7
  -4894207.84446        47.600          36.200
  20828458.727                                    20828445.613   -16328325.141 8
 -11699921.45147        51.800          43.500
  23317932.047                                    23317923.152    -5351260.587 7
  -3291576.59844        42.200          27.100
  22962465.367                                    22962453.543    -7095403.745 7
  -4352314.68544        44.400          27.600
  24008917.117                                                     4045014.18815
                        33.000
  23317664.430                                    23317654.715    -1361767.377 6
   -827556.48343        41.800          20.400
  23049045.516                                    23049035.156    -8632540.774 7
  -6371957.45844        44.900          27.700
 11  1  1  0 29  0.0000000  0  9G32G14G19G22G24G18G03G11G09
  24072303.078                                                      281368.163 6
                        38.600
  20461852.992                                    20461841.578   -19012459.426 8
 -13712932.12047        50.200          43.500
  22432894.789                                    22432882.613    -6240847.819 8
  -4852891.73546        48.500          36.400
  20836533.570                                    20836520.340   -16285892.422 8
 -11666856.99747        52.000          43.100
  23300071.555                                    23300062.133    -5445115.367 7
  -3364710.19944        42.000          26.000
  22977602.977                                    22977592.617    -7015849.744 7
  -4290324.55844        44.400          28.400
  24028098.438                                                     4145837.490 4
                        28.000
  23300827.086                                    23300817.137    -1450253.631 6
   -896506.79943        40.900          23.000
  23057505.336                                    23057493.570    -8588088.540 7
  -6337319.35044        45.900          27.900
 11  1  1  0 29 30.0000000  0  8G32G14G19G22G24G18G11G09
  24055654.180                                    24055646.926      193897.088 6
    426247.66753        38.100          19.300
  20457881.930                                    20457870.281   -19033329.036 8
 -13729194.14047        50.200          43.200
  22443075.922                                    22443064.742    -6187341.548 7
  -4811198.54545        47.100          35.800
  20844664.367                                    20844651.605   -16243162.168 8
 -11633560.69147        51.000          43.300
  23282248.234                                    23282238.871    -5538778.303 6
  -3437694.30444        41.600          24.100
  22992772.297                                    22992761.234    -6936138.071 7
  -4228211.59344        45.900          28.700
  23284050.180                                    23284038.238    -1538423.573 6
   -965210.57043        40.900          21.500
  23066083.945                                    23066074.406    -8542997.317 6
  -6302183.28744        38.700          25.000
 11  1  1  0 30  0.0000000  0  9G32G14G19G22G24G18G03G11G09
  24039033.383                                    24039022.906      106541.080 6
    358178.11643        40.800          19.300
  20454010.398                                    20453999.336   -19053671.984 8
 -13745045.77047        50.200          43.500
  22453350.477                                    22453338.359    -6133352.173 8
  -4769128.93146        48.600          36.500
  20852852.531                                    20852839.242   -16200133.849 8
 -11600032.12947        50.600          42.900
  23264462.375                                    23264452.719    -5632245.811 6
  -3510526.10544        41.600          26.800
  23007970.680                                    23007960.379    -6856268.325 7
  -4165975.43244        44.900          29.000
  24066530.375                                                      671770.76414
                        29.400
  23267332.164                                    23267320.516    -1626273.403 6
  -1033664.97043        41.200          20.900
  23074786.047                                    23074776.566    -8497267.444 6
  -6266549.59944        39.200          27.100
 11  1  1  0 30 30.0000000  0  9G32G14G19G22G24G18G03G11G09
  24022429.930                                    24022419.336       19294.020 6
    290193.45043        40.800          20.900
  20450238.336                                    20450227.215   -19073494.648 8
 -13760491.99347        49.600          43.000
  22463714.789                                    22463702.379    -6078888.472 8
  -4726689.69346        48.400          36.000
  20861095.984                                    20861082.461   -16156814.872 8
 -11566277.08947        51.900          43.400
  23246712.789                                    23246703.074    -5725522.446 7
  -3583209.11944        43.900          28.300
  23023198.789                                    23023187.668    -6776247.875 7
  -4103621.81344        44.800          27.800
  24085776.508                                                      772893.32915
                        32.900
  23250674.516                                    23250663.980    -1713807.087 6
  -1101872.99043        41.400          22.900
  23083610.203                                    23083598.672    -8450907.241 7
  -6230424.77044        46.100          28.100
 11  1  1  0 31  0.0000000  0  8G32G14G19G22G24G18G11G09
  24005851.703                                    24005841.871      -67821.786 6
    222311.09043        39.200          21.100
  20446569.523                                    20446558.227   -19092775.220 8
 -13775515.80447        48.800          43.400
  22474173.063                                    22474160.359    -6023930.678 8
  -4683865.44346        49.000          36.300
  20869398.844                                    20869385.320   -16113183.590 8
 -11532278.68047        51.200          43.000
  23229002.578                                    23228993.625    -5818584.457 7
  -3655724.95344        42.500          27.900
  23038458.781                                    23038448.012    -6696055.319 7
  -4041134.11944        45.000          27.300
  23234082.078                                    23234071.426    -1801000.423 6
  -1169815.83644        41.400          24.200
  23092554.211                                    23092544.379    -8403896.675 7
  -6193793.11044        44.500          27.600
 11  1  1  0 31 30.0000000  0  8G32G14G19G22G24G18G11G09
  23989295.211                                    23989285.848     -154828.070 6
    154514.02143        40.900          22.500
  20442998.961                                    20442987.898   -19111536.343 8
 -13790134.83947        49.100          43.100
  22484720.813                                    22484707.230    -5968503.752 8
  -4640675.61645        48.400          35.700
  20877756.625                                    20877743.102   -16069263.372 8
 -11498055.14947        51.600          43.200
  23211330.633                                    23211321.328    -5911452.265 6
  -3728089.45244        41.700          28.000
  23053747.000                                    23053735.762    -6615714.366 7
  -3978530.78544        44.100          27.600
  23217551.063                                    23217539.531    -1887873.605 6
  -1237509.17744        41.800          25.600
  23101619.367                                    23101609.418    -8356260.102 7
  -6156673.68044        43.700          26.900
 11  1  1  0 32  0.0000000  0  8G32G14G19G22G24G18G11G09
  23972761.078                                    23972751.773     -241717.655 6
     86807.93943        41.600          22.800
  20439529.453                                    20439518.098   -19129771.373 8
 -13804343.94247        49.900          43.100
  22495357.617                                    22495345.969    -5912603.001 7
  -4597116.59946        47.200          36.200
  20886170.398                                    20886157.344   -16025047.955 8
 -11463601.57147        52.300          43.500
  23193696.539                                    23193687.645    -6004116.999 6
  -3800295.67544        41.500          26.000
  23069065.266                                    23069053.090    -6535218.292 7
  -3915806.57844        44.300          25.600
  23201082.094                                    23201070.914    -1974417.665 7
  -1304946.05044        42.300          26.900
  23110804.625                                    23110793.914    -8307992.068 7
  -6119062.20344        43.800          25.600
 11  1  1  0 32 30.0000000  0  9G32G14G19G22G24G18G03G11G09
  23956247.336                                    23956238.324     -328488.711 6
     19194.24143        40.700          22.900
  20436159.250                                    20436147.953   -19147479.622 8
 -13818142.56747        48.600          43.000
  22506085.453                                    22506073.043    -5856229.627 8
  -4553189.33846        48.600          36.700
  20894640.367                                    20894627.371   -15980536.684 8
 -11428917.46847        50.400          43.200
  23176103.352                                    23176094.047    -6096575.064 7
  -3872340.90944        42.200          28.000
  23084412.867                                    23084401.219    -6454566.997 7
  -3852961.38944        45.100          27.800
  24162934.852                                                      636353.27015
                        30.500
  23184677.867                                    23184664.754    -2060628.875 7
  -1372123.59744        42.600          26.400
  23120109.758                                    23120099.750    -8259093.349 7
  -6080959.32644        44.000          26.200
 11  1  1  0 33  0.0000000  0  8G32G14G19G22G24G18G11G09
  23939757.672                                    23939748.367     -415140.591 6
    -48326.62743        40.000          22.300
  20432890.125                                    20432878.887   -19164660.811 8
 -13831530.50447        49.400          43.900
  22516902.078                                    22516890.020    -5799385.641 7
  -4508895.31146        47.600          36.200
  20903167.172                                    20903153.824   -15935730.086 8
 -11394003.23247        51.100          43.100
  23158548.453                                    23158539.676    -6188824.722 7
  -3944223.73144        42.900          26.500
  23099790.352                                    23099778.117    -6373760.855 7
  -3789995.58644        45.200          27.100
  23168336.320                                    23168323.324    -2146505.024 7
  -1439040.07043        42.800          22.800
  23129534.844                                    23129524.133    -8209566.169 7
  -6042366.66844        44.300          26.100
 11  1  1  0 33 30.0000000  0  8G32G14G19G22G24G18G11G09
  23923292.508                                    23923282.617     -501672.171 7
   -115753.79844        42.400          25.700
  20429720.766                                    20429709.527   -19181314.624 8
 -13844507.48947        49.400          43.600
  22527807.656                                    22527796.477    -5742072.855 7
  -4464236.00045        47.000          35.600
  20911749.789                                    20911736.441   -15890628.258 8
 -11358858.95847        51.600          43.400
  23141034.336                                    23141024.621    -6280863.186 7
  -4015941.96644        44.700          28.700
  23115195.695                                    23115183.930    -6292800.319 7
  -3726909.46844        44.900          27.000
  23152057.805                                    23152045.980    -2232043.017 6
  -1505693.07543        40.500          22.900
  23139078.008                                    23139068.117    -8159411.634 7
  -6003285.17144        43.900          26.700
 11  1  1  0 34  0.0000000  0  8G32G14G19G22G24G18G11G09
  23906847.766                                    23906839.047     -588086.067 7
   -183089.20244        42.900          27.100
  20426651.289                                    20426640.109   -19197444.367 8
 -13857076.12247        48.800          43.200
  22538802.000                                    22538790.762    -5684296.555 7
  -4419215.51645        47.000          35.800
  20920387.875                                    20920374.645   -15845235.019 8
 -11323487.59747        51.000          43.800
  23123559.828                                    23123550.816    -6372691.325 7
  -4087496.36745        44.100          30.800
  23130631.117                                    23130619.469    -6211689.090 7
  -3663705.91144        45.300          27.500
  23135845.141                                    23135832.730    -2317243.662 6
  -1572083.17743        41.100          23.000
  23148741.078                                    23148730.836    -8108634.231 7
  -5963718.38044        43.700          26.300
 11  1  1  0 34 30.0000000  0  8G32G14G19G22G24G18G11G09
  23890427.734                                    23890418.547     -674377.557 7
   -250329.26944        43.300          27.100
  20423682.352                                    20423671.055   -19213046.185 8
 -13869233.36647        50.200          42.800
  22549885.258                                    22549873.727    -5626055.249 7
  -4373832.67545        47.000          35.400
  20929082.188                                    20929068.781   -15799546.925 8
 -11287886.48947        52.300          43.400
  23106126.320                                    23106117.484    -6464303.180 7
  -4158882.19244        42.600          27.800
  23146094.703                                    23146083.406    -6130423.937 7
  -3600382.43044        44.200          26.900
  23119697.852                                    23119685.793    -2402100.604 7
  -1638205.40644        43.000          26.500
  23158520.109                                    23158512.387    -8057232.181 6
  -5923664.82643        40.800          23.800
 11  1  1  0 35  0.0000000  0  8G32G14G19G22G24G18G11G09
  23874030.344                                    23874020.102     -760548.926 7
   -317475.66344        42.500          24.500
  20420813.539                                    20420802.125   -19228123.046 8
 -13880981.55847        49.900          43.100
  22561056.477                                    22561044.125    -5567353.791 7
  -4328091.30345        47.500          35.500
  20937831.984                                    20937818.402   -15753567.499 8
 -11252058.35247        52.700          43.400
  23088734.297                                    23088725.695    -6555699.121 7
  -4230099.76744        42.400          28.100
  23161588.227                                    23161576.285    -6049008.319 7
  -3536941.69944        44.700          26.700
  23103615.273                                    23103602.219    -2486614.164 7
  -1704060.12344        43.500          26.400
  23168421.516                                    23168410.980    -8005210.471 7
  -5883128.41144        43.100          24.100
 11  1  1  0 35 30.0000000  0  8G32G14G19G22G24G18G11G09
  23857653.484                                    23857645.293     -846597.937 6
   -384526.80243        40.200          23.200
  20418044.430                                    20418033.543   -19242673.834 8
 -13892319.82047        50.000          43.000
  22572315.039                                    22572302.746    -5508193.447 8
  -4281992.33846        48.300          36.300
  20946636.961                                    20946623.613   -15707295.567 8
 -11216002.30447        52.500          43.600
  23071384.547                                    23071375.477    -6646875.574 7
  -4301146.32144        42.700          28.700
  23177109.719                                    23177098.363    -5967441.116 7
  -3473382.80344        44.500          28.100
  23087599.617                                    23087586.738    -2570780.487 7
  -1769644.25244        43.600          27.800
  23178439.328                                    23178428.676    -7952569.301 7
  -5842109.29244        43.000          25.100
 11  1  1  0 36  0.0000000  0  8G32G14G19G22G24G18G11G09
  23841303.875                                    23841294.688     -932524.861 6
   -451482.77143        40.900          22.300
  20415375.688                                    20415363.863   -19256699.511 8
 -13903248.91147        50.800          43.400
  22583659.547                                    22583647.488    -5448576.942 8
  -4235537.91545        48.500          35.700
  20955497.109                                    20955484.465   -15660732.590 8
 -11179719.46547        52.200          43.500
  23054077.078                                    23054066.719    -6737831.355 7
  -4372020.94744        44.100          28.500
  23192659.789                                    23192648.258    -5885723.861 7
  -3409707.02144        44.600          27.500
  23071647.867                                    23071637.449    -2654598.176 6
  -1834956.71144        41.000          27.200
  23188572.227                                    23188563.801    -7899311.528 6
  -5800609.73043        41.100          23.000
 11  1  1  0 36 30.0000000  0  9G32G14G19G22G24G18G03G11G09
  23824976.773                                    23824966.238    -1018328.510 7
   -518342.70343        42.700          22.600
  20412806.281                                    20412794.984   -19270199.878 8
 -13913768.66147        50.700          43.300
  22595089.633                                    22595077.457    -5388506.056 7
  -4188729.44745        46.900          35.100
  20964412.953                                    20964399.957   -15613878.483 8
 -11143209.76847        52.300          43.400
  23036810.211                                    23036800.438    -6828563.677 7
  -4442721.46944        43.700          27.900
  23208237.797                                    23208227.262    -5803856.769 7
  -3345914.46944        43.600          25.000
  24317981.742                                                      734708.45515
                        31.200
  23055765.055                                    23055754.461    -2738064.214 7
  -1899995.12244        42.400          27.700
  23198826.656                                    23198815.242    -7845438.378 7
  -5758630.59543        44.500          22.900
 11  1  1  0 37  0.0000000  0  8G32G14G19G22G24G18G11G09
  23808671.664                                    23808661.480    -1104009.197 6
   -585106.77643        41.700          23.900
  20410336.789                                    20410326.020   -19283175.853 8
 -13923879.81047        51.000          43.100
  22606606.445                                    22606594.797    -5327983.891 7
  -4141569.35045        46.500          35.400
  20973384.914                                    20973371.332   -15566734.859 8
 -11106474.46747        52.900          43.100
  23019588.336                                    23019577.566    -6919071.122 7
  -4513246.72744        44.700          28.900
  23223846.242                                    23223834.184    -5721841.355 7
  -3282006.37044        43.800          26.000
  23039950.070                                    23039939.184    -2821176.736 7
  -1964758.11944        42.000          28.300
  23209194.875                                    23209182.523    -7790952.879 7
  -5716174.35244        44.500          24.100
 11  1  1  0 37 30.0000000  0  8G32G14G19G22G24G18G11G09
  23792389.742                                    23792380.320    -1189566.471 7
   -651774.76343        42.400          22.900
  20407967.875                                    20407956.285   -19295628.243 8
 -13933582.96047        51.000          43.300
  22618209.930                                    22618196.934    -5267013.333 7
  -4094059.81745        47.900          35.300
  20982410.383                                    20982397.563   -15519302.498 8
 -11069514.18247        52.800          42.900
  23002408.461                                    23002397.516    -7009352.007 7
  -4583595.45444        43.600          28.700
  23239481.023                                    23239469.492    -5639678.594 7
  -3217983.41944        43.800          25.600
  23024201.336                                    23024190.684    -2903933.939 7
  -2029244.21944        42.400          27.800
  23219676.836                                    23219667.707    -7735857.238 6
  -5673242.64843        40.300          22.500
 11  1  1  0 38  0.0000000  0  8G32G14G19G22G24G18G11G09
  23776133.102                                    23776124.148    -1274997.666 7
   -718344.44644        42.300          24.400
  20405698.023                                    20405686.551   -19307555.051 8
 -13942876.57047        50.900          43.100
  22629898.000                                    22629884.652    -5205594.474 7
  -4046200.97945        46.600          35.000
  20991492.555                                    20991478.563   -15471579.804 8
 -11032327.66647        53.000          42.800
  22985271.289                                    22985261.750    -7099401.879 7
  -4653764.16544        43.200          28.300
  23255144.422                                    23255132.656    -5557366.993 7
  -3153844.51244        42.700          24.700
  23008522.516                                    23008511.160    -2986331.297 7
  -2093449.90844        42.300          25.300
  23230278.055                                    23230267.637    -7680151.193 6
  -5629835.32844        41.700          24.700
 11  1  1  0 38 30.0000000  0  8G32G14G19G22G24G18G11G09
  23759899.422                                    23759890.469    -1360303.385 6
   -784816.38343        41.700          22.000
  20403528.336                                    20403516.570   -19318957.766 8
 -13951761.79447        50.700          42.700
  22641668.914                                    22641656.973    -5143730.990 7
  -3997995.66845        45.800          35.500
  21000628.250                                    21000615.020   -15423568.592 8
 -10994916.33047        52.800          42.700
  22968179.313                                    22968169.422    -7189219.740 7
  -4723752.04044        43.400          29.100
  23270835.633                                    23270824.453    -5474908.354 7
  -3089591.03544        42.600          25.600
  22992909.617                                    22992899.727    -3068367.750 6
  -2157374.39144        40.600          26.800
  23240995.406                                    23240983.406    -7623838.313 7
  -5585955.18243        43.200          22.900
 11  1  1  0 39  0.0000000  0  8G32G14G19G22G24G18G11G09
  23743690.359                                    23743680.996    -1445482.375 6
   -851189.54043        41.300          22.600
  20401458.000                                    20401446.586   -19329836.009 8
 -13960238.33547        50.000          43.300
  22653525.617                                    22653513.324    -5081424.879 7
  -3949445.46045        46.700          35.300
  21009819.273                                    21009806.043   -15375269.189 8
 -10957280.42147        51.600          42.500
  22951133.008                                    22951121.828    -7278803.075 7
  -4793557.24544        43.700          29.000
  23286555.719                                    23286542.957    -5392302.997 7
  -3025223.25444        42.800          24.800
  22977370.281                                    22977358.047    -3150040.435 7
  -2221015.44544        44.300          27.000
  23251824.180                                    23251815.637    -7566919.864 6
  -5541603.11343        39.500          21.300
 11  1  1  0 39 30.0000000  0  9G32G14G31G19G22G24G18G11G09
  23727505.563                                    23727496.434    -1530534.766 6
   -917464.11043        40.800          22.500
  20399487.844                                    20399476.137   -19340191.146 8
 -13968307.26747        50.300          42.900
  25001547.211    25001536.680                                      528131.33715
                        34.000
  22665466.086                                    22665453.500    -5018678.884 7
  -3900552.49045        46.600          34.900
  21019064.633                                    21019051.754   -15326682.648 8
 -10919420.76547        51.500          42.600
  22934131.430                                    22934119.195    -7368150.288 7
  -4863178.44244        43.000          28.900
  23302300.500                                    23302290.434    -5309551.916 6
  -2960741.88744        40.700          25.300
  22961896.117                                    22961885.406    -3231347.454 7
  -2284371.55344        42.700          26.900
  23262771.656                                    23262760.828    -7509398.745 6
  -5496781.43743        41.700          22.800
 11  1  1  0 40  0.0000000  0  9G32G14G31G19G22G24G18G11G09
  23711343.805                                    23711335.262    -1615460.099 6
   -983639.65543        39.800          21.700
  20397616.633                                    20397605.043   -19350023.764 8
 -13975969.03947        48.300          42.900
  24980355.031    24980344.676                                      416755.976 6
                        36.200
  22677489.344                                    22677476.465    -4955495.768 7
  -3851318.91945        46.800          34.700
  21028365.039                                    21028351.926   -15277809.643 8
 -10881337.90747        51.000          42.400
  22917174.117                                    22917165.164    -7457259.490 7
  -4932614.15944        43.000          29.600
  23318075.156                                    23318064.621    -5226656.207 6
  -2896147.84944        41.400          25.600
  22946494.891                                    22946482.598    -3312286.549 7
  -2347440.94344        43.900          27.800
  23273831.484                                    23273821.008    -7451277.202 6
  -5451491.90343        40.200          22.800
 11  1  1  0 40 30.0000000  0  9G32G14G31G19G22G24G18G11G09
  23695208.570                                    23695198.680    -1700258.957 7
  -1049716.55244        42.500          27.100
  20395844.523                                    20395832.875   -19359335.277 8
 -13983224.75447        49.100          43.300
  24959153.117    24959143.992                                      305345.304 5
                        34.100
  22689594.797                                    22689582.504    -4891879.060 7
  -3801747.46745        46.600          34.600
  21037719.922                                    21037706.574   -15228651.944 8
 -10843033.19547        51.600          42.900
  22900261.133                                    22900253.469    -7546129.478 7
  -5001863.49044        44.300          29.300
  23333877.953                                    23333866.246    -5143617.558 7
  -2831442.39044        42.300          24.700
  22931162.367                                    22931151.422    -3392856.765 7
  -2410222.88244        43.400          27.000
  23285005.477                                    23284995.879    -7392558.367 6
  -5405736.99943        40.600          22.500
 11  1  1  0 41  0.0000000  0  9G32G14G31G19G22G24G18G11G09
  23679095.813                                    23679086.801    -1784927.741 6
  -1115692.17444        41.200          24.700
  20394172.531                                    20394160.941   -19368123.057 8
 -13990072.36747        49.500          43.500
  24937948.867    24937934.762                                      193905.148 5
                        35.500
  22701783.406                                    22701771.465    -4827828.356 7
  -3751837.83045        46.200          35.000
  21047128.680                                    21047115.332   -15179207.148 8
 -10804504.77947        51.600          43.000
  22883396.430                                    22883387.887    -7634755.029 7
  -5070922.34044        44.100          29.600
  23349706.805                                    23349695.742    -5060433.663 6
  -2766623.78144        40.600          25.300
  22915901.164                                    22915890.746    -3473052.690 7
  -2472713.22944        44.000          27.800
  23296292.148                                    23296282.551    -7333241.813 6
  -5359516.31343        39.200          22.000
 11  1  1  0 41 30.0000000  0  9G32G14G31G19G22G24G18G11G09
  23663007.922                                    23662998.266    -1869469.316 7
  -1181568.65743        42.400          23.500
  20392598.563                                    20392587.266   -19376391.119 8
 -13996514.99647        48.400          43.100
  24916737.070    24916724.723                                       82434.545 6
                        36.600
  22714053.867                                    22714040.871    -4763349.621 7
  -3701594.69145        46.400          33.400
  21056591.359                                    21056578.305   -15129479.353 8
 -10765755.84547        50.800          42.400
  22866577.992                                    22866569.566    -7723137.535 7
  -5139791.81344        42.600          28.200
  23365562.500                                    23365552.199    -4977108.512 6
  -2701695.10443        39.500          22.900
  22900711.422                                    22900700.594    -3552875.720 7
  -2534912.98544        43.600          26.900
  23307693.516                                    23307683.801    -7273333.265 6
  -5312834.24943        40.500          22.300
 11  1  1  0 42  0.0000000  0  9G32G14G31G19G22G24G18G11G09
  23646944.578                                    23646934.863    -1953880.106 6
  -1247343.24943        40.900          23.900
  20391124.797                                    20391113.500   -19384136.846 8
 -14002550.62147        49.000          43.600
  24895520.273    24895510.387                                      -29060.633 6
                        36.800
  22726404.523                                    22726392.172    -4698442.232 7
  -3651017.50345        46.700          34.200
  21066109.211                                    21066095.453   -15079465.965 8
 -10726784.36747        51.800          42.900
  22849806.984                                    22849797.445    -7811271.799 7
  -5208467.83644        43.400          29.900
  23381446.539                                    23381436.180    -4893639.986 6
  -2636654.71543        40.900          22.900
  22885594.367                                    22885583.129    -3632320.361 7
  -2596817.89944        44.000          27.400
  23319206.500                                    23319194.910    -7212831.744 6
  -5265690.19743        40.400          22.200
 11  1  1  0 42 30.0000000  0  9G32G14G31G19G22G24G18G11G09
  23630906.930                                    23630897.156    -2038161.086 7
  -1313016.66244        42.700          26.000
  20389750.000                                    20389738.410   -19391362.521 8
 -14008181.01347        49.900          43.100
  24874298.672    24874290.953                                     -140579.278 6
                        36.300
  22738837.422                                    22738824.602    -4633110.505 7
  -3600109.68545        46.200          34.400
  21075679.922                                    21075666.691   -15029169.639 8
 -10687592.40947        51.000          42.800
  22833082.813                                    22833072.453    -7899157.097 7
  -5276949.85944        42.400          29.100
  23397357.195                                    23397346.309    -4810030.475 6
  -2571504.44844        41.400          25.300
  22870547.703                                    22870537.109    -3711385.896 7
  -2658427.35144        43.700          28.300
  23330832.820                                    23330821.582    -7151740.945 6
  -5218086.99644        40.100          24.200
 11  1  1  0 43  0.0000000  0  9G32G14G31G19G22G24G18G11G09
  23614892.781                                    23614884.063    -2122310.851 7
  -1378587.80843        42.400          23.200
  20388474.000                                    20388462.469   -19398067.293 8
 -14013405.49647        48.800          42.800
  24853072.961    24853061.668                                     -252117.540 5
                        35.300
  22751348.984                                    22751337.746    -4567356.024 7
  -3548872.43445        46.900          33.600
  21085304.664                                    21085291.551   -14978589.944 8
 -10648179.66547        50.700          42.800
  22816407.133                                    22816396.363    -7986790.570 7
  -5345235.62444        44.200          29.700
  23413294.438                                    23413282.906    -4726279.701 7
  -2506244.12944        42.100          24.900
  22855574.617                                    22855564.199    -3790068.938 7
  -2719738.79344        43.900          27.600
  23342566.727                                    23342558.359    -7090062.576 6
  -5170025.93243        41.600          22.900
 11  1  1  0 43 30.0000000  0  9G32G14G31G19G22G24G18G11G09
  23598906.344                                    23598896.980    -2206327.641 7
  -1444055.35944        43.000          26.700
  20387297.430                                    20387286.074   -19404251.200 8
 -14018224.10847        50.000          42.800
  24831843.438    24831833.961                                     -363671.816 5
                        34.400
  22763943.406                                    22763930.117    -4501180.310 7
  -3497306.94545        47.300          34.900
  21094983.602                                    21094970.313   -14927726.431 8
 -10608545.75247        51.600          42.500
  22799778.953                                    22799769.238    -8074169.210 7
  -5413322.87545        44.000          30.200
  23429259.078                                    23429247.488    -4642387.363 6
  -2440873.48143        40.300          22.900
  22840676.367                                    22840664.074    -3868366.485 7
  -2780749.85044        44.900          26.500
  23354418.375                                    23354407.313    -7027798.016 7
  -5121508.04144        42.300          25.500
 11  1  1  0 44  0.0000000  0  9G32G14G31G19G22G24G18G11G09
  23582942.773                                    23582933.879    -2290213.645 7
  -1509420.99544        44.200          26.600
  20386219.625                                    20386207.742   -19409917.086 8
 -14022639.08547        49.500          43.500
  24810614.266    24810601.391                                     -475241.826 6
                        36.300
  22776614.180                                    22776602.531    -4434588.357 7
  -3445417.11745        46.400          34.400
  21104715.633                                    21104702.930   -14876582.351 8
 -10568693.22047        51.400          43.200
  22783198.805                                    22783189.383    -8161293.286 6
  -5481211.75844        41.900          27.600
  23445249.648                                    23445237.648    -4558356.689 6
  -2375395.04144        41.800          26.400
  22825849.133                                    22825837.484    -3946278.837 7
  -2841460.77744        44.700          27.500
  23366376.805                                    23366365.684    -6964951.773 6
  -5072536.93043        40.200          22.000
 11  1  1  0 44 30.0000000  0  9G32G14G31G19G22G24G18G11G09
  23567006.305                                    23566996.238    -2373965.917 7
  -1574682.47444        43.900          25.800
  20385239.758                                    20385228.285   -19415063.256 8
 -14026649.07347        50.000          43.200
  24789378.594    24789369.234                                     -586822.731 5
                        34.200
  22789366.094                                    22789353.215    -4367580.672 7
  -3393203.33745        46.600          34.300
  21114502.281                                    21114489.051   -14825156.027 8
 -10528620.76247        51.400          42.300
  22766669.094                                    22766660.141    -8248158.454 7
  -5548898.82844        42.700          29.400
  23461266.086                                    23461255.258    -4474185.941 7
  -2309807.46544        42.800          26.200
  22811098.211                                    22811085.391    -4023801.409 7
  -2901867.99044        46.600          27.700
  23378446.008                                    23378435.883    -6901524.031 6
  -5023112.72644        40.500          25.600
 11  1  1  0 45  0.0000000  0  9G32G14G31G19G22G24G18G11G09
  23551093.438                                    23551083.488    -2457584.585 7
  -1639839.82244        43.300          25.500
  20384358.844                                    20384347.605   -19419691.145 8
 -14030255.21247        49.800          43.500
  24768144.766    24768133.063                                     -698412.353 6
                        36.100
  22802195.703                                    22802183.117    -4300160.679 7
  -3340668.30045        46.700          34.400
  21124341.867                                    21124328.578   -14773448.926 8
 -10488329.50547        51.100          42.400
  22750190.023                                    22750180.836    -8334763.178 7
  -5616382.95945        43.700          31.200
  23477309.859                                    23477298.797    -4389876.422 6
  -2244111.74643        41.900          23.900
  22796419.945                                    22796408.180    -4100932.557 7
  -2961970.17744        46.400          29.600
  23390625.914                                    23390616.141    -6837518.017 6
  -4973237.85544        41.400          26.000
 11  1  1  0 45 30.0000000  0  9G32G14G31G19G22G24G18G11G09
  23535206.391                                    23535197.438    -2541070.337 7
  -1704893.61944        43.300          26.900
  20383576.445                                    20383565.266   -19423802.370 8
 -14033458.75347        49.500          42.900
  24746909.586    24746897.004                                     -810009.091 6
                        38.100
  22815102.633                                    22815090.926    -4232331.759 7
  -3287814.59945        47.000          33.700
  21134234.750                                    21134221.109   -14721462.868 8
 -10447820.88847        51.900          42.200
  22733759.523                                    22733749.164    -8421106.514 7
  -5683663.48445        45.000          31.800
  23493379.938                                    23493367.762    -4305430.452 7
  -2178309.68844        42.000          25.300
  22781816.719                                    22781805.129    -4177671.301 7
  -3021766.59444        45.200          28.500
  23402915.563                                    23402904.148    -6772937.501 6
  -4922915.37843        41.900          22.300
 11  1  1  0 46  0.0000000  0  9G32G14G31G19G22G24G18G11G09
  23519345.797                                    23519335.848    -2624422.093 7
  -1769842.94044        43.700          26.500
  20382892.664                                    20382881.250   -19427397.238 8
 -14036259.94747        50.900          43.200
  24725672.758    24725660.000                                     -921609.805 5
                        34.400
  22828088.094                                    22828075.918    -4164096.464 7
  -3234644.24345        46.100          33.600
  21144179.898                                    21144167.020   -14669197.864 8
 -10407094.91346        51.000          41.700
  22717379.250                                    22717368.832    -8507185.947 7
  -5750738.33045        45.300          31.200
  23509476.406                                    23509463.117    -4220848.290 7
  -2112401.50443        43.100          23.800
  22767289.844                                    22767277.844    -4254015.041 7
  -3081255.19544        45.800          27.500
  23415312.969                                    23415303.371    -6707784.170 6
  -4872146.51244        39.100          25.700
 11  1  1  0 46 30.0000000  0  9G32G14G31G19G22G24G18G11G09
  23503510.281                                    23503499.746    -2707638.443 7
  -1834686.79044        43.800          25.900
  20382306.938                                    20382295.816   -19430475.436 8
 -14038658.53447        50.500          43.100
  24704434.008    24704424.238                                    -1033211.106 5
                        32.600
  22841150.195                                    22841137.727    -4095456.443 7
  -3181158.50945        47.200          34.900
  21154179.266                                    21154165.684   -14616653.770 8
 -10366151.46747        51.900          42.200
  22701049.570                                    22701038.918    -8592998.346 7
  -5817605.08845        45.200          30.400
  23525597.297                                    23525585.180    -4136129.457 6
  -2046386.85844        40.700          24.400
  22752838.039                                    22752826.391    -4329960.368 7
  -3140433.36544        46.000          28.300
  23427821.070                                    23427810.242    -6642059.612 7
  -4820932.60844        42.700          24.700
 11  1  1  0 47  0.0000000  0  9G32G14G31G19G22G24G18G11G09
  23487699.992                                    23487690.922    -2790716.958 7
  -1899423.24844        42.600          25.800
  20381819.773                                    20381808.125   -19433035.857 8
 -14040653.65747        49.600          42.900
  24683200.219    24683188.047                                    -1144808.185 5
                        34.700
  22854288.078                                    22854276.195    -4026412.591 7
  -3127358.10945        46.700          33.600
  21164230.953                                    21164217.664   -14563829.556 8
 -10324989.73347        51.500          42.000
  22684771.672                                    22684761.781    -8678539.344 7
  -5884260.39845        46.000          32.200
  23541745.156                                    23541733.273    -4051273.071 6
  -1980265.03044        40.600          24.700
  22738462.813                                    22738449.758    -4405503.493 7
  -3199298.10344        46.300          27.800
  23440436.406                                    23440426.047    -6575764.680 6
  -4769274.17543        41.800          23.900
 11  1  1  0 47 30.0000000  0  9G32G14G31G19G22G24G18G11G09
  23471917.172                                    23471907.223    -2873659.841 7
  -1964053.99244        42.500          26.700
  20381430.305                                    20381418.891   -19435081.876 8
 -14042247.94247        50.300          43.300
  24661963.414    24661952.004                                    -1256401.022 5
                        33.300
  22867501.680                                    22867490.383    -3956970.075 7
  -3073247.07845        45.800          33.600
  21174335.555                                    21174322.090   -14510728.534 8
 -10283612.30547        52.000          42.200
  22668544.398                                    22668535.504    -8763809.794 7
  -5950704.86645        44.100          32.700
  23557916.609                                    23557906.191    -3966282.356 6
  -1914038.52743        40.100          23.400
  22724163.273                                    22724151.215    -4480644.688 7
  -3257849.63544        46.000          28.700
  23453158.359                                    23453149.816    -6508904.623 6
  -4717175.42244        40.700          26.200
 11  1  1  0 48  0.0000000  0  9G32G14G31G19G22G24G18G11G09
  23456157.664                                    23456148.887    -2956464.871 6
  -2028577.30744        40.500          25.400
  20381139.031                                    20381127.676   -19436612.530 8
 -14043440.65447        49.300          43.300
  24640730.375    24640718.496                                    -1367985.167 5
                        34.100
  22880793.273                                    22880780.277    -3887130.070 7
  -3018826.29445        47.200          33.700
  21184493.305                                    21184480.426   -14457349.421 8
 -10242018.19247        52.600          42.900
  22652370.234                                    22652360.402    -8848805.814 7
  -6016935.50745        45.800          32.000
  23574116.453                                    23574104.980    -3881156.285 6
  -1847706.52243        41.700          22.300
  22709942.477                                    22709929.246    -4555380.405 7
  -3316085.22345        47.100          30.200
  23465989.188                                    23465979.707    -6441480.157 6
  -4664636.90643        40.500          23.500
 11  1  1  0 48 30.0000000  0  9G32G14G31G19G22G24G18G11G09
  23440428.289                                    23440418.633    -3039133.093 7
  -2092994.06444        43.700          27.400
  20380945.250                                    20380934.070   -19437630.268 8
 -14044233.68647        49.700          43.100
  24619497.352    24619485.238                                    -1479559.516 5
                        34.000
  22894157.625                                    22894145.098    -3816897.163 7
  -2964099.35045        46.300          33.000
  21194703.445                                    21194690.508   -14403694.872 8
 -10200209.44547        52.300          42.900
  22636247.711                                    22636238.875    -8933527.273 7
  -6082952.18445        45.400          30.500
  23590341.758                                    23590329.348    -3795897.527 6
  -1781271.15343        41.500          22.500
  22695796.094                                    22695785.207    -4629710.225 7
  -3374004.54944        44.600          28.500
  23478927.164                                    23478916.219    -6373495.633 7
  -4611661.88944        42.200          25.700
 11  1  1  0 49  0.0000000  0  9G32G14G31G19G22G24G18G11G09
  23424723.500                                    23424712.906    -3121661.866 7
  -2157302.10344        43.200          27.800
  20380849.375                                    20380838.254   -19438133.825 8
 -14044626.06647        50.200          42.900
  24598267.125    24598257.063                    24598257.352    -1591119.243 5
    483065.76853        33.200          18.300
  22907596.555                                    22907584.848    -3746271.517 7
  -2909066.37445        46.000          32.900
  21204966.641                                    21204953.176   -14349763.322 8
 -10158184.85947        52.700          42.700
  22620179.516                                    22620169.742    -9017969.650 7
  -6148751.41945        44.700          30.400
  23606589.078                                    23606579.598    -3710504.473 6
  -1714731.08243        40.300          22.300
  22681730.461                                    22681718.695    -4703629.537 7
  -3431603.99044        45.900          29.100
  23491970.453                                    23491959.977    -6304951.174 7
  -4558250.63444        42.800          27.400
 11  1  1  0 49 30.0000000  0  9G32G14G31G19G22G24G18G11G09
  23409045.102                                    23409035.152    -3204052.798 7
  -2221502.78244        44.000          28.000
  20380850.945                                    20380839.941   -19438125.796 8
 -14044619.80647        50.800          42.900
  24577042.102    24577032.859                    24577031.801    -1702663.853 5
    396147.95742        33.700          15.600
  22921110.680                                    22921099.090    -3675258.316 7
  -2853731.43545        45.300          33.700
  21215281.258                                    21215268.613   -14295557.545 8
 -10115946.59047        51.800          42.300
  22604163.180                                    22604154.637    -9102132.959 7
  -6214333.19445        46.100          33.300
  23622864.852                                    23622854.785    -3624980.155 6
  -1648088.79243        40.700          23.200
  22667741.875                                    22667729.758    -4777138.169 7
  -3488883.38744        45.800          28.600
  23505119.852                                    23505109.141    -6235851.600 6
  -4504406.79044        41.300          26.300
 11  1  1  0 50  0.0000000  0  9G32G14G31G19G22G24G18G11G09
  23393394.070                                    23393383.828    -3286301.131 7
  -2285592.34044        43.800          27.900
  20380951.789                                    20380938.266   -19437602.734 8
 -14044212.21747        50.900          43.800
  24555819.125    24555812.695                    24555810.699    -1814186.094 5
    309247.56942        33.800          16.900
  22934698.156                                    22934685.277    -3603856.317 7
  -2798093.51445        46.700          33.100
  21225649.727                                    21225636.262   -14241074.024 8
 -10073491.89346        52.800          41.900
  22588202.180                                    22588193.109    -9186010.598 7
  -6279692.37845        46.700          33.200
  23639166.203                                    23639154.672    -3539320.895 6
  -1581341.35743        41.400          22.000
  22653832.867                                    22653820.633    -4850230.041 7
  -3545838.04144        45.000          28.300
  23518374.102                                    23518364.270    -6166195.395 6
  -4450129.21844        41.100          26.200
 11  1  1  0 50 30.0000000  0  9G32G14G31G19G22G24G18G11G09
  23377768.414                                    23377758.875    -3368410.388 7
  -2349573.58644        43.900          27.700
  20381145.102                                    20381134.508   -19436569.841 8
 -14043407.35547        51.000          43.200
  24534599.609    24534592.125                    24534593.176    -1925687.410 5
    222363.41542        34.300          15.600
  22948358.508                                    22948345.512    -3532071.721 7
  -2742157.47245        46.600          32.800
  21236069.289                                    21236055.941   -14186317.703 8
 -10030824.63647        52.400          42.300
  22572294.945                                    22572285.348    -9269604.942 7
  -6344830.79345        46.400          32.100
  23655490.555                                    23655479.316    -3453531.581 6
  -1514492.46643        37.900          20.600
  22640003.516                                    22639991.340    -4922907.114 7
  -3602469.51344        46.600          29.700
  23531734.906                                    23531723.961    -6095989.271 6
  -4395423.18343        41.400          22.600
 11  1  1  0 51  0.0000000  0  9G32G14G31G19G22G24G18G11G09
  23362169.891                                    23362160.879    -3450379.582 7
  -2413445.57744        42.700          28.600
  20381440.500                                    20381429.262   -19435027.245 8
 -14042205.32947        51.100          43.100
  24513386.945    24513378.641                    24513378.637    -2037164.391 6
    135498.33642        36.500          17.800
  22962090.547                                    22962078.371    -3459906.930 7
  -2685925.15745        46.200          32.800
  21246541.047                                    21246527.582   -14131288.598 8
  -9987944.80747        52.100          42.100
  22556441.953                                    22556432.414    -9352913.107 7
  -6409746.24045        46.800          32.400
  23671839.750                                    23671829.625    -3367612.357 6
  -1447542.46843        39.600          21.300
  22626252.383                                    22626240.617    -4995166.699 7
  -3658775.66044        46.600          29.400
  23545197.898                                    23545187.832    -6025235.463 7
  -4340290.26843        42.000          23.200
 11  1  1  0 51 30.0000000  0  9G32G14G31G19G22G24G18G11G09
  23346599.438                                    23346589.078    -3532207.343 7
  -2477207.43044        44.900          29.200
  20381831.148                                    20381819.383   -19432975.033 8
 -14040606.20747        50.200          42.700
  24492181.445    24492170.270                    24492169.270    -2148613.645 6
     48654.81743        39.800          19.600
  22975895.203                                    22975882.969    -3387364.284 7
  -2629398.43445        47.600          33.400
  21257064.133                                    21257051.137   -14075986.771 8
  -9944852.48546        51.900          41.800
  22540643.906                                    22540634.602    -9435932.573 7
  -6474436.71145        47.000          31.900
  23688215.039                                    23688203.684    -3281563.595 6
  -1380491.51643        41.900          22.200
  22612582.844                                    22612570.785    -5067006.014 7
  -3714754.32544        47.400          29.800
  23558766.727                                    23558755.781    -5953935.928 7
  -4284732.20244        42.000          24.800
 11  1  1  0 52  0.0000000  0  9G32G14G31G19G22G24G18G11G09
  23331054.695                                    23331044.336    -3613893.467 7
  -2540858.91544        44.900          27.400
  20382318.602                                    20382306.719   -19430414.274 8
 -14038610.80247        49.400          43.200
  24470978.313    24470968.250                    24470968.129    -2260032.514 6
    -38165.10443        39.700          19.000
  22989770.727                                    22989758.785    -3314446.893 7
  -2572579.67045        46.500          33.500
  21267639.891                                    21267626.367   -14020413.065 8
  -9901548.30246        51.600          41.600
  22524901.148                                    22524891.199    -9518661.106 7
  -6538900.49045        47.200          31.300
  23704614.641                                    23704602.758    -3195386.392 6
  -1313340.48043        41.900          22.500
  22598991.836                                    22598980.539    -5138422.963 7
  -3770403.87945        47.500          30.200
  23572436.344                                    23572426.863    -5882093.355 6
  -4228750.96444        40.900          24.500
 11  1  1  0 52 30.0000000  0  9G32G14G31G19G22G24G18G11G09
  23315537.172                                    23315526.930    -3695437.027 7
  -2604399.29044        44.700          27.500
  20382902.242                                    20382890.828   -19427345.533 8
 -14036219.56247        49.500          43.000
  24449781.320    24449771.668                    24449772.719    -2371418.216 6
   -124959.07443        41.500          20.100
  23003717.063                                    23003704.652    -3241156.847 7
  -2515470.53145        46.000          31.800
  21278266.648                                    21278253.359   -13964567.943 8
  -9858032.61846        51.500          41.400
  22509214.563                                    22509203.969    -9601096.313 7
  -6603135.71045        47.800          31.500
  23721038.766                                    23721025.887    -3109080.432 7
  -1246089.05343        43.300          22.900
  22585481.727                                    22585471.016    -5209415.188 7
  -3825722.47244        46.000          29.800
  23586212.492                                    23586201.254    -5809710.151 7
  -4172348.42443        42.100          22.500
 11  1  1  0 53  0.0000000  0  9G32G14G31G19G22G24G18G11G09
  23300046.781                                    23300037.711    -3776835.731 7
  -2667826.82844        44.000          27.100
  20383583.422                                    20383572.125   -19423768.022 8
 -14033431.87647        49.500          43.100
  24428591.867    24428584.207                    24428583.441    -2482765.870 6
   -211723.46843        39.600          19.900
  23017735.383                                    23017722.328    -3167495.362 7
  -2458072.00845        47.100          32.900
  21288945.734                                    21288932.211   -13908450.480 8
  -9814304.71546        51.400          41.200
  22493584.859                                    22493574.617    -9683234.203 8
  -6667139.24345        48.400          34.100
  23737485.977                                    23737474.855    -3022645.137 7
  -1178736.86544        42.400          24.000
  22572054.336                                    22572042.922    -5279978.826 7
  -3880707.08445        46.000          30.800
  23600088.094                                    23600077.676    -5736787.435 6
  -4115525.58343        40.000          20.900
 11  1  1  0 53 30.0000000  0  9G32G14G31G19G22G24G18G11G09
  23284585.313                                    23284574.719    -3858090.318 7
  -2731142.10844        44.000          28.400
  20384360.445                                    20384348.738   -19419684.225 8
 -14030249.70047        49.300          43.000
  24407410.594    24407402.465                    24407401.816    -2594074.213 6
   -298457.19043        39.900          21.300
  23031822.430                                    23031810.371    -3093466.577 7
  -2400387.21145        47.100          32.700
  21299675.852                                    21299662.563   -13852062.392 8
  -9770365.94446        52.000          41.700
  22478010.523                                    22478001.336    -9765074.061 7
  -6730910.53245        47.500          33.600
  23753958.961                                    23753947.078    -2936082.603 7
  -1111285.52644        43.200          24.300
  22558709.711                                    22558696.832    -5350113.233 7
  -3935357.25045        46.700          30.200
  23614066.469                                    23614056.695    -5663329.293 6
  -4058285.48743        40.900          22.600
 11  1  1  0 54  0.0000000  0  9G32G14G31G19G22G24G18G11G09
  23269149.609                                    23269140.715    -3939200.838 7
  -2794345.04444        43.700          27.400
  20385233.672                                    20385222.258   -19415095.021 8
 -14026673.68147        49.300          43.400
  24386240.695    24386228.055                    24386228.227    -2705341.028 6
   -385158.54643        41.200          20.100
  23045979.102                                    23045965.578    -3019073.998 7
  -2342418.96945        46.400          32.400
  21310457.375                                    21310444.027   -13795405.085 8
  -9726217.38446        51.500          41.900
  22462493.930                                    22462484.098    -9846614.165 8
  -6794448.29445        48.400          33.900
  23770453.328                                    23770443.320    -2849394.056 6
  -1043735.98944        41.900          24.000
  22545444.594                                    22545432.887    -5419816.906 7
  -3989671.77145        46.700          30.200
  23628145.203                                    23628137.480    -5589338.931 6
  -4000630.63043        39.500          22.000
 11  1  1  0 54 30.0000000  0  9G32G14G31G19G22G24G18G11G09
  23253744.172                                    23253733.402    -4020165.808 7
  -2857434.57444        45.000          28.200
  20386202.859                                    20386191.855   -19410000.601 8
 -14022703.99447        49.400          43.300
  24365072.359    24365064.055                    24365063.406    -2816562.545 6
   -471824.65643        39.000          20.400
  23060203.344                                    23060191.637    -2944319.515 7
  -2284168.71945        45.800          31.800
  21321290.164                                    21321277.227   -13738477.944 8
  -9681858.56746        50.900          41.900
  22447035.492                                    22447025.250    -9927851.536 8
  -6857750.12645        49.000          34.500
  23786974.695                                    23786962.930    -2762579.300 7
   -976088.12043        42.400          22.800
  22532262.828                                    22532250.770    -5489086.768 7
  -4043648.29745        47.200          30.000
  23642329.227                                    23642317.461    -5514817.962 7
  -3942562.32343        42.600          22.500
 11  1  1  0 55  0.0000000  0  9G32G14G31G19G22G24G18G11G09
  23238363.758                                    23238353.223    -4100985.011 7
  -2920410.55544        43.700          28.000
  20387268.047                                    20387257.102   -19404402.502 8
 -14018341.82447        48.600          43.300
  24343918.656    24343907.891                    24343907.770    -2927736.060 6
   -558453.31143        40.100          20.100
  23074497.563                                    23074485.270    -2869206.459 7
  -2225639.06145        47.400          32.300
  21332173.484                                    21332161.367   -13681282.393 8
  -9637290.60646        50.300          41.200
  22431634.188                                    22431624.707   -10008784.342 8
  -6920814.63645        48.200          34.800
  23803518.734                                    23803507.145    -2675639.541 6
   -908342.86543        41.700          23.300
  22519163.703                                    22519152.289    -5557920.951 7
  -4097285.29345        47.800          31.800
  23656611.172                                    23656598.527    -5439769.607 7
  -3884083.04243        43.200          22.900
 11  1  1  0 55 30.0000000  0  9G32G14G31G19G22G24G18G11G09
  23223010.852                                    23223002.309    -4181657.262 7
  -2983272.04044        42.000          26.200
  20388429.992                                    20388418.168   -19398300.752 8
 -14013587.20547        50.100          43.900
  24322773.211    24322759.398                    24322761.211    -3038858.317 6
   -645042.01743        39.800          21.100
  23088859.320                                    23088846.617    -2793736.552 7
  -2166831.34045        46.700          33.400
  21343108.813                                    21343095.641   -13623818.736 8
  -9592513.72446        50.300          41.300
  22416291.836                                    22416281.535   -10089410.025 7
  -6983639.81545        47.100          34.200
  23820087.492                                    23820075.961    -2588574.788 7
   -840500.23243        42.800          22.500
  22506148.844                                    22506137.078    -5626316.843 8
  -4150580.78945        48.500          31.800
  23670988.109                                    23670979.332    -5364196.203 6
  -3825194.67143        37.700          20.400
 11  1  1  0 56  0.0000000  0  9G32G14G31G19G22G24G18G11G09
  23207690.117                                    23207679.348    -4262181.561 7
  -3046018.19744        44.900          28.900
  20389685.953                                    20389674.539   -19391696.082 8
 -14008440.71147        49.800          44.000
  24301635.531    24301625.352                    24301625.699    -3149926.325 6
   -731588.43143        39.000          20.900
  23103287.695                                    23103274.699    -2717912.581 7
  -2107747.70245        45.900          32.100
  21354095.555                                    21354081.797   -13566087.028 8
  -9547527.96746        50.500          41.900
  22401008.672                                    22400997.316   -10169725.674 7
  -7046223.45045        47.900          34.200
  23836678.516                                    23836667.160    -2501384.998 7
   -772560.09943        42.600          22.300
  22493217.867                                    22493205.984    -5694272.065 8
  -4203532.90745        48.500          32.600
  23685469.234                                    23685459.637    -5288099.816 6
  -3765898.76843        38.600          19.300
 11  1  1  0 56 30.0000000  0  9G32G14G31G19G22G24G18G11G09
  23192395.141                                    23192384.898    -4342556.930 7
  -3108648.31244        44.900          28.100
  20391038.492                                    20391027.078   -19384588.841 8
 -14002902.59047        49.100          43.000
  24280509.672    24280502.715                    24280500.836    -3260936.629 6
   -818089.92743        37.300          19.900
  23117783.141                                    23117770.613    -2641736.836 7
  -2048389.97945        45.800          32.700
  21365131.961                                    21365118.730   -13508087.563 8
  -9502333.56346        49.600          41.100
  22385784.750                                    22385774.332   -10249728.823 7
  -7108563.53245        47.500          34.900
  23853294.453                                    23853281.867    -2414071.124 6
   -704523.31143        41.600          20.900
  22480370.000                                    22480357.941    -5761783.907 8
  -4256139.51045        48.300          33.200
  23700049.484                                    23700039.184    -5211483.234 6
  -3706197.55143        40.900          21.100
 11  1  1  0 57  0.0000000  0  9G32G14G31G19G22G24G18G11G09
  23177126.852                                    23177117.195    -4422784.759 7
  -3171163.46744        43.100          27.300
  20392486.516                                    20392475.277   -19376982.130 8
 -13996975.27447        50.300          43.700
  24259398.000    24259389.109                    24259387.758    -3371888.183 6
   -904545.61243        39.500          21.800
  23132343.945                                    23132333.410    -2565214.148 7
  -1988761.91345        44.900          33.400
  21376219.445                                    21376206.098   -13449822.803 8
  -9456932.44946        50.000          40.800
  22370619.297                                    22370609.523   -10329419.495 7
  -7170660.12645        47.000          34.300
  23869930.844                                    23869919.957    -2326635.477 6
   -636391.62143        39.400          21.500
  22467607.516                                    22467595.750    -5828852.338 7
  -4308400.63045        47.500          31.900
  23714727.680                                    23714716.559    -5134351.298 6
  -3646094.72143        40.100          19.900
 11  1  1  0 57 30.0000000  0  9G32G14G31G19G22G24G18G11G09
  23161889.461                                    23161879.453    -4502863.230 7
  -3233562.26744        45.000          28.200
  20394029.273                                    20394017.508   -19368875.764 8
 -13990658.61447        50.100          43.700
  24238296.742    24238288.848                    24238286.441    -3482777.050 6
   -990952.44943        38.900          20.100
  23146973.063                                    23146960.828    -2488346.465 7
  -1928865.02245        45.800          32.600
  21387357.680                                    21387344.391   -13391292.185 8
  -9411324.16746        49.300          41.200
  22355514.883                                    22355505.344   -10408794.155 7
  -7232510.50645        47.200          32.800
  23886592.836                                    23886582.242    -2239077.443 6
   -568164.63143        39.400          21.300
  22454929.023                                    22454918.723    -5895474.446 7
  -4360313.94845        45.900          31.300
  23729503.188                                    23729493.063    -5056705.520 6
  -3585591.48943        40.500          19.600
 11  1  1  0 58  0.0000000  0  9G32G14G31G19G22G24G18G11G09
  23146679.063                                    23146668.527    -4582792.053 7
  -3295844.38644        45.000          29.000
  20395666.070                                    20395654.949   -19360270.876 8
 -13983953.50547        48.600          42.900
  24217208.430    24217198.719                    24217197.309    -3593600.469 6
  -1077308.27043        40.200          20.600
  23161665.148                                    23161652.563    -2411136.549 7
  -1868701.45945        47.000          32.600
  21398546.563                                    21398532.512   -13332496.806 8
  -9365509.58646        50.000          41.100
  22340470.680                                    22340460.672   -10487850.891 7
  -7294113.16645        47.000          33.700
  23903278.938                                    23903267.230    -2151398.204 6
   -499843.10543        40.700          20.600
  22442337.406                                    22442325.465    -5961648.126 7
  -4411877.84545        47.000          30.600
  23744376.172                                    23744365.754    -4978548.767 6
  -3524690.10343        41.600          20.100
 11  1  1  0 58 30.0000000  0  9G32G14G31G19G22G24G18G11G09
  23131497.516                                    23131488.035    -4662570.224 7
  -3358009.19444        45.100          29.600
  20397397.969                                    20397386.848   -19351168.140 8
 -13976860.45147        49.500          43.300
  24196132.508    24196122.973                    24196121.621    -3704355.361 6
  -1163610.72843        41.400          21.500
  23176421.617                                    23176409.559    -2333586.953 7
  -1808273.19345        44.500          32.000
  21409784.320                                    21409770.914   -13273436.889 8
  -9319488.87146        49.300          40.700
  22325488.234                                    22325477.641   -10566587.276 7
  -7355466.18745        47.800          35.200
  23919986.367                                    23919975.188    -2063597.906 6
   -431427.26743        39.200          20.900
  22429830.484                                    22429818.895    -6027371.145 7
  -4463090.58645        47.000          30.600
  23759344.961                                    23759335.832    -4899883.490 6
  -3463392.44143        40.500          21.800
 11  1  1  0 59  0.0000000  0  9G32G14G31G19G22G24G18G11G09
  23116344.453                                    23116335.617    -4742196.713 7
  -3420055.78944        44.300          29.100
  20399225.383                                    20399213.793   -19341567.886 8
 -13969379.72747        51.100          43.300
  24175070.922    24175061.387                    24175059.391    -3815038.461 6
  -1249857.22943        40.600          22.000
  23191242.258                                    23191230.785    -2255699.964 7
  -1747582.05245        44.100          31.200
  21421073.664                                    21421060.082   -13214112.155 8
  -9273261.80246        50.000          40.800
  22310565.586                                    22310556.457   -10645000.364 7
  -7416567.25645        46.600          34.600
  23936717.727                                    23936705.551    -1975677.031 6
   -362917.49843        39.600          20.100
  22417409.727                                    22417398.605    -6092640.802 7
  -4513950.02445        46.200          31.500
  23774411.734                                    23774400.965    -4820712.378 6
  -3401700.63343        41.500          20.600
 11  1  1  0 59 30.0000000  0  9G32G14G31G19G22G24G18G11G09
  23101221.328                                    23101211.848    -4821671.398 7
  -3481984.10544        43.700          28.700
  20401146.664                                    20401135.074   -19331472.043 8
 -13961512.81547        50.300          43.200
  24154022.055    24154010.645                    24154011.285    -3925647.527 6
  -1336046.04043        40.900          22.000
  23206127.773                                    23206116.066    -2177479.187 7
  -1686630.80245        44.500          30.600
  21432412.133                                    21432399.020   -13154524.432 8
  -9226829.79846        49.700          40.400
  22295705.180                                    22295696.051   -10723088.595 7
  -7477415.18845        46.000          34.400
  23953470.859                                    23953459.504    -1887636.497 6
   -294314.44643        39.200          22.600
  22405076.836                                    22405064.660    -6157455.793 8
  -4564455.20445        48.000          31.600
  23789571.836                                    23789561.359    -4741038.322 6
  -3339616.96043        39.500          18.600
 11  1  1  1  0  0.0000000  0  9G32G14G31G19G22G24G18G11G09
  23086127.117                                    23086116.582    -4900993.761 7
  -3543793.70244        43.200          29.800
  20403161.953                                    20403150.363   -19320881.589 8
 -13953260.50847        50.900          43.100
  24132987.914    24132978.262                    24132977.320    -4036179.677 6
  -1422174.85843        37.700          21.300
  23221076.977                                    23221064.566    -2098927.595 7
  -1625421.76845        46.100          31.700
  21443802.227                                    21443788.059   -13094674.799 8
  -9180193.71246        49.600          40.200
  22280908.695                                    22280899.098   -10800849.937 7
  -7538008.42045        47.200          35.300
  23970247.898                                    23970236.191    -1799477.383 6
   -225619.00743        39.600          21.800
  22392828.484                                    22392817.188    -6221813.958 7
  -4614604.43745        47.200          31.700
  23804829.172                                    23804818.637    -4660864.772 6
  -3277144.06443        39.700          20.900
 11  1  1  1  0 30.0000000  0  9G32G14G31G19G22G24G18G11G09
  23071061.648                                    23071051.992    -4980163.223 7
  -3605484.12045        44.800          30.200
  20405270.844                                    20405259.664   -19309797.405 8
 -13944623.47747        49.600          43.500
  24111970.219    24111958.926                    24111958.805    -4146631.938 6
  -1508241.45743        40.500          22.800
  23236086.156                                    23236075.270    -2020047.918 7
  -1563957.07345        44.000          31.000
  21455240.438                                    21455227.734   -13034563.356 8
  -9133353.61346        50.200          40.700
  22266174.117                                    22266163.934   -10878282.057 8
  -7598345.12845        48.200          35.000
  23987045.820                                    23987033.820    -1711200.263 6
   -156831.59943        37.600          20.600
  22380669.813                                    22380656.934    -6285713.358 7
  -4664396.18245        47.700          32.000
  23820181.734                                    23820169.969    -4580194.422 6
  -3214283.98543        41.000          22.500
 11  1  1  1  1  0.0000000  0  9G32G14G31G19G22G24G18G11G09
  23056025.398                                    23056015.039    -5059178.051 7
  -3667054.11045        44.000          30.000
  20407474.133                                    20407462.895   -19298219.518 8
 -13935601.73147        50.100          43.900
  24090967.094    24090956.328                    24090955.973    -4257000.343 6
  -1594242.72843        39.900          22.800
  23251158.773                                    23251147.066    -1940841.906 7
  -1502238.14345        44.900          31.400
  21466728.867                                    21466715.168   -12974189.600 8
  -9086309.13546        50.300          40.700
  22251501.773                                    22251492.938   -10955381.900 7
  -7658422.93345        46.500          34.700
  24003865.719                                    24003854.832    -1622804.509 6
    -87951.77943        36.100          19.300
  22368597.773                                    22368586.359    -6349150.820 7
  -4713827.94245        47.200          33.700
  23835625.617                                    23835615.961    -4499029.025 6
  -3151038.25144        41.300          24.000
 11  1  1  1  1 30.0000000  0  9G32G14G31G19G22G24G18G11G09
  23041019.211                                    23041008.910    -5138037.683 7
  -3728503.12444        45.500          29.700
  20409771.383                                    20409759.852   -19286149.250 8
 -13926196.30447        50.200          43.500
  24069980.375    24069969.961                    24069970.543    -4367281.976 6
  -1680176.38444        39.900          24.800
  23266292.844                                    23266280.082    -1861312.899 7
  -1440267.47345        46.300          31.000
  21478267.867                                    21478254.168   -12913554.209 8
  -9039060.75746        51.100          41.000
  22236894.891                                    22236885.000   -11032147.280 8
  -7718240.07846        48.800          36.400
  24020710.531                                    24020698.707    -1534291.323 6
    -18980.44843        38.000          19.600
  22356613.859                                    22356601.977    -6412124.456 7
  -4762898.32345        46.900          32.000
  23851164.047                                    23851153.512    -4417371.770 7
  -3087409.22143        42.000          22.300
 11  1  1  1  2  0.0000000  0  9G32G14G31G19G22G24G18G11G09
  23026042.508                                    23026031.797    -5216742.393 7
  -3789831.41845        45.600          31.100
  20412161.094                                    20412150.031   -19273588.268 8
 -13916408.51447        50.200          43.600
  24049010.594    24049001.469                    24049001.113    -4477474.861 6
  -1766040.88844        39.800          24.900
  23281488.031                                    23281475.855    -1781464.111 7
  -1378047.60845        45.800          31.700
  21489856.531                                    21489843.770   -12852658.881 8
  -8991609.86046        50.700          40.100
  22222350.539                                    22222340.355   -11108576.833 8
  -7777795.57745        48.900          35.100
  24037575.313                                    24037564.074    -1445662.057 6
     50081.32543        36.400          19.300
  22344719.406                                    22344707.348    -6474633.366 7
  -4811606.55145        47.000          33.800
  23866796.781                                    23866786.832    -4335226.376 6
  -3023399.77643        41.300          22.600
 11  1  1  1  2 30.0000000  0  9G32G14G31G19G22G24G18G11G09
  23011094.078                                    23011085.535    -5295290.579 6
  -3851037.81044        41.400          29.300
  20414644.898                                    20414633.777   -19260537.028 8
 -13906238.71747        50.000          43.900
  24028058.688    24028050.383                    24028049.383    -4587575.228 6
  -1851833.30344        39.700          24.500
  23296743.570                                    23296730.516    -1701298.038 7
  -1315580.56045        45.700          31.200
  21501493.039                                    21501480.688   -12791503.419 8
  -8943956.23346        50.700          40.300
  22207870.625                                    22207860.559   -11184667.576 7
  -7837087.06545        47.300          34.800
  24054464.148                                    24054451.680    -1356916.449 6
    119233.73943        36.800          19.000
  22332913.914                                    22332901.738    -6536674.475 7
  -4859950.25245        47.200          33.700
  23882520.508                                    23882510.969    -4252594.731 6
  -2959011.45243        40.300          21.700
 11  1  1  1  3  0.0000000  0  9G32G14G31G19G22G24G18G11G09
  22996177.672                                    22996166.258    -5373683.144 7
  -3912122.86444        44.600          29.200
  20417221.125                                    20417210.004   -19246998.037 8
 -13895688.83547        50.000          43.600
  24007125.836    24007116.477                    24007116.531    -4697581.507 6
  -1937552.39444        41.100          26.400
  23312058.008                                    23312045.070    -1620818.687 7
  -1252869.36945        46.700          31.000
  21513179.727                                    21513167.375   -12730089.911 8
  -8896101.56046        49.700          40.600
  22193455.141                                    22193445.426   -11260418.715 7
  -7896113.92245        47.100          33.400
  24071372.023                                    24071361.605    -1268056.709 5
    188475.10543        35.700          20.400
  22321195.875                                    22321184.695    -6598247.530 7
  -4907929.22745        45.300          33.100
  23898338.117                                    23898325.531    -4169480.961 6
  -2894247.50543        41.600          21.700
 11  1  1  1  3 30.0000000  0  9G32G14G31G19G22G24G18G11G09
  22981289.148                                    22981278.906    -5451918.306 7
  -3973085.30645        43.800          30.600
  20419890.148                                    20419879.262   -19232971.468 8
 -13884759.03247        50.700          43.800
  23986211.297    23986201.176                    23986201.289    -4807489.738 6
  -2023195.13244        40.400          25.400
  23327430.734                                    23327419.262    -1540028.199 7
  -1189915.74145        45.000          30.400
  21524915.148                                    21524902.094   -12668417.938 8
  -8848045.46346        49.600          40.600
  22179104.555                                    22179096.188   -11335826.895 7
  -7954873.51945        47.200          33.900
  24088302.641                                    24088293.688    -1179082.320 5
    257805.74243        33.500          18.300
  22309567.656                                    22309557.473    -6659349.205 7
  -4955540.90345        46.200          32.100
  23914242.305                                    23914233.879    -4085887.034 6
  -2829109.35243        37.800          19.900
 11  1  1  1  4  0.0000000  0  9G32G14G31G19G22G24G18G11G09
  22966432.570                                    22966421.977    -5529994.384 7
  -4033923.77544        45.400          29.700
  20422652.359                                    20422641.355   -19218456.869 8
 -13873448.94447        50.500          43.600
  23965314.938    23965306.516                    23965305.867    -4917295.982 6
  -2108758.37744        39.100          25.600
  23342863.258                                    23342852.020    -1458928.036 7
  -1126720.80045        44.600          30.400
  21536700.766                                    21536687.535   -12606486.684 8
  -8799787.34546        49.700          40.300
  22164821.641                                    22164812.453   -11410888.804 7
  -8013363.28645        47.800          34.700
  24105257.695                                    24105246.457    -1089992.885 5
    327226.05242        34.900          17.400
  22298031.906                                    22298019.438    -6719976.623 7
  -5002783.04445        46.400          31.700
  23930243.164                                    23930231.691    -4001815.096 6
  -2763598.76543        38.400          19.600
 11  1  1  1  4 30.0000000  0  9G32G14G31G19G22G24G18G11G09
  22951603.734                                    22951594.078    -5607913.945 7
  -4094640.31945        43.400          30.800
  20425506.383                                    20425495.438   -19203458.797 8
 -13861762.12647        50.200          43.700
  23944439.398    23944430.977                    23944429.684    -5027000.561 6
  -2194242.43544        40.600          25.200
  23358354.852                                    23358341.152    -1377524.619 7
  -1063289.57244        44.800          29.300
  21548534.578                                    21548521.172   -12544300.504 8
  -8751330.57746        48.600          40.100
  22150603.836                                    22150594.414   -11485605.653 8
  -8071584.20045        48.200          34.800
  24122231.570                                    24122220.977    -1000792.231 5
    396733.06442        35.500          17.800
  22286585.711                                    22286573.770    -6780130.986 7
  -5049656.57645        47.300          33.300
  23946330.828                                    23946320.000    -3917271.170 6
  -2697720.36643        37.500          18.300
 11  1  1  1  5  0.0000000  0  9G32G14G31G19G22G24G18G11G09
  22936806.391                                    22936797.086    -5685674.383 7
  -4155232.82945        44.600          30.500
  20428452.586                                    20428441.113   -19187976.628 8
 -13849698.08347        50.500          43.900
  23923583.492    23923573.664                    23923573.719    -5136598.482 6
  -2279643.36244        41.300          26.400
  23373903.633                                    23373890.637    -1295818.629 7
   -999622.56745        46.000          30.800
  21560416.914                                    21560403.391   -12481857.829 8
  -8702673.93146        49.000          40.300
  22136452.102                                    22136442.797   -11559973.176 8
  -8129532.90845        48.200          34.300
  24139228.367                                    24139216.543     -911479.309 6
    466327.52043        37.200          18.600
  22275229.039                                    22275217.684    -6839808.109 7
  -5096158.25145        47.500          34.300
  23962510.766                                    23962497.301    -3832256.307 6
  -2631474.94542        37.500          17.400
 11  1  1  1  5 30.0000000  0  9G32G14G31G19G22G24G18G11G09
  22922039.172                                    22922030.395    -5763275.361 7
  -4215701.09545        44.600          30.000
  20431491.008                                    20431479.418   -19172011.758 8
 -13837257.91747        51.000          43.500
  23902747.234    23902737.641                    23902737.754    -5246087.330 6
  -2364959.29144        40.500          24.600
  23389507.906                                    23389496.141    -1213813.536 7
   -935722.49745        45.000          31.500
  21572347.867                                    21572334.520   -12419159.992 8
  -8653818.47346        48.800          40.100
  22122366.969                                    22122357.430   -11633989.556 8
  -8187208.02345        48.000          35.000
  24156245.336                                    24156233.043     -822055.045 6
    536008.75943        36.900          18.300
  22263962.492                                    22263951.723    -6899006.909 7
  -5142287.11045        44.900          32.400
  23978777.898                                    23978765.195    -3746773.752 6
  -2564865.21842        36.900          17.800
 11  1  1  1  6  0.0000000  0  9G32G14G31G19G22G24G18G11G09
  22907303.195                                    22907293.891    -5840713.442 7
  -4276042.42945        44.200          30.600
  20434620.805                                    20434609.566   -19155562.178 8
 -13824440.04947        50.700          43.000
  23881934.789    23881925.547                    23881925.367    -5355461.015 6
  -2450185.53044        41.700          26.100
  23405169.875                                    23405158.402    -1131509.283 7
   -871589.32844        44.900          29.300
  21584328.500                                    21584314.215   -12356204.535 8
  -8604762.27246        49.000          39.500
  22108349.820                                    22108340.223   -11707649.999 8
  -8244605.74246        48.500          36.600
  24173283.539                                    24173271.188     -732517.184 6
    605778.48143        37.900          18.300
  22252790.234                                    22252779.113    -6957722.663 7
  -5188039.65545        46.800          33.700
  23995131.469                                    23995121.461    -3660824.083 5
  -2497891.36742        35.000          15.600
 11  1  1  1  6 30.0000000  0  8G32G14G31G19G22G24G18G11
  22892597.969                                    22892588.078    -5917994.028 7
  -4336261.03545        45.000          30.400
  20437842.008                                    20437830.711   -19138635.654 8
 -13811250.54047        50.200          43.700
  23861143.633    23861133.922                    23861133.391    -5464723.139 7
  -2535324.81544        42.100          26.700
  23420887.891                                    23420874.016    -1048915.120 7
   -807230.23244        45.800          29.900
  21596355.961                                    21596342.789   -12292998.169 8
  -8555510.55046        49.700          40.500
  22094400.297                                    22094390.348   -11780958.244 8
  -8301729.05846        48.800          36.200
  24190341.891                                    24190329.363     -642872.613 6
    675631.36943        38.800          18.300
  22241708.523                                    22241695.879    -7015959.317 7
  -5233418.85945        47.700          32.100
 11  1  1  1  7  0.0000000  0  8G32G14G31G19G22G24G18G11
  22877922.477                                    22877912.938    -5995110.720 7
  -4396351.91944        45.500          29.900
  20441154.461                                    20441143.223   -19121227.669 8
 -13797685.86647        50.500          43.600
  23840376.328    23840363.746                    23840363.918    -5573864.575 7
  -2620370.07344        44.700          27.300
  23436660.523                                    23436647.820     -966028.032 7
   -742642.89445        45.700          30.900
  21608432.383                                    21608419.035   -12229535.759 8
  -8506059.32046        49.700          40.000
  22080517.578                                    22080509.328   -11853906.267 7
  -8358571.66345        47.500          34.500
  24207421.680                                    24207409.914     -553116.346 6
    745571.34143        38.700          18.300
  22230718.773                                    22230707.594    -7073709.166 7
  -5278418.74745        47.200          33.700
 11  1  1  1  7 30.0000000  0  9G32G14G31G19G22G24G18G11G09
  22863278.938                                    22863268.637    -6072065.053 7
  -4456316.32145        45.700          30.200
  20444558.117                                    20444546.762   -19103341.364 8
 -13783748.47747        50.500          43.500
  23819630.117    23819618.180                    23819617.590    -5682884.614 7
  -2705320.75244        44.900          26.900
  23452487.602                                    23452476.246     -882852.856 7
   -677831.08545        44.300          30.200
  21620557.078                                    21620543.613   -12165820.308 8
  -8456410.91846        50.200          39.900
  22066705.031                                    22066696.137   -11926494.240 8
  -8415133.70445        48.000          35.600
  24224521.820                                    24224510.113     -463250.964 6
    815596.26543        38.400          19.300
  22219821.859                                    22219810.621    -7130972.696 7
  -5323039.65845        47.100          33.200
  24044725.266                                    24044711.273      772434.71916
  -2399227.35752        39.800          17.800
 11  1  1  1  8  0.0000000  0  9G32G14G31G19G22G24G18G11G09
  22848666.789                                    22848656.137    -6148853.108 7
  -4516151.13645        45.400          31.300
  20448053.273                                    20448041.977   -19084974.793 8
 -13769436.85247        50.500          44.000
  23798907.695    23798896.578                    23798896.457    -5791777.202 7
  -2790172.10544        43.800          28.500
  23468367.883                                    23468357.406     -799389.760 7
   -612794.92444        42.000          28.900
  21632730.328                                    21632716.980   -12101849.133 8
  -8406563.24446        49.700          40.100
  22052962.086                                    22052952.723   -11998716.559 8
  -8471410.80346        49.200          36.500
  24241644.453                                    24241632.219     -373274.166 6
    885708.08043        37.600          18.600
  22209017.742                                    22209006.855    -7187744.822 7
  -5367277.63745        47.000          34.100
  24061428.258                                    24061415.730      860215.883 6
  -2330826.40142        37.900          16.900
 11  1  1  1  8 30.0000000  0  9G32G14G31G19G22G24G18G11G09
  22834086.547                                    22834076.070    -6225477.005 7
  -4575858.03445        47.500          31.500
  20451638.984                                    20451627.570   -19066131.888 8
 -13754754.06447        50.800          43.700
  23778210.469    23778199.762                    23778199.289    -5900542.113 7
  -2874923.99344        43.500          27.600
  23484306.102                                    23484293.750     -715644.591 7
   -547538.94344        44.500          29.900
  21644951.563                                    21644937.980   -12037625.503 8
  -8356518.85246        50.200          40.100
  22039287.914                                    22039278.141   -12070573.897 8
  -8527403.53545        49.700          35.600
  24258786.695                                    24258775.574     -283189.061 6
    955904.22943        38.400          19.000
  22198308.172                                    22198296.289    -7244026.420 7
  -5411133.42945        47.700          33.400
  24078216.844                                    24078207.012      948447.462 5
  -2262074.56642        35.300          16.300
 11  1  1  1  9  0.0000000  0  9G32G14G31G19G22G24G18G11G09
  22819535.266                                    22819525.141    -6301938.074 7
  -4635438.06145        45.000          31.500
  20455314.719                                    20455303.012   -19046815.875 8
 -13739702.61247        50.300          43.700
  23757537.594    23757527.766                    23757526.590    -6009178.280 7
  -2959575.57444        42.800          28.500
  23500296.500                                    23500282.215     -631621.897 7
   -482066.68244        45.400          29.200
  21657220.734                                    21657207.094   -11973152.453 8
  -8306280.11046        50.600          40.100
  22025683.930                                    22025673.805   -12142065.958 8
  -8583111.62746        49.200          37.100
  24275950.570                                    24275938.336     -192998.678 6
   1026182.41243        39.400          19.300
  22187691.305                                    22187679.656    -7299817.346 7
  -5454606.91445        47.500          33.500
  24095091.594                                    24095081.410     1037124.494 5
  -2192975.47542        34.400          14.800
 11  1  1  1  9 30.0000000  0  9G32G14G31G19G22G24G18G11G09
  22805016.391                                    22805007.496    -6378234.439 7
  -4694889.72845        45.400          32.800
  20459080.445                                    20459069.090   -19027026.734 8
 -13724282.49947        50.800          44.000
  23736889.180    23736879.234                    23736879.230    -6117681.768 6
  -3044123.68944        40.400          26.300
  23516336.305                                    23516324.656     -547323.638 7
   -416379.74745        43.700          30.200
  21669536.617                                    21669523.211   -11908429.205 8
  -8255846.40546        49.600          39.500
  22012149.125                                    22012139.293   -12213189.431 8
  -8638532.50746        49.100          36.400
  24293131.258                                    24293121.426     -102702.351 6
   1096543.17343        38.400          19.300
  22177168.625                                    22177157.621    -7355114.873 7
  -5497695.86245        46.700          32.600
  24112046.734                                    24112040.828     1126244.918 5
  -2123531.02242        30.100          15.600
 11  1  1  1 10  0.0000000  0  9G32G14G31G19G22G24G18G11G09
  22790530.664                                    22790520.188    -6454362.677 7
  -4754210.40345        47.200          32.400
  20462936.234                                    20462925.348   -19006763.163 8
 -13708492.69947        50.000          44.000
  23716268.664    23716259.539                    23716257.953    -6226046.794 7
  -3128563.93844        42.300          26.900
  23532430.352                                    23532417.824     -462749.628 7
   -350477.91145        44.000          30.200
  21681901.195                                    21681888.316   -11843453.502 8
  -8205216.00246        50.700          39.800
  21998686.078                                    21998676.246   -12283939.297 8
  -8693662.26746        48.800          36.500
  24310336.250                                    24310324.250      -12297.779 6
   1166988.31143        38.900          19.000
  22166740.578                                    22166729.340    -7409914.620 7
  -5540396.92845        47.100          32.500
  24129091.969                                    24129084.598     1215808.527 5
  -2053741.25142        30.700          14.800
 11  1  1  1 10 30.0000000  0  9G32G14G31G19G22G24G18G11G09
  22776074.867                                    22776065.152    -6530325.934 7
  -4813402.52545        47.300          32.700
  20466882.094                                    20466870.270   -18986029.965 8
 -13692336.95547        50.100          44.200
  23695673.953    23695662.250                    23695663.008    -6334274.010 7
  -3212896.79743        42.900          23.500
  23548575.484                                    23548563.719     -377906.827 7
   -284366.63145        43.100          30.600
  21694312.773                                    21694299.953   -11778229.798 8
  -8154392.33846        50.000          39.500
  21985293.469                                    21985283.813   -12354317.229 8
  -8748502.20446        48.600          36.400
  24327557.586                                    24327547.695       78210.411 6
   1237514.18043        37.800          19.600
  22156407.570                                    22156395.980    -7464218.362 7
  -5582711.51945        47.900          33.200
  24146217.273                                                     1305808.463 5
                        32.000
 11  1  1  1 11  0.0000000  0  9G32G14G31G19G22G24G18G11G09
  22761651.422                                    22761641.473    -6606120.967 7
  -4872463.53245        46.400          31.000
  20470916.875                                    20470905.520   -18964825.728 8
 -13675814.15847        50.300          43.600
  23675104.078    23675094.777                    23675094.070    -6442358.214 6
  -3297118.25643        40.500          22.500
  23564771.492                                    23564760.137     -292795.900 7
   -218046.46645        43.400          30.400
  21706772.266                                    21706758.859   -11712756.300 8
  -8103374.02046        49.500          39.200
  21971972.305                                    21971962.883   -12424318.644 8
  -8803048.75246        48.400          36.900
  24344803.047                                    24344790.637      168823.922 6
   1308122.11243        39.000          18.600
  22146168.422                                    22146156.832    -7518021.842 7
  -5624636.30345        47.200          33.000
  24163429.563                                                     1396244.250 5
                        31.300
 11  1  1  1 11 30.0000000  0  9G32G14G31G19G22G24G18G11G09
  22747259.609                                    22747249.660    -6681748.337 7
  -4931393.94045        45.400          30.200
  20475041.328                                    20475030.031   -18943153.371 8
 -13658926.59947        50.000          43.500
  23654565.125    23654555.355                    23654555.000    -6550297.393 6
  -3381226.64044        41.700          25.200
  23581018.547                                    23581005.199     -207421.003 7
   -151520.54944        43.300          28.500
  21719278.633                                    21719265.109   -11647035.176 8
  -8052162.77146        50.700          39.000
  21958723.852                                    21958713.727   -12493942.518 8
  -8857301.11646        48.800          37.000
  24362065.008                                    24362053.008      259540.946 6
   1378810.76143        39.200          18.300
  22136025.602                                    22136014.891    -7571324.418 8
  -5666170.79445        48.300          34.400
  24180713.539                                                     1487111.42215
                        30.500
 11  1  1  1 12  0.0000000  0  9G32G14G31G19G22G24G18G11G09
  22732901.141                                    22732890.137    -6757205.710 7
  -4990191.87645        46.800          30.200
  20479253.641                                    20479242.695   -18921012.531 8
 -13641673.99747        49.700          43.600
  23634054.664    23634044.543                    23634043.484    -6658086.889 7
  -3465218.41144        44.900          26.400
  23597314.445                                    23597301.742     -121783.364 7
    -84789.92744        42.900          27.800
  21731831.703                                    21731818.824   -11581065.091 8
  -8000757.50846        49.500          38.400
  21945547.500                                    21945537.844   -12563185.061 8
  -8911256.33246        48.800          36.600
  24379348.703                                    24379335.941      350362.107 6
   1449580.47442        37.300          17.400
  22125978.414                                    22125967.352    -7624122.819 7
  -5707312.38345        46.700          32.800
  24198089.227                                                     1578408.67514
                        27.600
 11  1  1  1 12 30.0000000  0  8G32G14G31G19G22G24G18G11
  22718574.172                                    22718563.578    -6832493.997 7
  -5048858.05245        47.200          32.400
  20483556.336                                    20483544.570   -18898406.130 8
 -13624058.61947        49.300          43.900
  23613572.117    23613561.293                    23613560.410    -6765725.511 7
  -3549092.62144        44.900          27.600
  23613660.328                                    23613648.152      -35887.622 7
    -17858.20144        43.100          29.600
  21744433.211                                    21744419.453   -11514848.360 8
  -7949160.05446        50.900          39.400
  21932443.477                                    21932434.172   -12632045.747 8
  -8964913.99146        48.200          37.200
  24396648.602                                    24396638.594      441285.738 5
   1520429.98042        35.200          16.900
  22116026.555                                    22116014.672    -7676416.979 7
  -5748061.04745        46.500          32.400
 11  1  1  1 13  0.0000000  0  8G32G14G31G19G22G24G18G11
  22704280.125                                    22704270.000    -6907609.742 7
  -5107389.75045        46.100          31.700
  20487946.648                                    20487935.703   -18875332.533 8
 -13606079.17147        49.300          43.700
  23593118.484    23593107.719                    23593107.129    -6873207.591 7
  -3632844.84744        44.600          27.900
  23630052.984                                    23630042.391       50266.410 6
     49274.79644        40.900          27.100
  21757080.500                                    21757067.328   -11448382.726 8
  -7897368.66346        49.200          39.100
  21919413.672                                    21919403.723   -12700519.604 8
  -9018270.23946        48.600          37.300
  24413971.508                                    24413961.383      532313.709 6
   1591360.91242        36.600          16.900
  22106173.016                                    22106161.484    -7728202.213 8
  -5788413.21145        48.300          34.800
 11  1  1  1 13 30.0000000  0  8G32G14G31G19G22G24G18G11
  22690017.883                                    22690008.051    -6982557.532 7
  -5165790.61545        47.000          32.200
  20492425.016                                    20492413.836   -18851798.389 8
 -13587740.88447        50.400          43.800
  23572694.125    23572685.469                    23572683.941    -6980535.318 7
  -3716476.78144        44.200          29.200
  23646496.594                                    23646483.949      136670.400 7
    116602.62344        42.400          29.100
  21769774.867                                    21769761.402   -11381674.200 8
  -7845387.99946        50.900          38.900
  21906455.945                                    21906446.113   -12768609.710 8
  -9071327.46246        48.900          37.000
  24431312.117                                    24431301.641      623440.158 6
   1662368.53842        38.300          17.800
  22096413.469                                    22096403.109    -7779482.064 7
  -5828371.53345        47.800          33.500
 11  1  1  1 14  0.0000000  0  8G32G14G31G19G22G24G18G11
  22675788.867                                    22675778.273    -7057333.255 7
  -5224057.40145        47.500          33.200
  20496991.367                                    20496980.539   -18827801.552 8
 -13569042.03947        49.500          43.700
  23552300.852    23552291.492                    23552291.137    -7087702.309 7
  -3799983.44544        44.500          27.300
  23662986.422                                    23662974.129      223324.465 6
    184125.25544        41.400          29.700
  21782515.672                                    21782502.676   -11314720.084 8
  -7793215.96446        49.700          39.100
  21893572.711                                    21893563.055   -12836310.725 8
  -9124081.48546        49.100          37.200
  24448674.086                                    24448662.496      714667.917 6
   1733455.08543        40.100          19.300
  22086753.195                                    22086741.488    -7830251.394 7
  -5867932.01145        46.800          33.600
 11  1  1  1 14 30.0000000  0  8G32G14G31G19G22G24G18G11
  22661592.789                                    22661581.844    -7131936.711 8
  -5282189.95245        48.100          33.000
  20501645.617                                    20501634.379   -18803343.874 8
 -13549984.10047        50.100          44.200
  23531938.242    23531929.176                    23531928.000    -7194706.178 7
  -3883363.02344        43.800          27.300
  23679522.977                                    23679510.684      310225.191 6
    251840.07544        41.700          28.700
  21795303.023                                    21795290.320   -11247521.619 8
  -7740853.52746        49.000          39.000
  21880763.859                                    21880754.496   -12903620.830 7
  -9176530.89846        47.300          36.700
  24466052.945                                    24466041.355      805995.501 6
   1804619.40343        39.200          19.300
  22077189.648                                    22077178.176    -7880509.071 7
  -5907093.83745        46.800          33.400
 11  1  1  1 15  0.0000000  0  8G32G14G31G19G22G24G18G11
  22647428.195                                    22647418.188    -7206367.449 7
  -5340187.92745        47.000          33.800
  20506387.078                                    20506376.133   -18778426.841 8
 -13530568.22447        49.000          43.800
  23511607.578    23511596.344                    23511596.340    -7301544.099 6
  -3966613.32144        41.800          26.900
  23696105.547                                    23696094.484      397369.437 6
    319744.65544        41.000          29.300
  21808136.617                                    21808123.914   -11180079.657 8
  -7688301.34146        49.600          38.600
  21868030.977                                    21868020.676   -12970538.297 8
  -9228674.39546        49.000          37.200
  24483449.477                                    24483438.063      897422.155 6
   1875860.91443        39.300          19.000
  22067724.148                                    22067711.797    -7930253.806 8
  -5945855.99145        48.800          34.500
 11  1  1  1 15 30.0000000  0  8G32G14G31G19G22G24G18G11
  22633298.023                                    22633287.898    -7280622.960 7
  -5398049.34645        47.300          34.400
  20511216.375                                    20511204.785   -18753050.183 8
 -13510794.20647        50.300          43.800
  23491310.289    23491299.172                    23491298.875    -7408211.172 7
  -4049730.44644        43.100          27.600
  23712735.039                                    23712723.156      484756.082 6
    387838.15145        40.400          30.400
  21821017.500                                    21821004.035   -11112392.802 8
  -7635558.32946        50.200          38.600
  21855371.492                                    21855362.188   -13037059.121 8
  -9280508.78946        48.500          37.400
  24500865.078                                    24500855.188      988949.005 6
   1947180.54442        38.400          17.400
  22058355.375                                    22058344.020    -7979481.987 7
  -5984215.61045        47.500          33.700
 11  1  1  1 16  0.0000000  0  8G32G14G31G19G22G24G18G11
  22619201.055                                    22619190.402    -7354703.389 7
  -5455774.33045        47.200          33.100
  20516132.109                                    20516121.047   -18727216.134 8
 -13490663.76247        50.000          43.600
  23471044.250    23471034.188                    23471033.715    -7514705.428 7
  -4132712.93844        43.000          29.000
  23729408.430                                    23729397.250      572380.976 6
    456117.29144        40.400          28.700
  21833943.930                                    21833930.992   -11044462.829 8
  -7582625.89246        49.500          38.800
  21842789.406                                    21842779.691   -13103182.198 8
  -9332033.24146        50.000          38.000
  24518302.133                                    24518291.363     1080574.296 6
   2018576.87042        39.600          16.300
  22049085.805                                    22049075.094    -8028192.840 7
  -6022172.11045        47.400          34.300
 11  1  1  1 16 30.0000000  0  8G32G14G31G19G22G24G18G11
  22605137.148                                    22605127.316    -7428609.237 7
  -5513363.29145        46.300          33.300
  20521134.719                                    20521123.480   -18700927.286 8
 -13470178.94347        49.800          43.800
  23450813.047    23450802.750                    23450802.219    -7621025.131 7
  -4215559.41444        44.700          29.900
  23746128.469                                    23746116.586      660240.330 6
    524579.11944        40.500          29.300
  21846916.141                                    21846903.438   -10976291.303 8
  -7529505.22046        49.500          38.000
  21830283.031                                    21830272.379   -13168906.292 8
  -9383246.82346        49.900          37.800
  24535756.539                                    24535745.477     1172296.218 6
   2090048.45843        39.400          18.600
  22039915.695                                    22039903.754    -8076385.972 8
  -6059725.19345        48.300          34.100
 11  1  1  1 17  0.0000000  0  8G32G14G31G19G22G24G18G11
  22591105.445                                    22591096.785    -7502338.934 7
  -5570814.99945        44.700          31.800
  20526224.516                                    20526212.516   -18674184.314 8
 -13449340.26147        50.100          43.600
  23430614.281    23430604.746                    23430604.449    -7727166.409 7
  -4298266.85544        43.000          29.700
  23762892.211                                    23762879.391      748331.898 6
    593221.88245        41.700          30.000
  21859935.180                                    21859922.125   -10907878.410 8
  -7476196.46146        50.000          38.200
  21817852.148                                    21817841.965   -13234228.602 8
  -9434147.32946        49.200          38.500
  24553229.477                                    24553218.355     1264115.245 6
   2161595.70643        39.500          18.600
  22030843.305                                    22030831.832    -8124058.905 8
  -6096872.93245        48.100          33.700
 11  1  1  1 17 30.0000000  0  8G32G14G31G19G22G24G18G11
  22577109.930                                    22577100.508    -7575892.728 7
  -5628129.62445        47.900          33.900
  20531399.195                                    20531387.898   -18646989.383 8
 -13428149.39247        50.300          43.800
  23410450.641    23410440.813                    23410440.574    -7833127.230 7
  -4380833.64444        43.300          29.200
  23779698.945                                    23779686.242      836651.721 7
    662042.52245        42.200          30.200
  21872999.203                                    21872986.031   -10839225.431 8
  -7422700.62946        49.500          37.900
  21805498.469                                    21805487.934   -13299147.950 8
  -9484733.82546        49.800          38.600
  24570720.313                                    24570708.605     1356029.554 6
   2233217.26543        38.900          18.600
  22021870.883                                    22021859.586    -8171211.021 8
  -6133614.82445        49.300          34.800
 11  1  1  1 18  0.0000000  0  8G32G14G31G19G22G24G18G11
  22563146.625                                    22563135.973    -7649269.960 7
  -5685306.65645        46.900          33.900
  20536659.664                                    20536648.602   -18619343.720 8
 -13406607.30747        50.100          44.300
  23390322.156    23390312.211                    23390311.504    -7938904.868 7
  -4463257.71945        43.200          30.200
  23796547.797                                    23796535.855      925196.746 6
    731038.64344        40.600          28.500
  21886109.508                                    21886095.926   -10770332.995 8
  -7369018.21146        49.300          38.200
  21793221.977                                    21793211.734   -13363662.147 8
  -9535004.62546        49.900          38.100
  24588229.148                                    24588217.910     1448038.644 6
   2304912.57942        37.500          16.900
  22012997.773                                    22012986.066    -8217840.700 8
  -6169949.64245        48.200          34.400
 11  1  1  1 18 30.0000000  0  8G32G14G31G19G22G24G18G11
  22549217.852                                    22549207.316    -7722466.537 7
  -5742342.93945        45.700          32.500
  20542006.648                                    20541995.117   -18591245.615 8
 -13384712.67447        49.800          43.100
  23370229.734    23370219.320                    23370218.848    -8044492.588 7
  -4545533.78744        44.900          29.900
  23813439.547                                    23813427.840     1013967.384 6
    800210.54844        38.900          27.600
  21899265.203                                    21899252.148   -10701198.721 8
  -7315147.35746        50.200          38.000
  21781023.344                                    21781013.219   -13427766.047 8
  -9584955.70446        48.800          38.000
  24605757.391                                    24605745.449     1540144.885 6
   2376683.68542        38.700          16.900
  22004224.414                                    22004213.059    -8263943.142 7
  -6205873.59845        46.700          34.200
 11  1  1  1 19  0.0000000  0  8G32G14G31G19G22G24G18G11
  22535322.672                                    22535312.195    -7795483.971 7
  -5799239.60745        45.800          33.500
  20547439.359                                    20547427.711   -18562698.872 8
 -13362468.44447        49.200          43.600
  23350172.734    23350162.379                    23350161.672    -8149889.780 7
  -4627661.43145        44.200          30.400
  23830374.820                                    23830362.762     1102958.316 6
    869554.14244        41.000          27.900
  21912466.977                                    21912453.102   -10631825.401 8
  -7261090.23146        49.600          37.500
  21768902.016                                    21768892.594   -13491459.638 8
  -9634587.06746        48.700          37.300
  24623301.719                                    24623289.836     1632345.358 6
   2448528.21442        36.600          16.300
  21995551.797                                    21995539.855    -8309518.903 8
  -6241387.18845        48.800          35.100
 11  1  1  1 19 30.0000000  0  8G32G14G31G19G22G24G18G11
  22521463.289                                    22521452.402    -7868321.472 7
  -5855996.04945        47.500          33.600
  20552956.180                                    20552945.117   -18533704.782 8
 -13339875.63847        49.300          43.600
  23330153.836    23330142.309                    23330141.953    -8255093.343 7
  -4709638.20145        44.800          30.000
  23847351.031                                    23847339.031     1192166.643 6
    939067.11844        40.900          28.200
  21925712.578                                    21925699.641   -10562213.629 8
  -7206847.28246        49.500          38.200
  21756860.586                                    21756849.934   -13554740.581 8
  -9683896.90246        49.100          37.200
  24640864.172                                    24640853.695     1724639.702 6
   2520445.84843        37.400          18.300
  21986979.602                                    21986968.129    -8354566.504 8
  -6276489.22145        48.600          34.900
 11  1  1  1 20  0.0000000  0  8G32G14G31G19G22G24G18G11
  22507635.555                                    22507625.664    -7940981.250 7
  -5912614.03145        46.600          34.800
  20558558.016                                    20558546.777   -18504267.507 8
 -13316937.49547        49.600          43.900
  23310170.711    23310159.887                    23310159.648    -8360103.276 7
  -4791464.10045        43.300          30.400
  23864367.539                                    23864354.484     1281586.529 6
   1008744.92244        40.900          27.600
  21939004.242                                    21938991.363   -10492366.919 8
  -7152421.29046        49.700          38.200
  21744896.336                                    21744887.031   -13617609.944 7
  -9732886.01646        47.600          37.700
  24658445.547                                    24658434.426     1817024.321 6
   2592433.84142        36.900          16.300
  21978507.375                                    21978495.551    -8399086.767 8
  -6311180.30945        48.500          34.400
 11  1  1  1 20 30.0000000  0  8G32G14G31G19G22G24G18G11
  22493844.102                                    22493833.684    -8013459.841 7
  -5969090.78645        47.400          34.200
  20564244.742                                    20564232.977   -18474386.000 8
 -13293653.19747        49.800          43.200
  23290225.164    23290214.164                    23290214.336    -8464913.973 7
  -4873134.75344        43.200          29.700
  23881423.102                                    23881411.277     1371217.754 6
   1078587.43044        40.100          28.200
  21952341.023                                    21952327.559   -10422283.596 8
  -7097810.90846        50.300          37.800
  21733012.906                                    21733002.957   -13680062.910 8
  -9781550.65346        48.600          38.300
  24676045.078                                    24676032.668     1909501.160 6
   2664493.64642        37.700          14.800
  21970136.328                                    21970124.328    -8443076.338 8
  -6345457.92445        49.100          35.100
 11  1  1  1 21  0.0000000  0  8G32G14G31G19G22G24G18G11
  22480085.125                                    22480075.703    -8085756.188 7
  -6025425.60445        47.100          34.000
  20570015.234                                    20570003.469   -18444061.213 8
 -13270023.48547        50.700          43.900
  23270319.086    23270308.320                    23270307.848    -8569522.042 7
  -4954647.50944        43.600          29.400
  23898518.828                                    23898507.355     1461057.481 6
   1148592.40544        41.700          26.900
  21965722.422                                    21965709.250   -10351963.432 8
  -7043015.96446        50.800          38.300
  21721207.578                                    21721197.805   -13742096.925 8
  -9829888.82646        48.500          38.000
  24693658.352                                    24693648.285     2002069.526 6
   2736624.80342        37.100          14.800
  21961866.289                                    21961856.047    -8486533.070 8
  -6379320.28645        48.400          34.300
 11  1  1  1 21 30.0000000  0  8G32G14G31G19G22G24G18G11
  22466363.555                                    22466353.605    -8157867.070 8
  -6081615.86945        48.300          34.500
  20575869.609                                    20575858.840   -18413292.167 8
 -13246047.58247        50.000          43.500
  23250452.844    23250443.309                    23250442.191    -8673921.927 7
  -5035998.02345        43.900          31.200
  23915654.781                                    23915642.781     1551105.177 6
   1218759.47044        40.200          26.000
  21979149.477                                    21979135.777   -10281404.615 8
  -6988035.07546        49.600          37.400
  21709483.453                                    21709473.445   -13803707.377 7
  -9877896.98446        47.600          38.400
  24711289.781                                    24711281.941     2094731.900 5
   2808829.35342        34.200          14.800
  21953700.453                                    21953688.043    -8529452.907 8
  -6412764.30146        50.900          36.000
 11  1  1  1 22  0.0000000  0  8G32G14G31G19G22G24G18G11
  22452676.336                                    22452666.211    -8229795.179 8
  -6137663.72145        48.300          35.000
  20581808.625                                    20581797.035   -18382083.825 8
 -13221729.39647        50.800          43.300
  23230626.156    23230616.094                    23230615.211    -8778114.258 7
  -5117186.80445        44.700          31.500
  23932829.688                                    23932816.574     1641354.553 6
   1289083.61444        40.700          25.400
  21992620.961                                    21992607.613   -10210611.520 8
  -6932871.63846        49.900          38.000
  21697839.086                                    21697830.250   -13864895.853 7
  -9925576.30446        47.300          37.800
  24728941.977                                                     2187483.961 5
                        35.400
  21945633.539                                    21945622.711    -8571838.076 8
  -6445791.72445        49.200          35.500
 11  1  1  1 22 30.0000000  0  8G32G14G31G19G22G24G18G11
  22439023.430                                    22439013.656    -8301540.507 8
  -6193569.16745        48.100          35.100
  20587830.844                                    20587819.430   -18350438.143 8
 -13197070.42647        50.500          43.400
  23210838.633    23210828.453                    23210828.098    -8882096.762 7
  -5198212.11045        43.900          31.500
  23950039.656                                    23950028.125     1731801.873 6
   1359561.98944        39.800          26.000
  22006135.953                                    22006123.602   -10139585.293 8
  -6877526.50946        49.400          38.500
  21686276.547                                    21686267.359   -13925660.974 8
  -9972925.74946        48.100          38.000
  24746607.797                                    24746598.902     2280324.400 5
   2871025.70752        35.800          17.400
  21937669.852                                    21937658.848    -8613687.531 8
  -6478401.67645        48.800          35.500
 11  1  1  1 23  0.0000000  0  8G32G14G31G19G22G24G18G11
  22425406.156                                    22425396.969    -8373098.915 7
  -6249328.93545        47.500          35.500
  20593936.234                                    20593924.762   -18318353.456 8
 -13172069.35947        49.800          43.300
  23191092.477    23191082.590                    23191081.531    -8985862.994 7
  -5279068.89745        44.500          30.400
  23967289.758                                    23967276.293     1822447.633 6
   1430195.02344        39.900          24.900
  22019697.133                                    22019684.313   -10068323.362 8
  -6821997.74146        49.100          37.600
  21674794.820                                    21674785.223   -13985997.218 8
 -10019940.98946        48.500          38.200
  24764292.758                                    24764282.574     2373255.57115
   2943439.53952        34.600          14.800
  21929809.813                                    21929798.281    -8654996.465 8
  -6510590.44845        51.100          35.500
 11  1  1  1 23 30.0000000  0  8G32G14G31G19G22G24G18G11
  22411822.984                                    22411814.031    -8444474.728 7
  -6304946.43945        46.400          34.200
  20600124.047                                    20600112.926   -18285836.245 8
 -13146731.26147        50.400          44.000
  23171386.578    23171376.516                    23171376.277    -9089414.936 7
  -5359758.66645        43.800          30.700
  23984575.078                                    23984562.785     1913283.663 6
   1500976.33344        38.300          25.100
  22033301.867                                    22033288.813    -9996831.445 8
  -6766289.76746        50.200          37.700
  21663394.430                                    21663384.539   -14045907.633 8
 -10066624.42946        49.300          38.400
  24781994.805                                    24781982.863     2466271.966 6
   3015919.75342        36.600          15.600
  21922050.750                                    21922039.043    -8695768.828 8
  -6542361.13646        50.100          36.000
 11  1  1  1 24  0.0000000  0  8G32G14G31G19G22G24G18G11
  22398277.336                                    22398266.859    -8515664.030 7
  -6360418.56845        46.600          34.500
  20606394.219                                    20606382.980   -18252885.283 8
 -13121055.17747        49.600          43.700
  23151723.734    23151712.441                    23151712.672    -9192746.468 7
  -5440276.74445        44.100          30.800
  24001897.469                                    24001885.996     2004310.245 6
   1571906.13544        39.400          26.000
  22046950.250                                    22046936.844    -9925107.141 8
  -6710400.68846        49.400          36.800
  21652074.398                                    21652065.445   -14105387.079 8
 -10112972.03846        48.800          38.200
  24799711.797                                    24799700.090     2559375.823 6
   3088468.20442        37.300          16.900
  21914395.664                                    21914384.309    -8735999.873 8
  -6573710.00146        49.100          37.400
 11  1  1  1 24 30.0000000  0  8G32G14G31G19G22G24G18G11
  22384766.813                                    22384755.809    -8586664.168 8
  -6415743.32345        48.600          34.700
  20612747.445                                    20612735.973   -18219499.552 8
 -13095040.31547        50.300          44.000
  23132103.164    23132093.570                    23132092.805    -9295852.962 7
  -5520619.43745        44.200          31.100
  24019257.398                                    24019243.641     2095526.158 6
   1642983.46344        40.700          25.600
  22060643.969                                    22060630.504    -9853149.053 8
  -6654329.45446        49.500          37.100
  21640839.891                                    21640831.289   -14164431.675 8
 -10158980.81246        48.500          38.000
  24817441.578                                    24817433.445     2652568.61615
   3161085.88552        32.300          16.300
  21906842.867                                    21906832.039    -8775686.428 8
  -6604634.56945        48.400          35.700
 11  1  1  1 25  0.0000000  0  8G32G14G31G19G22G24G18G11
  22371290.922                                    22371279.977    -8657477.691 7
  -6470922.67445        47.600          34.800
  20619182.664                                    20619171.133   -18185684.066 8
 -13068690.57847        50.600          44.400
  23112524.406    23112514.578                    23112514.398    -9398734.672 7
  -5600786.97245        45.300          32.000
  24036649.898                                    24036634.324     2186925.072 7
   1714203.39344        42.000          24.700
  22074380.813                                    22074367.113    -9780960.920 8
  -6598078.96546        48.900          36.800
  21629686.211                                    21629677.199   -14223042.820 8
 -10204651.83546        49.100          38.900
  24835195.063                                    24835184.469     2745846.21215
   3233769.68052        35.400          15.600
  21899394.625                                    21899382.273    -8814830.165 8
  -6635136.18045        48.700          35.500
 11  1  1  1 25 30.0000000  0  8G32G14G31G19G22G24G18G11
  22357852.203                                    22357840.027    -8728102.487 8
  -6525954.97345        48.500          35.400
  20625699.047                                    20625687.457   -18151439.177 8
 -13042006.24147        50.300          43.800
  23092991.383    23092980.266                    23092979.852    -9501386.991 7
  -5680775.77845        46.100          31.500
  24054076.602                                    24054061.555     2278505.390 6
   1785564.65144        40.600          26.300
  22088161.375                                    22088147.617    -9708542.489 8
  -6541649.00146        49.000          36.500
  21618617.016                                    21618607.125   -14281217.186 8
 -10249982.49646        48.700          39.300
  24852959.445                                    24852949.438     2839209.184 5
   3306520.10242        33.900          16.900
  21892049.211                                    21892037.680    -8853428.721 8
  -6665212.99946        48.000          36.200
 11  1  1  1 26  0.0000000  0  8G32G14G31G19G22G24G18G11
  22344447.789                                    22344438.074    -8798538.505 7
  -6580840.17246        47.900          36.100
  20632297.273                                    20632286.035   -18116766.560 8
 -13014988.60947        50.000          44.200
  23073501.742    23073489.629                    23073490.270    -9603807.810 7
  -5760584.20845        47.000          32.000
  24071535.984                                    24071522.461     2370263.454 6
   1857064.42143        41.100          22.800
  22101985.141                                    22101972.027    -9635894.902 8
  -6485040.50046        48.800          36.600
  21607629.836                                    21607619.828   -14338953.122 8
 -10294971.52746        49.300          38.600
  24870743.367                                    24870731.777     2932656.433 6
   3379336.03442        37.800          16.300
  21884808.289                                    21884796.230    -8891481.300 8
  -6694864.36746        49.100          36.000
 11  1  1  1 26 30.0000000  0  8G32G14G31G19G22G24G18G11
  22331080.602                                    22331070.125    -8868782.598 7
  -6635575.80245        47.300          35.600
  20638976.172                                    20638965.227   -18081666.073 8
 -12987637.57247        50.500          43.500
  23054056.969    23054045.969                    23054045.906    -9705991.888 7
  -5840208.14645        46.800          31.300
  24089029.586                                    24089018.875     2462198.737 6
   1928702.26943        39.200          23.000
  22115853.477                                    22115840.422    -9563016.362 8
  -6428252.03646        48.500          36.300
  21596727.172                                    21596717.047   -14396246.368 8
 -10339615.63346        48.900          39.000
  24888542.609                                    24888531.488     3026189.884 5
   3452219.27342        33.900          14.800
  21877671.750                                    21877659.867    -8928984.419 8
  -6724087.57645        48.700          35.500
 11  1  1  1 27  0.0000000  0  8G32G14G31G19G22G24G18G11
  22317750.094                                    22317740.262    -8938835.117 7
  -6690162.16145        47.200          35.000
  20645736.352                                    20645725.465   -18046140.207 8
 -12959955.08447        50.200          43.500
  23034657.281    23034646.633                    23034645.984    -9807937.363 7
  -5919646.15845        46.200          32.100
  24106558.359                                    24106546.125     2554306.969 6
   2000474.92744        40.400          25.100
  22129765.859                                    22129752.980    -9489909.009 8
  -6371285.28446        49.200          36.000
  21585909.117                                    21585899.344   -14453096.160 8
 -10383914.14746        49.100          38.700
  24906353.969                                    24906347.066     3119807.239 5
   3525167.81942        31.000          14.800
  21870638.320                                    21870627.668    -8965937.666 8
  -6752882.31545        48.100          35.700
 11  1  1  1 27 30.0000000  0  8G32G14G31G19G22G24G18G11
  22304455.820                                    22304446.164    -9008695.575 7
  -6744598.86245        47.800          34.900
  20652577.914                                    20652566.559   -18010190.746 8
 -12931942.49647        49.600          43.000
  23015302.734    23015292.320                    23015291.672    -9909641.396 7
  -5998896.04645        46.100          31.300
  24124117.953                                    24124105.484     2646584.843 6
   2072379.78644        39.900          26.500
  22143720.992                                    22143707.820    -9416573.534 8
  -6314140.75846        49.400          37.100
  21575175.656                                    21575165.590   -14509500.631 8
 -10427865.68046        48.300          38.900
  24924185.711                                    24924177.461     3213507.662 5
   3598181.11742        34.700          14.800
  21863712.375                                    21863700.727    -9002340.310 8
  -6781247.99346        49.300          36.100
 11  1  1  1 28  0.0000000  0  8G32G14G31G19G22G24G18G11
  22291198.992                                    22291187.461    -9078366.993 8
  -6798888.25445        48.800          35.700
  20659498.086                                    20659486.906   -17973822.521 8
 -12903603.61947        49.900          43.400
  22995994.898    22995984.250                    22995984.188   -10011105.162 7
  -6077958.69245        45.700          31.900
  24141708.406                                    24141696.113     2739025.894 6
   2144411.75544        39.200          25.900
  22157718.758                                    22157705.996    -9343014.378 8
  -6256821.91846        48.500          36.500
  21564526.633                                    21564516.684   -14565461.694 8
 -10471471.69946        48.000          38.800
  24942035.125                                    24942022.949     3307286.952 6
   3671255.84942        38.300          15.600
  21856889.336                                    21856877.746    -9038194.840 8
  -6809186.64046        49.900          36.500
 11  1  1  1 28 30.0000000  0  8G32G14G31G19G22G24G18G11
  22277977.445                                    22277967.145    -9147843.089 7
  -6853025.44345        47.600          35.500
  20666498.750                                    20666487.805   -17937032.295 8
 -12874935.90247        49.800          43.600
  22976735.852    22976724.441                    22976723.676   -10112319.792 7
  -6156827.23245        46.600          32.800
  24159330.688                                    24159319.508     2831632.315 6
   2216572.62244        38.900          26.000
  22171759.961                                    22171747.316    -9269226.633 7
  -6199325.00046        47.900          36.500
  21553963.320                                    21553953.430   -14620971.805 8
 -10514726.31846        49.500          39.300
  24959894.813                                    24959884.453     3401149.667 5
   3744395.55342        35.600          15.600
  21850171.734                                    21850161.199    -9073494.220 8
  -6836692.60346        49.100          36.200
 11  1  1  1 29  0.0000000  0  8G32G14G31G19G22G24G18G11
  22264793.047                                    22264782.863    -9217125.003 8
  -6907011.34145        48.000          35.200
  20673579.586                                    20673568.406   -17899823.266 8
 -12845941.85347        50.400          43.400
  22957521.141    22957511.664                    22957511.367   -10213284.340 7
  -6235500.88145        47.000          34.200
  24176984.453                                    24176972.277     2924399.222 6
   2288858.48344        39.800          26.000
  22185844.430                                    22185831.492    -9195213.055 8
  -6141652.09746        48.800          36.400
  21543485.586                                    21543476.047   -14676031.044 8
 -10557629.62246        49.200          39.100
  24977770.844                                    24977761.305     3495093.103 5
   3817598.16442        34.100          15.600
  21843560.180                                    21843548.355    -9108239.316 8
  -6863766.73446        49.800          36.700
 11  1  1  1 29 30.0000000  0  8G32G14G31G19G22G24G18G11
  22251647.039                                    22251636.445    -9286211.858 8
  -6960845.21645        49.300          35.700
  20680739.563                                    20680728.324   -17862196.895 8
 -12816622.59547        50.300          43.100
  22938356.820    22938346.582                    22938346.578   -10313995.733 7
  -6313977.27545        46.900          33.000
  24194668.586                                    24194655.648     3017323.880 6
   2361267.28644        40.500          25.100
  22199971.922                                    22199958.516    -9120974.081 8
  -6083803.52546        49.100          36.700
  21533094.750                                    21533085.152   -14730637.317 8
 -10600179.93046        49.700          39.800
  24995663.461                                                     3589116.868 5
                        32.500
  21837054.141                                    21837043.254    -9142428.806 8
  -6890407.87146        50.300          36.500
 11  1  1  1 30  0.0000000  0  8G32G14G31G19G22G24G18G11
  22238537.047                                    22238526.336    -9355104.944 8
  -7014528.15346        48.500          36.200
  20687978.875                                    20687967.051   -17824156.968 8
 -12786981.09247        51.100          43.700
  22919239.898    22919230.070                    22919230.125   -10414453.250 7
  -6392255.84245        44.700          32.300
  24212379.445                                    24212366.801     3110401.135 6
   2433795.04143        38.600          22.500
  22214140.945                                    22214127.656    -9046512.581 8
  -6025781.60245        48.600          35.900
  21522789.602                                    21522780.121   -14784790.611 8
 -10642377.29646        49.900          39.500
  25013569.750                                                     3683218.256 5
                        30.300
  21830654.234                                    21830642.527    -9176063.778 8
  -6916616.95046        50.200          37.300
 11  1  1  1 30 30.0000000  0  8G32G14G31G19G22G24G18G11
  22225462.328                                    22225452.203    -9423810.812 8
  -7068065.18346        49.700          36.600
  20695294.328                                    20695282.973   -17785712.104 8
 -12757024.04047        50.400          43.700
  22900170.734    22900160.789                    22900160.727   -10514661.138 7
  -6470339.88045        45.800          32.200
  24230117.367                                    24230105.250     3203620.580 6
   2506433.55643        37.600          22.300
  22228352.969                                    22228338.859    -8971836.535 8
  -5967592.47146        49.300          37.300
  21512569.578                                    21512560.215   -14838496.519 8
 -10684226.04446        49.400          39.800
  25031489.188                                                     3777389.312 5
                        30.800
  21824357.867                                    21824345.867    -9209150.133 8
  -6942398.55146        49.900          36.500
 11  1  1  1 31  0.0000000  0  7G32G14G31G19G22G24G11
  22212428.000                                    22212417.641    -9492309.640 8
  -7121440.86846        48.800          37.500
  20702690.641                                    20702679.168   -17746844.898 8
 -12726737.90147        50.800          43.300
  22881153.172    22881143.754                    22881142.930   -10614597.430 7
  -6548212.29945        44.900          32.600
  24247886.219                                    24247875.098     3296998.570 6
   2579195.57743        37.500          22.300
  22242606.602                                    22242593.547    -8896927.702 8
  -5909221.95945        48.300          35.500
  21502438.523                                    21502428.809   -14891734.249 8
 -10725709.98646        50.300          39.800
  21818170.164                                    21818157.461    -9241667.877 8
  -6967737.05046        49.400          36.100
 11  1  1  1 31 30.0000000  0  7G32G14G31G19G22G24G11
  22199430.453                                    22199419.801    -9560610.488 8
  -7174662.29046        49.300          36.700
  20710164.711                                    20710153.473   -17707566.956 8
 -12696131.71047        49.300          42.900
  22862187.133    22862177.305                    22862176.773   -10714268.920 7
  -6625878.36245        46.400          34.000
  24265684.477                                    24265672.008     3390522.180 6
   2652071.14143        38.800          20.900
  22256904.430                                    22256890.379    -8821796.219 8
  -5850677.94245        49.800          35.500
  21492395.227                                    21492385.277   -14944511.681 8
 -10766835.26346        50.000          39.000
  21812087.734                                    21812077.023    -9273625.572 8
  -6992639.15346        48.800          36.100
 11  1  1  1 32  0.0000000  0  7G32G14G31G19G22G24G11
  22186470.492                                    22186460.543    -9628712.518 8
  -7227728.78046        49.000          36.300
  20717717.055                                    20717705.758   -17667879.862 8
 -12665206.70147        50.000          43.000
  22843271.070    22843261.066                    22843260.711   -10813672.848 7
  -6703335.93445        46.500          33.600
  24283508.914                                    24283496.504     3484188.273 6
   2725057.69143        38.700          21.300
  22271243.172                                    22271229.297    -8746443.204 8
  -5791961.30645        49.000          35.800
  21482440.672                                    21482430.547   -14996826.773 8
 -10807600.25746        50.500          39.600
  21806114.109                                    21806102.051    -9305022.620 8
  -7017104.39046        49.900          36.800
 11  1  1  1 32 30.0000000  0  7G32G14G31G19G22G24G11
  22173549.602                                    22173539.184    -9696613.931 8
  -7280638.95546        48.800          37.200
  20725346.688                                    20725335.918   -17627784.289 8
 -12633963.38447        50.300          43.500
  22824407.039    22824397.211                    22824396.504   -10912805.176 7
  -6780581.86445        46.500          33.800
  24301359.656                                    24301347.070     3577995.087 6
   2798153.91343        38.600          21.500
  22285624.344                                    22285610.703    -8670867.989 8
  -5733071.54345        49.100          35.700
  21472573.867                                    21472563.918   -15048676.355 8
 -10848002.52146        50.300          39.700
  21800245.828                                    21800234.297    -9335856.321 8
  -7041130.65246        49.600          36.500
 11  1  1  1 33  0.0000000  0  7G32G14G31G19G22G24G11
  22160666.547                                    22160656.070    -9764314.825 8
  -7333392.89646        49.300          36.800
  20733054.313                                    20733042.898   -17587282.665 8
 -12602403.67747        50.000          43.400
  22805595.203    22805584.145                    22805584.316   -11011663.801 7
  -6857614.51945        46.800          33.900
  24319235.563                                    24319224.266     3671938.652 5
   2871356.70143        35.800          20.400
  22300048.258                                    22300034.852    -8595072.175 8
  -5674009.88846        48.700          36.800
  21462794.961                                    21462785.832   -15100059.636 8
 -10888041.43146        49.100          39.100
  21794485.367                                    21794474.656    -9366127.108 8
  -7064718.27046        49.300          36.900
 11  1  1  1 33 30.0000000  0  7G32G14G31G19G22G24G11
  22147822.195                                    22147812.539    -9831811.024 8
  -7385987.30946        48.800          37.400
  20740839.359                                    20740827.594   -17546373.115 8
 -12570526.10347        51.000          43.000
  22786836.023    22786825.258                    22786824.668   -11110242.536 7
  -6934429.07045        47.200          34.400
  24337139.531                                    24337126.711     3766019.114 5
   2944666.09843        35.900          18.600
  22314513.984                                    22314500.285    -8519053.061 8
  -5614774.23845        48.800          35.600
  21453107.984                                    21453097.918   -15150971.469 8
 -10927712.99246        51.400          40.500
  21788834.289                                    21788821.059    -9395830.415 8
  -7087863.70846        50.000          36.300
 11  1  1  1 34  0.0000000  0  7G32G14G31G19G22G24G11
  22135015.852                                    22135005.961    -9899107.512 8
  -7438426.11046        48.900          36.200
  20748700.180                                    20748688.766   -17505062.960 8
 -12538336.36447        50.300          43.000
  22768129.750    22768118.516                    22768118.219   -11208544.212 7
  -7011027.75045        46.000          33.800
  24355065.805                                    24355054.039     3860228.268 5
   3018075.80343        34.800          18.300
  22329020.664                                    22329007.727    -8442817.263 7
  -5555369.72545        47.500          35.500
  21443508.227                                    21443498.336   -15201415.915 8
 -10967020.34346        49.900          38.800
  21783290.383                                    21783277.621    -9424970.418 8
  -7110570.19746        50.300          37.700
 11  1  1  1 34 30.0000000  0  7G32G14G31G19G22G24G11
  22122247.938                                    22122237.754    -9966203.345 8
  -7490708.56946        49.200          36.700
  20756637.188                                    20756625.773   -17463353.712 8
 -12505835.64447        51.300          42.400
  22749477.766    22749466.414                    22749465.355   -11306565.737 7
  -7087408.11645        47.100          33.600
  24373018.344                                    24373005.582     3954562.973 5
   3091583.35043        35.300          18.300
  22343569.109                                    22343556.230    -8366365.048 8
  -5495796.56145        48.400          35.600
  21433998.367                                    21433988.711   -15251390.873 8
 -11005961.86046        51.100          39.400
  21777851.234                                    21777839.527    -9453546.323 8
  -7132837.13446        49.300          37.100
 11  1  1  1 35  0.0000000  0  7G32G14G31G19G22G24G11
  22109519.531                                    22109508.645   -10033094.979 8
  -7542831.89746        49.900          37.100
  20764649.875                                    20764638.871   -17421244.595 8
 -12473023.34847        50.300          42.800
  22730878.148    22730868.203                    22730867.672   -11404301.348 7
  -7163565.70245        46.800          33.800
  24390995.602                                    24390981.141     4049023.004 5
   3165188.55642        35.200          17.400
  22358158.898                                    22358145.785    -8289694.776 7
  -5436053.49445        47.400          35.100
  21424578.570                                    21424568.387   -15300891.922 8
 -11044534.10646        50.800          39.700
  21772520.727                                    21772508.844    -9481554.394 8
  -7154661.62046        49.300          36.700
 11  1  1  1 35 30.0000000  0  7G32G14G31G19G22G24G11
  22096829.836                                    22096819.184   -10099780.178 8
  -7594794.37646        50.600          37.000
  20772739.352                                    20772727.879   -17378735.948 8
 -12439899.71847        51.000          42.700
  22712334.531    22712324.996                    22712324.289   -11501747.106 7
  -7239497.41645        46.000          34.900
  24408991.242                                                     4143606.854 5
                        32.000
  22372790.539                                    22372777.367    -8212805.557 7
  -5376139.82345        47.300          34.600
  21415250.008                                    21415239.707   -15349915.606 8
 -11082734.37046        50.800          39.400
  21767299.391                                    21767288.152    -9508992.455 8
  -7176041.90946        49.600          37.200
 11  1  1  1 36  0.0000000  0  8G32G14G31G19G22G12G24G11
  22084181.969                                    22084171.492   -10166244.073 8
  -7646584.39646        50.500          37.100
  20780906.922                                    20780895.391   -17335814.805 8
 -12406454.66047        50.500          42.500
  22693850.297    22693839.355                    22693839.410   -11598885.444 7
  -7315189.58645        47.500          34.200
  24427017.695                                                     4238325.48014
                        29.600
  22387466.367                                    22387453.020    -8135683.810 7
  -5316044.97145        47.800          35.100
  25210202.906    25210192.961                    25210191.902      695348.71516
    550783.05953        38.400          18.600
  21406014.945                                    21406004.996   -15398445.908 8
 -11120550.18446        51.300          40.500
  21762190.156                                    21762177.863    -9535845.204 8
  -7196966.13046        49.000          37.200
 11  1  1  1 36 30.0000000  0  8G20G32G14G31G22G12G24G11
  24319335.734                                                      661547.93415
                        32.200
  22071570.109                                    22071560.629   -10232520.155 8
  -7698228.08346        50.500          38.000
  20789146.438                                    20789134.965   -17292517.267 8
 -12372716.32047        50.200          42.800
  22675417.664    22675407.191                    22675406.953   -11695748.054 7
  -7390666.92245        47.500          34.000
  22402180.125                                    22402166.426    -8058364.466 7
  -5255796.13845        47.900          34.600
  25202235.344    25202224.520                    25202223.402      653478.418 6
    518156.82243        38.300          18.600
  21396867.570                                    21396857.387   -15446515.382 8
 -11158006.91346        51.200          40.500
  21757185.008                                    21757173.359    -9562146.348 8
  -7217460.54146        49.300          37.400
 11  1  1  1 37  0.0000000  0  8G20G32G14G31G22G12G24G11
  24300251.445                                                      561253.087 5
                        33.500
  22058997.195                                    22058986.602   -10298591.427 8
  -7749712.17046        50.000          38.000
  20797460.008                                    20797448.828   -17248828.830 8
 -12338673.37247        50.200          42.600
  22657040.219    22657030.625                    22657030.211   -11792315.909 7
  -7465914.52945        46.800          33.800
  22416933.563                                    22416920.215    -7980832.542 7
  -5195381.67245        46.600          34.600
  25194356.023    25194344.438                    25194343.965      612067.289 6
    485888.44743        40.000          20.400
  21387810.836                                    21387801.121   -15494106.253 8
 -11195090.70346        50.300          40.500
  21752288.469                                    21752276.879    -9587878.767 8
  -7237511.75346        50.600          38.100
 11  1  1  1 37 30.0000000  0  8G20G32G14G31G22G12G24G11
  24281176.977                                                      461012.894 5
                        34.800
  22046464.820                                    22046453.582   -10364452.717 8
  -7801032.63246        51.100          37.000
  20805847.867                                    20805836.805   -17204746.930 8
 -12304323.83447        50.300          42.700
  22638722.453    22638711.746                    22638711.742   -11888581.738 7
  -7540926.85045        47.800          34.800
  22431728.406                                    22431715.703    -7903084.171 7
  -5134798.54345        46.700          34.800
  25186564.984    25186553.457                    25186552.516      571121.444 6
    453982.57943        40.000          19.000
  21378847.250                                    21378837.535   -15541212.281 8
 -11231796.69246        51.700          40.400
  21747500.852                                    21747489.086    -9613037.032 8
  -7257115.59246        50.200          36.800
 11  1  1  1 38  0.0000000  0  8G20G32G14G31G22G12G24G11
  24262112.523                                                      360825.959 5
                        35.800
  22033971.266                                    22033960.203   -10430105.827 8
  -7852190.88646        50.300          38.500
  20814311.023                                    20814299.551   -17160275.451 8
 -12269670.72647        50.900          42.200
  22620460.219    22620451.152                    22620450.621   -11984545.173 7
  -7615703.51245        46.700          34.300
  22446564.430                                    22446551.023    -7825122.390 7
  -5074049.11245        46.300          34.800
  25178860.898    25178848.727                    25178849.426      530640.247 6
    422438.80543        39.600          20.100
  21369975.773                                    21369965.473   -15587834.252 8
 -11268125.48946        51.400          40.400
  21742822.539                                    21742810.480    -9637622.958 8
  -7276273.46946        50.500          37.500
 11  1  1  1 38 30.0000000  0  8G20G32G14G31G22G12G24G11
  24243055.914                                    24243046.434      260693.261 6
    537772.36953        37.300          18.300
  22021517.492                                    22021506.840   -10495549.727 8
  -7903186.10546        50.200          38.200
  20822847.133                                    20822836.246   -17115416.123 8
 -12234715.39447        49.500          42.200
  22602258.328    22602247.563                    22602247.617   -12080203.348 8
  -7690242.31445        48.400          34.800
  22461440.789                                    22461427.441    -7746947.899 7
  -5013133.94345        46.700          34.000
  25171245.508    25171234.156                    25171233.918      490625.850 6
    391258.79342        37.400          16.900
  21361195.844                                    21361186.070   -15633970.380 8
 -11304075.72446        50.900          39.500
  21738252.297                                    21738241.293    -9661635.548 8
  -7294984.56846        50.000          37.000
 11  1  1  1 39  0.0000000  0  8G20G32G14G31G22G12G24G11
  24224013.570                                    24224001.512      160615.694 6
    459789.92943        39.100          18.300
  22009103.391                                    22009093.676   -10560783.602 8
  -7954017.67746        50.700          38.300
  20831456.977                                    20831445.797   -17070170.897 8
 -12199459.36547        49.900          42.100
  22584113.398    22584102.984                    22584102.219   -12175553.208 7
  -7764540.89045        47.700          34.500
  22476357.164                                    22476344.109    -7668561.269 7
  -4952053.46345        46.400          34.600
  25163722.313    25163710.902                    25163709.316      451080.467 6
    360444.19842        38.800          16.900
  21352509.750                                    21352499.508   -15679619.006 8
 -11339646.06946        51.100          39.900
  21733792.141                                    21733780.434    -9685074.251 8
  -7313248.51646        50.500          36.800
 11  1  1  1 39 30.0000000  0  8G20G32G14G31G22G12G24G11
  24204976.984                                    24204968.910       60596.241 5
    381852.75242        35.800          17.400
  21996729.648                                    21996719.641   -10625805.211 8
  -8004683.84446        49.800          38.300
  20840140.289                                    20840128.875   -17024539.957 8
 -12163902.77847        49.900          42.900
  22566028.469    22566017.762                    22566017.641   -12270590.681 7
  -7838596.03845        47.500          34.000
  22491314.625                                    22491300.340    -7589962.037 7
  -4890807.32445        46.900          35.200
  25156285.031    25156275.086                    25156275.023      412007.283 6
    329997.62942        36.400          17.800
  21343915.680                                    21343906.141   -15724776.861 8
 -11374834.01446        50.200          39.500
  21729441.695                                    21729431.277    -9707936.503 8
  -7331063.22846        50.400          38.900
 11  1  1  1 40  0.0000000  0  8G20G32G14G31G22G12G24G11
  24185957.922                                    24185946.039      -39365.517 6
    303960.52543        39.600          18.300
  21984396.492                                    21984386.953   -10690614.906 8
  -8055184.87546        49.700          37.900
  20848896.391                                    20848885.211   -16978525.922 8
 -12128047.67747        50.400          42.000
  22548003.750    22547993.336                    22547992.746   -12365313.818 7
  -7912406.24245        47.700          35.900
  22506311.352                                    22506297.594    -7511151.993 7
  -4829396.90845        46.800          34.500
  25148939.969    25148927.973                    25148927.617      373407.044 6
    299919.49242        36.900          17.400
  21335416.430                                    21335406.480   -15769443.487 8
 -11409639.17746        51.100          40.500
  21725200.969                                    21725189.320    -9730223.115 8
  -7348429.41346        50.900          36.800
 11  1  1  1 40 30.0000000  0  8G20G32G14G31G22G12G24G11
  24166946.445                                    24166935.207     -139269.733 6
    226113.17843        40.200          19.900
  21972104.406                                    21972095.512   -10755213.559 8
  -8105521.46746        49.400          38.700
  20857724.922                                    20857713.977   -16932132.089 8
 -12091896.63547        50.700          42.000
  22530038.445    22530028.148                    22530027.793   -12459721.394 7
  -7985970.54145        47.200          35.500
  22521348.156                                    22521334.516    -7432133.376 7
  -4767823.97145        45.800          34.300
  25141684.148    25141674.848                    25141673.730      335279.749 5
    270209.89442        34.700          17.400
  21327009.836                                    21326999.887   -15813618.622 8
 -11444061.34346        51.100          39.900
  21721068.953                                    21721057.715    -9751934.958 8
  -7365347.73646        50.500          37.200
 11  1  1  1 41  0.0000000  0  8G20G32G14G31G22G12G24G11
  24147946.273                                    24147936.734     -239114.639 6
    148311.93743        39.200          19.900
  21959852.539                                    21959842.238   -10819599.542 8
  -8155692.34746        50.400          38.100
  20866625.313                                    20866614.133   -16885359.670 8
 -12055450.58647        50.000          43.100
  22512134.297    22512123.473                    22512122.941   -12553809.941 8
  -8059286.27445        48.100          35.300
  22536424.242                                    22536410.836    -7352906.104 7
  -4706088.44345        44.600          34.400
  25134522.102    25134509.285                    25134509.105      297628.289 6
    240871.06442        36.300          16.300
  21318697.422                                    21318687.824   -15857299.868 8
 -11478098.67246        50.300          40.100
  21717047.680                                    21717035.621    -9773070.147 8
  -7381816.71146        51.100          37.300
 11  1  1  1 41 30.0000000  0  8G20G32G14G31G22G12G24G11
  24128957.828                                    24128947.527     -338897.838 6
     70558.88143        38.400          19.000
  21947640.680                                    21947630.145   -10883770.733 8
  -8205695.87046        49.800          37.400
  20875598.133                                    20875586.836   -16838208.734 8
 -12018709.59847        50.800          42.000
  22494291.273    22494279.805                    22494279.391   -12647575.379 7
  -8132350.24445        47.900          34.800
  22551540.234                                    22551527.180    -7273469.724 7
  -4644189.97345        45.300          33.600
  25127448.172    25127435.473                    25127435.938      260456.152 5
    211905.88542        34.600          15.600
  21310479.625                                    21310470.438   -15900484.431 8
 -11511748.96946        50.500          40.400
  21713135.211                                    21713124.031    -9793626.673 8
  -7397834.79146        49.900          36.200
 11  1  1  1 42  0.0000000  0  8G20G32G14G31G22G12G24G11
  24109981.875                                    24109971.340     -438617.944 6
     -7145.01843        37.500          20.900
  21935471.023                                    21935460.313   -10947725.580 8
  -8255530.78846        50.200          38.300
  20884642.641                                    20884631.168   -16790680.508 8
 -11981674.60546        50.800          41.700
  22476510.195    22476499.430                    22476498.898   -12741014.060 7
  -8205159.57645        47.500          35.400
  22566697.117                                    22566683.418    -7193824.352 7
  -4582128.64745        45.700          34.200
  25120464.867    25120453.398                    25120453.336      223765.561 5
    183315.74842        34.600          17.400
  21302357.125                                    21302347.352   -15943169.990 8
 -11545010.41846        51.100          40.600
  21709334.375                                    21709323.078    -9813603.473 8
  -7413401.13946        50.000          38.300
 11  1  1  1 42 30.0000000  0  8G20G32G14G31G22G12G24G11
  24091018.758                                    24091006.875     -538273.949 6
    -84799.02343        37.900          19.600
  21923341.328                                    21923331.262   -11011463.980 8
  -8305197.03446        49.400          38.600
  20893757.523                                    20893746.578   -16742777.291 8
 -11944347.41746        50.500          41.700
  22458790.445    22458781.262                    22458780.496   -12834123.921 7
  -8277712.67445        47.100          35.300
  22581891.844                                    22581879.258    -7113971.309 7
  -4519905.50445        45.900          34.400
  25113572.031    25113562.730                    25113562.727      187558.172 5
    155102.19442        30.300          17.400
  21294329.320                                    21294319.488   -15985355.324 8
 -11577882.12146        51.000          40.400
  21705642.813                                    21705631.398    -9833000.363 8
  -7428515.58646        50.100          36.800
 11  1  1  1 43  0.0000000  0  8G20G32G14G31G22G12G24G11
  24072066.281                                    24072056.098     -637864.739 5
   -162402.13843        35.400          21.500
  21911254.055                                    21911243.402   -11074985.022 8
  -8354693.94446        49.500          38.900
  20902944.930                                    20902933.164   -16694500.768 8
 -11906729.34347        50.300          42.000
  22441136.609    22441126.723                    22441126.074   -12926902.098 7
  -8350007.33946        47.200          36.100
  22597127.031                                    22597113.859    -7033911.277 7
  -4457521.10145        45.600          34.000
  25106777.180    25106765.184                    25106765.648      151834.773 6
    127265.81143        37.700          18.600
  21286397.906                                    21286387.840   -16027038.911 8
 -11610362.82446        51.500          40.900
  21702061.828                                    21702050.180    -9851816.928 8
  -7443177.84546        50.700          37.400
 11  1  1  1 43 30.0000000  0  8G20G32G14G31G22G12G24G11
  24053127.141                                    24053117.133     -737390.663 6
   -239954.75843        37.100          19.600
  21899207.938                                    21899197.168   -11138289.438 8
  -8404022.04346        49.800          38.900
  20912202.086                                    20912190.555   -16645854.385 8
 -11868823.05547        49.900          42.400
  22423545.445    22423534.094                    22423533.738   -13019347.312 7
  -8422042.55245        47.900          35.500
  22612401.281                                    22612387.875    -6953646.465 7
  -4394977.11245        44.300          34.600
  25100068.086    25100058.492                    25100059.074      116596.477 5
     99807.31043        33.400          18.600
  21278561.164                                    21278550.922   -16068220.758 8
 -11642452.57246        52.100          41.000
  21698591.711                                    21698580.531    -9870054.020 8
  -7457388.57046        50.900          37.800
 11  1  1  1 44  0.0000000  0  8G20G32G14G31G22G12G24G11
  24034200.672                                    24034189.258     -836850.025 6
   -317455.51843        37.500          18.600
  21887202.359                                    21887191.414   -11201375.522 8
  -8453180.01746        48.900          37.500
  20921529.297                                    20921517.824   -16596838.708 8
 -11830629.01847        50.800          42.400
  22406016.195    22406006.660                    22406006.070   -13111456.050 7
  -8493815.56745        46.300          35.800
  22627714.789                                    22627700.504    -6873176.642 7
  -4332273.37445        45.800          34.200
  25093457.406    25093447.402                    25093446.520       81845.712 6
     72728.84443        36.100          19.300
  21270820.313                                    21270810.480   -16108898.328 8
 -11674149.36246        52.300          41.200
  21695231.930                                    21695220.516    -9887710.083 8
  -7471146.54246        50.800          36.600
 11  1  1  1 44 30.0000000  0  8G20G32G14G31G22G12G24G11
  24015287.023                                    24015276.195     -936239.796 6
   -394902.07442        37.600          16.300
  21875239.531                                    21875228.820   -11264240.863 8
  -8502165.98246        48.100          37.500
  20930926.820                                    20930915.406   -16547453.991 8
 -11792147.41247        50.500          42.300
  22388554.094    22388543.914                    22388543.617   -13203223.665 7
  -8565322.77546        46.900          36.100
  22643065.719                                    22643052.723    -6792501.396 7
  -4269409.56345        44.500          33.200
  25086940.070    25086927.078                    25086926.664       47585.996 6
     46032.98043        38.000          20.600
  21263176.078                                    21263165.777   -16149068.494 8
 -11705450.78446        51.300          40.900
  21691983.453                                    21691971.922    -9904783.126 8
  -7484450.20446        50.300          38.200
 11  1  1  1 45  0.0000000  0  8G20G32G14G31G22G12G24G11
  23996385.945                                    23996374.297    -1035569.551 6
   -472301.86242        37.900          16.300
  21863316.859                                    21863306.910   -11326895.172 8
  -8550987.50646        49.200          38.300
  20940392.000                                    20940380.762   -16497712.477 8
 -11753387.78846        50.600          41.700
  22371154.953    22371144.480                    22371143.891   -13294658.272 7
  -8636570.50746        47.300          36.500
  22658455.359                                    22658441.836    -6711631.567 7
  -4206394.09445        46.000          33.700
  25080507.125    25080500.227                    25080499.520       13808.365 5
     19712.76143        31.800          19.000
  21255627.117                                    21255617.109   -16188740.167 8
 -11736363.77746        52.700          41.000
  21688843.508                                    21688831.625    -9921283.211 8
  -7497307.41346        50.700          36.800
 11  1  1  1 45 30.0000000  0  8G20G32G14G31G22G12G24G11
  23977499.477                                    23977488.648    -1134814.42216
   -549635.47552        36.800          15.600
  21851439.523                                    21851428.930   -11389313.780 8
  -8599625.38346        48.400          37.700
  20949929.805                                    20949918.508   -16447592.168 8
 -11714332.99746        50.500          41.900
  22353824.016    22353813.191                    22353812.660   -13385732.640 7
  -8707537.51046        46.200          36.600
  22673884.813                                    22673872.109    -6630544.209 7
  -4143209.16445        45.300          33.000
  25074180.133    25074169.191                    25074168.426      -19461.826 6
     -6212.07343        39.200          19.900
  21248177.156                                    21248167.324   -16227888.054 8
 -11766868.62046        50.800          40.900
  21685816.828                                    21685804.945    -9937185.873 8
  -7509699.11246        50.300          37.200
 11  1  1  1 46  0.0000000  0  8G20G32G14G31G22G12G24G11
  23958625.516                                    23958615.977    -1233992.82415
   -626917.35652        34.800          16.900
  21839601.680                                    21839591.965   -11451515.697 7
  -8648094.37646        47.800          38.300
  20959535.750                                    20959524.160   -16397114.484 8
 -11674999.73547        50.300          42.500
  22336559.016    22336547.664                    22336547.367   -13476464.340 7
  -8778237.50146        46.400          36.700
  22689352.586                                    22689339.473    -6549260.016 7
  -4079870.83945        44.700          32.900
  25067941.852    25067930.383                    25067930.672      -52242.764 6
    -31755.66443        37.800          19.600
  21240823.672                                    21240813.781   -16266530.367 8
 -11796979.49946        51.000          41.200
  21682901.117                                    21682888.648    -9952510.438 8
  -7521640.32146        50.500          37.000
 11  1  1  1 46 30.0000000  0  8G20G32G14G31G22G12G24G11
  23939767.969                                    23939755.734    -1333098.574 6
   -704142.59843        38.800          18.600
  21827808.000                                    21827797.699   -11513495.302 8
  -8696390.16046        48.500          38.600
  20969210.266                                    20969198.676   -16346276.403 8
 -11635385.63647        51.400          42.100
  22319358.813    22319348.574                    22319348.395   -13566845.786 7
  -8848664.59446        46.900          37.000
  22704858.953                                    22704846.191    -6467774.873 7
  -4016375.94245        45.500          32.300
  25061796.875    25061786.695                    25061786.164      -84527.468 6
    -56912.58143        36.500          18.300
  21233567.578                                    21233557.980   -16304660.938 8
 -11826691.62046        51.900          41.200
  21680095.281                                    21680084.219    -9967252.140 8
  -7533127.38446        50.600          37.300
 11  1  1  1 47  0.0000000  0  8G20G32G14G31G22G12G24G11
  23920922.000                                    23920910.938    -1432133.459 6
   -781312.54943        40.400          22.900
  21816055.867                                    21816044.980   -11575254.179 8
  -8744513.94246        48.600          38.600
  20978951.805                                    20978940.508   -16295082.093 8
 -11595493.96446        49.800          41.800
  22302226.813    22302215.988                    22302215.809   -13656876.586 7
  -8918818.44346        47.800          36.800
  22720403.328                                    22720389.453    -6386091.902 7
  -3952726.88945        44.400          32.700
  25055747.984    25055738.039                    25055737.449     -116317.092 5
    -81683.68342        33.500          16.300
  21226409.602                                    21226399.008   -16342280.399 8
 -11856005.47946        51.000          41.100
  21677400.492                                    21677389.957    -9981412.305 8
  -7544161.25346        50.800          37.500
 11  1  1  1 47 30.0000000  0  8G20G32G14G31G22G12G24G11
  23902091.539                                    23902080.008    -1531092.517 6
   -858423.53243        40.300          22.500
  21804346.289                                    21804336.340   -11636788.131 8
  -8792462.46246        48.300          39.900
  20988761.742                                    20988750.563   -16243530.073 7
 -11555323.54846        47.900          41.800
  22285162.195    22285151.840                    22285151.543   -13746550.680 7
  -8988694.33346        46.400          37.000
  22735984.555                                    22735971.676    -6304208.497 7
  -3888921.65545        44.800          32.600
  25049795.227    25049783.289                    25049783.754     -147606.58015
   -106065.00152        34.800          16.900
  21219348.641                                    21219338.750   -16379384.184 8
 -11884917.50446        49.600          41.100
  21674817.852                                    21674806.145    -9994987.197 8
  -7554739.08046        50.900          36.700
 11  1  1  1 48  0.0000000  0  8G20G32G14G31G22G12G24G11
  23883272.852                                    23883262.492    -1629978.934 6
   -935477.90443        36.100          20.600
  21792679.352                                    21792669.109   -11698100.426 8
  -8840238.26246        48.600          39.400
  20998638.484                                    20998627.305   -16191626.158 8
 -11514878.94146        48.600          41.300
  22268166.477    22268154.539                    22268154.125   -13835869.489 7
  -9058293.38046        47.500          36.800
  22751604.477                                    22751591.246    -6222129.650 7
  -3824964.11745        44.200          32.700
  25043935.672    25043922.504                    25043924.258     -178398.39315
   -130058.77052        34.600          13.900
  21212385.711                                    21212375.410   -16415974.985 8
 -11913429.82446        51.300          40.900
  21672345.406                                    21672333.934   -10007981.120 8
  -7564864.21446        50.700          38.000
 11  1  1  1 48 30.0000000  0  8G20G32G14G31G22G12G24G11
  23864470.453                                    23864461.148    -1728781.687 6
  -1012467.00543        36.000          19.600
  21781056.227                                    21781045.457   -11759180.448 8
  -8887833.05746        48.600          39.300
  21008584.234                                    21008572.938   -16139362.430 8
 -11474153.94646        48.800          41.300
  22251239.828    22251227.773                    22251227.770   -13924820.579 7
  -9127605.89146        47.400          36.800
  22767261.281                                    22767248.754    -6139846.471 7
  -3760847.37145        44.000          31.600
  25038171.383    25038160.852                    25038161.668     -208681.428 5
   -153655.94042        31.500          15.600
  21205522.477                                    21205512.527   -16452041.563 8
 -11941533.63546        50.900          41.800
  21669985.359                                    21669973.418   -10020383.454 8
  -7574528.37846        50.500          36.900
 11  1  1  1 49  0.0000000  0  8G20G32G14G31G22G12G24G11
  23845686.094                                    23845674.914    -1827500.019 6
  -1089390.35043        38.300          19.600
  21769476.961                                    21769466.426   -11820027.764 8
  -8935246.51846        48.800          38.700
  21018597.641                                    21018586.285   -16086740.817 8
 -11433150.09047        48.400          42.000
  22234382.734    22234371.910                    22234371.496   -14013401.533 8
  -9196629.99846        48.600          37.800
  22782958.563                                    22782945.742    -6057359.571 7
  -3696571.89645        44.500          32.300
  25032506.586    25032493.828                                     -238454.53015
                        33.700
  21198758.727                                    21198749.188   -16487582.767 8
 -11969228.06946        50.800          41.500
  21667737.539                                    21667726.008   -10032194.492 8
  -7583731.79746        50.200          37.300
 11  1  1  1 49 30.0000000  0  8G20G32G14G31G22G12G24G11
  23826915.422                                    23826903.773    -1926146.757 6
  -1166257.94643        38.000          22.800
  21757939.445                                    21757929.145   -11880655.622 7
  -8982488.99246        47.500          38.700
  21028676.750                                    21028665.629   -16033776.883 8
 -11391879.48246        48.700          41.700
  22217594.789    22217583.438                    22217583.316   -14101623.776 8
  -9265374.58246        48.300          37.000
  22798691.633                                    22798677.992    -5974684.174 7
  -3632149.51645        43.600          32.400
  25026936.266    25026925.266                                     -267729.534 5
                        34.300
  21192093.133                                    21192082.832   -16522611.263 8
 -11996522.98846        50.200          41.000
  21665599.414                                    21665588.352   -10043427.904 8
  -7592485.09346        49.400          37.100
 11  1  1  1 50  0.0000000  0  8G20G32G14G31G22G12G24G11
  23808156.797                                    23808146.730    -2024715.000 6
  -1243064.33243        38.300          22.600
  21746445.797                                    21746435.379   -11941057.391 8
  -9029555.29146        48.500          39.500
  21038821.000                                    21038809.527   -15980467.270 8
 -11350339.52246        48.000          40.900
  22200875.289    22200865.695                    22200865.047   -14189478.754 7
  -9333832.97246        47.000          37.400
  22814460.328                                    22814447.801    -5891815.348 7
  -3567576.39945        42.900          31.800
  25021458.469    25021447.820                                     -296499.89914
                        28.300
  21185526.586                                    21185516.285   -16557119.847 8
 -12023412.79546        50.100          41.500
  21663572.977                                    21663561.914   -10054077.633 8
  -7600783.58846        49.200          37.400
 11  1  1  1 50 30.0000000  0  8G20G32G14G31G22G24G17G11
  23789418.234                                    23789406.176    -2123194.397 6
  -1319801.52344        40.300          24.900
  21734996.242                                    21734985.941   -12001223.144 8
  -9076437.67946        49.300          39.000
  21049032.383                                    21049021.262   -15926804.335 7
 -11308524.24246        47.900          41.000
  22184230.227    22184219.227                    22184219.047   -14276954.746 7
  -9401996.04246        47.600          37.700
  22830267.891                                    22830254.660    -5808744.842 7
  -3502846.15745        43.800          31.300
  21179060.195                                    21179050.715   -16591098.007 8
 -12049889.27446        49.700          41.900
  25018994.953    25018985.184                                      756428.63315
                        31.000
  21661659.719                                    21661648.539   -10064134.268 8
  -7608619.92446        48.800          38.200
 11  1  1  1 51  0.0000000  0  8G20G32G14G31G22G12G24G11
  23770694.102                                    23770682.395    -2221593.178 6
  -1396475.90844        41.700          25.400
  21723590.227                                    21723579.926   -12061161.576 8
  -9123142.92746        48.400          39.600
  21059308.977                                    21059297.914   -15872799.381 8
 -11266442.45046        48.300          41.000
  22167654.484    22167643.660                    22167643.246   -14364058.493 8
  -9469869.08846        48.200          37.600
  22846112.844                                    22846099.496    -5725482.976 7
  -3437966.79745        43.500          31.400
  25010803.070    25010792.246                                      764542.64415
                        30.700
  21172693.859                                    21172684.438   -16624554.066 8
 -12075958.92046        49.500          41.800
  21659856.680                                    21659844.563   -10073607.125 8
  -7616001.37646        48.300          37.000
 11  1  1  1 51 30.0000000  0  8G20G32G14G31G22G12G24G11
  23751985.031                                    23751973.324    -2319901.439 6
  -1473079.71543        39.300          22.200
  21712229.195                                    21712220.652   -12120863.067 8
  -9169663.56046        49.000          39.800
  21069652.352                                    21069641.289   -15818445.529 7
 -11224088.79846        47.600          41.700
  22151152.203    22151141.555                    22151141.023   -14450778.834 7
  -9537443.37146        46.900          38.200
  22861996.414                                    22861982.246    -5642021.356 7
  -3372931.80345        45.200          33.000
  25005625.430    25005611.031                                      737312.616 5
                        34.200
  21166429.188                                    21166419.121   -16657477.820 8
 -12101613.78447        49.900          42.200
  21658166.656                                    21658155.652   -10082487.506 8
  -7622921.15946        48.300          38.000
 11  1  1  1 52  0.0000000  0  7G20G32G14G31G22G24G11
  23733293.039                                    23733281.742    -2418127.810 6
  -1549619.77943        39.400          23.300
  21700912.297                                    21700902.758   -12180336.688 8
  -9216006.63446        48.400          39.800
  21080059.977                                    21080048.680   -15763754.532 8
 -11181472.43046        48.600          41.700
  22134721.539    22134710.305                    22134710.008   -14537122.979 8
  -9604724.49346        48.300          38.000
  22877913.820                                    22877900.238    -5558370.971 7
  -3307749.71945        43.900          32.100
  21160263.289                                    21160253.516   -16689878.126 8
 -12126860.77346        48.700          41.700
  21656587.789                                    21656576.668   -10090784.766 7
  -7629386.55146        47.700          37.000
 11  1  1  1 52 30.0000000  0  9G20G32G14G31G22G12G24G25G11
  23714618.023                                    23714607.371    -2516266.872 6
  -1626091.74043        40.900          23.000
  21689639.109                                    21689627.930   -12239577.403 8
  -9262168.20346        48.300          39.200
  21090531.742                                    21090520.504   -15708723.664 7
 -11138591.24446        47.800          41.300
  22118363.734    22118352.734                    22118352.438   -14623084.034 8
  -9671707.12746        48.100          37.600
  22893867.148                                    22893854.328    -5474528.287 7
  -3242417.74645        43.900          32.800
  24995551.398    24995540.691                                     -805281.11615
                        35.500
  21154198.539                                    21154188.180   -16721749.336 8
 -12151695.47946        49.200          41.600
  25220489.781    25220483.176                                     -852403.09816
                        36.600
  21655121.266                                    21655109.852   -10098494.671 8
  -7635394.24746        49.200          37.600
 11  1  1  1 53  0.0000000  0  9G20G32G14G31G22G12G24G25G11
  23695961.258                                    23695949.668    -2614312.927 6
  -1702491.28344        41.600          24.100
  21678411.820                                    21678400.758   -12298579.906 8
  -9308144.15946        49.100          40.500
  21101068.531                                    21101057.527   -15653350.210 8
 -11095443.08346        48.200          41.100
  22102080.406    22102070.051                    22102069.520   -14708654.889 8
  -9738385.67446        48.100          38.200
  22909860.055                                    22909847.059    -5390489.981 7
  -3176933.38145        43.700          32.400
  24990661.797    24990648.336                                     -830966.314 5
                        33.400
  21148235.727                                    21148225.660   -16753085.658 8
 -12176113.38147        49.900          42.100
  25206637.484    25206630.762                                     -925184.779 5
                        34.400
  21653766.672                                    21653754.379   -10105612.556 8
  -7640940.66146        48.900          37.000
 11  1  1  1 53 30.0000000  0  9G20G32G14G31G22G12G24G25G11
  23677318.898                                    23677308.305    -2712268.377 6
  -1778820.17743        38.300          20.900
  21667228.336                                    21667217.684   -12357346.890 8
  -9353936.57946        49.700          40.500
  21111670.859                                    21111659.328   -15597639.617 8
 -11052032.22646        48.100          41.300
  22085870.883    22085859.414                    22085858.941   -14793836.565 8
  -9804760.99446        48.500          37.600
  22925889.211                                    22925875.629    -5306259.875 7
  -3111299.57345        44.700          32.300
  24985873.320    24985863.492                    24985861.320     -856133.251 6
  -1395186.17852        36.200          17.400
  21142374.242                                    21142363.824   -16783889.274 8
 -12200116.21146        51.200          41.800
  25192837.016    25192830.117                                     -997701.59815
                        32.800
  21652524.789                                    21652512.320   -10112142.019 8
  -7646028.55746        49.100          37.100
 11  1  1  1 54  0.0000000  0  9G20G32G14G31G22G12G24G25G11
  23658696.977                                    23658685.445    -2810133.516 6
  -1855078.70543        38.100          20.600
  21656089.797                                    21656080.199   -12415879.003 8
  -9399546.00946        50.200          40.200
  21122335.625                                    21122324.152   -15541595.423 8
 -11008361.43046        49.100          40.800
  22069735.477    22069724.652                    22069723.945   -14878628.043 8
  -9870832.24946        48.800          38.300
  22941952.766                                    22941939.711    -5221840.672 7
  -3045518.38545        44.500          31.700
  24981183.836    24981171.898                    24981172.363     -880781.279 6
  -1414392.40542        37.900          16.900
  21136613.406                                    21136603.809   -16814160.423 8
 -12223704.11047        51.200          42.200
  25179088.914    25179080.727                                    -1069952.031 5
                        33.700
  21651392.563                                    21651381.617   -10118084.386 8
  -7650658.96746        48.400          37.200
 11  1  1  1 54 30.0000000  0 10G20G32G14G31G22G12G24G17G25G11
  23640091.406                                    23640080.168    -2907907.554 6
  -1931266.26843        39.500          21.100
  21644996.539                                    21644986.180   -12474176.176 8
  -9444972.37146        49.800          40.700
  21133063.367                                    21133051.719   -15485220.167 8
 -10964432.64546        49.200          40.800
  22053674.734    22053664.203                    22053663.438   -14963027.092 8
  -9936597.72346        49.900          38.200
  22958052.805                                    22958040.043    -5137233.947 7
  -2979591.06745        43.900          31.600
  24976592.164    24976578.352                    24976580.340     -904910.964 6
  -1433194.80442        38.400          16.300
  21130954.305                                    21130944.121   -16843898.748 8
 -12246876.82146        51.700          41.800
  24953958.633    24953945.113                                     -813679.05514
                        28.900
  25165393.180    25165383.469                                    -1141933.910 5
                        31.600
  21650374.242                                    21650363.121   -10123440.105 8
  -7654832.25246        49.200          37.600
 11  1  1  1 55  0.0000000  0  9G20G32G14G31G22G12G24G25G11
  23621503.688                                    23621493.152    -3005587.469 6
  -2007380.43643        40.900          22.900
  21633948.016                                    21633937.070   -12532235.488 8
  -9490213.36646        50.000          40.100
  21143854.359                                    21143842.828   -15428513.078 8
 -10920245.31646        48.800          41.200
  22037688.945    22037678.004                    22037677.883   -15047029.557 8
 -10002054.16846        49.100          37.800
  22974188.344                                    22974175.641    -5052438.208 7
  -2913516.49045        43.300          31.700
  24972099.633    24972088.398                    24972088.570     -928518.635 6
  -1451590.39242        36.800          16.900
  21125398.695                                    21125388.160   -16873100.747 8
 -12269631.61747        51.400          42.100
  25151743.734    25151739.770                                    -1213642.315 4
                        29.900
  21649467.289                                    21649455.172   -10128207.280 8
  -7658546.93446        49.400          37.300
 11  1  1  1 55 30.0000000  0  9G20G32G14G31G22G12G24G25G11
  23602932.641                                    23602922.633    -3103173.781 6
  -2083421.67543        39.700          21.800
  21622944.906                                    21622934.371   -12590057.689 8
  -9535269.60846        49.400          39.600
  21154707.711                                    21154695.828   -15371477.932 8
 -10875802.33246        49.000          41.200
  22021779.484    22021769.188                    22021768.891   -15130634.285 8
 -10067200.69646        48.400          37.700
  22990361.602                                    22990347.316    -4967455.831 7
  -2847296.48145        44.600          31.500
  24967705.633    24967696.449                    24967695.391     -951603.773 5
  -1469578.77242        35.500          16.300
  21119941.875                                    21119932.219   -16901766.912 8
 -12291968.89146        52.100          41.900
  25138152.820    25138143.344                                    -1285076.101 6
                        36.900
  21648671.563                                    21648659.445   -10132387.636 8
  -7661804.34946        49.300          37.000
 11  1  1  1 56  0.0000000  0  9G20G32G14G31G22G12G24G25G11
  23584382.594                                    23584371.355    -3200660.837 6
  -2159385.58643        40.900          22.500
  21611987.852                                    21611977.316   -12647637.791 8
  -9580137.22546        49.600          39.800
  21165624.141                                    21165612.902   -15314112.187 8
 -10831101.75546        49.100          41.200
  22005947.109    22005936.813                    22005936.164   -15213834.658 8
 -10132032.13546        49.700          38.300
  23006567.773                                    23006555.012    -4882283.616 7
  -2780928.53945        42.000          30.500
  24963413.852    24963403.320                    24963403.902     -974161.703 5
  -1487156.28142        33.100          15.600
  21114589.875                                    21114579.867   -16929892.181 8
 -12313884.68846        52.100          41.800
  25124614.523    25124605.457                                    -1356227.948 6
                        37.200
  21647989.375                                    21647976.965   -10135976.940 8
  -7664601.21246        49.100          37.400
 11  1  1  1 56 30.0000000  0  9G20G32G14G31G22G12G24G25G11
  23565849.953                                    23565839.008    -3298050.330 7
  -2235273.54643        42.000          22.600
  21601076.180                                    21601066.055   -12704977.692 8
  -9624817.66346        49.500          40.000
  21176602.422                                    21176591.359   -15256420.633 8
 -10786147.28846        48.800          40.900
  21990192.047    21990181.516                    21990180.809   -15296630.915 8
 -10196548.66546        49.600          39.400
  23022811.742                                    23022798.219    -4796925.397 7
  -2714415.65645        42.800          30.400
  24959222.781    24959211.957                    24959211.953     -996193.69815
  -1504324.09152        33.800          13.900
  21109341.070                                    21109330.887   -16957477.856 8
 -12335380.01447        51.500          42.500
  25111127.383    25111119.898                                    -1427098.165 5
                        32.400
  21647417.234                                    21647405.703   -10138977.986 8
  -7666939.69846        48.200          37.900
 11  1  1  1 57  0.0000000  0  9G20G32G14G31G22G12G24G25G11
  23547337.086                                    23547324.031    -3395338.894 7
  -2311082.70143        42.300          22.600
  21590211.250                                    21590200.656   -12762074.661 8
  -9669308.78646        49.900          40.200
  21187642.859                                    21187631.621   -15198403.083 8
 -10740938.79846        49.000          40.900
  21974514.070    21974503.422                    21974503.125   -15379018.619 8
 -10260746.85946        49.800          38.900
  23039090.773                                    23039077.191    -4711379.912 7
  -2647756.83345        43.000          30.400
  24955130.367    24955119.133                                    -1017697.135 5
                        34.300
  21104195.258                                    21104184.605   -16984520.922 8
 -12356452.52847        52.100          42.400
  25097694.406    25097688.738                                    -1497681.574 5
                        33.700
  21646958.156                                    21646946.977   -10141388.774 8
  -7668818.22346        49.300          37.100
 11  1  1  1 57 30.0000000  0  9G20G32G14G31G22G12G24G25G11
  23528840.258                                    23528829.020    -3492532.209 6
  -2386817.67743        40.500          21.500
  21579390.758                                    21579380.926   -12818934.889 8
  -9713615.42946        49.000          40.800
  21198743.539                                    21198732.125   -15140068.124 8
 -10695482.98546        48.700          41.000
  21958912.813    21958902.750                    21958902.160   -15461001.945 8
 -10324629.93746        49.400          38.600
  23055403.961                                    23055389.734    -4625654.742 7
  -2580958.02644        42.700          29.300
  24951136.961    24951126.254                                    -1038677.46115
                        32.300
  21099151.141                                    21099140.430   -17011027.333 8
 -12377106.87146        51.800          41.200
  25084315.156    25084311.133                                    -1567982.512 4
                        29.400
  21646610.516                                    21646598.867   -10143216.411 8
  -7670242.35546        48.900          37.300
 11  1  1  1 58  0.0000000  0  9G20G32G14G31G22G12G24G25G11
  23510367.727                                    23510355.961    -3589615.449 7
  -2462466.94044        42.600          24.400
  21568619.094                                    21568609.145   -12875543.709 8
  -9757726.19146        49.700          41.200
  21209906.813                                    21209895.223   -15081404.016 8
 -10649770.68946        48.400          41.200
  21943391.609    21943380.609                    21943380.313   -15542565.141 8
 -10388185.66546        49.600          39.300
  23071753.773                                    23071739.020    -4539737.312 7
  -2514009.39244        43.500          29.400
  24947249.023    24947235.914                                    -1059119.48016
                        36.900
  21094211.539                                    21094201.766   -17036982.188 8
 -12397331.43046        51.600          41.900
  25070998.898    25070989.422                                    -1637984.26416
                        37.600
  21646376.086                                    21646365.141   -10144447.548 8
  -7671201.66846        48.800          37.600
 11  1  1  1 58 30.0000000  0  9G20G32G14G31G22G12G24G25G11
  23491910.703                                    23491899.641    -3686602.679 6
  -2538041.37343        41.700          22.900
  21557891.430                                    21557880.719   -12931915.645 8
  -9801652.34646        49.200          40.300
  21221129.867                                    21221117.809   -15022427.941 8
 -10603815.29846        49.400          40.700
  21927948.313    21927937.957                    21927937.543   -15623720.717 8
 -10451423.75146        50.000          39.700
  23088135.125                                    23088122.949    -4453643.799 7
  -2446923.55045        42.800          30.200
  24943453.594    24943443.004                                    -1079038.29914
                        29.400
  21089375.070                                    21089365.063   -17062399.748 8
 -12417137.32347        52.000          42.300
  25057730.781    25057720.484                                    -1707699.402 6
                        37.800
  21646252.977                                    21646240.859   -10145097.401 8
  -7671708.07746        48.900          37.200
 11  1  1  1 59  0.0000000  0  9G20G32G14G31G22G12G24G25G11
  23473476.289                                    23473464.055    -3783481.016 7
  -2613530.92644        43.700          24.000
  21547212.031                                    21547201.027   -12988038.195 8
  -9845384.20646        48.600          41.200
  21232413.242                                    21232401.652   -14963130.083 8
 -10557609.16346        49.000          41.000
  21912585.023    21912574.258                    21912573.785   -15704454.655 8
 -10514333.29646        49.800          38.500
  23104554.633                                    23104540.816    -4367363.244 7
  -2379691.96444        42.100          28.700
  24939771.141    24939757.973                                    -1098420.33815
                        34.600
  21084642.453                                    21084632.914   -17087267.490 8
 -12436514.77847        51.400          42.500
  25044522.109    25044516.910                                    -1777113.393 6
                        37.800
  21646241.992                                    21646230.988   -10145154.638 8
  -7671752.67646        49.500          37.600
 11  1  1  1 59 30.0000000  0  9G20G32G14G31G22G12G24G25G11
  23455060.891                                    23455047.895    -3880254.850 7
  -2688939.05743        44.000          22.900
  21536578.813                                    21536567.926   -13043916.442 8
  -9888925.68446        49.300          40.500
  21243757.398                                    21243745.809   -14903518.046 8
 -10511158.22046        48.900          40.800
  21897301.961    21897290.844                    21897290.488   -15784770.587 8
 -10576917.11946        50.200          39.500
  23121007.336                                    23120994.047    -4280902.257 7
  -2312319.75444        43.300          28.400
  24936183.422    24936167.793                                    -1117270.682 5
                        35.100
  21080013.992                                    21080004.629   -17111590.018 8
 -12455467.38146        51.100          41.500
  25031367.305    25031363.926                                    -1846229.533 5
                        35.000
  21646342.563                                    21646331.441   -10144625.193 8
  -7671340.11946        48.300          37.800
 11  1  1  2  0  0.0000000  0  9G20G32G14G31G22G12G24G25G11
  23436665.359                                    23436653.418    -3976921.580 7
  -2764263.77644        42.900          24.700
  21525991.680                                    21525981.438   -13099548.073 8
  -9932274.99246        48.900          40.100
  21255160.680                                    21255149.793   -14843591.893 8
 -10464462.51446        48.800          40.600
  21882098.148    21882087.559                    21882087.320   -15864664.417 8
 -10639172.02246        49.400          40.100
  23137493.961                                    23137482.020    -4194260.540 6
  -2244806.75744        41.500          28.400
  24932694.570    24932686.266                                    -1135587.19214
                        25.900
  21075489.867                                    21075479.918   -17135365.117 8
 -12473993.44446        51.400          41.700
  25018274.320    25018266.367                    25018263.609    -1915043.338 6
   -602500.36653        37.700          21.300
  21646554.531                                    21646544.113   -10143507.733 7
  -7670469.34646        47.800          37.200
 11  1  1  2  0 30.0000000  0  9G20G32G14G31G22G12G24G25G11
  23418289.477                                    23418278.941    -4073476.566 6
  -2839501.38443        41.700          21.800
  21515453.781                                    21515442.953   -13154928.948 8
  -9975428.91546        48.900          41.000
  21266624.016                                    21266612.777   -14783350.547 8
 -10417521.19946        48.200          40.100
  21866976.648    21866965.824                    21866965.234   -15944130.437 8
 -10701093.58346        49.200          40.100
  23154016.961                                    23154004.727    -4107435.493 7
  -2177150.92144        42.300          29.100
  24929311.172    24929301.695                                    -1153365.04315
                        31.500
  21071070.938                                    21071060.754   -17158588.226 8
 -12492089.36447        49.600          42.000
  25005236.633    25005230.145                    25005229.262    -1983548.829 6
   -655881.21442        36.900          16.300
  21646879.797                                    21646868.324   -10141799.585 7
  -7669138.34446        46.100          37.700
 11  1  1  2  1  0.0000000  0  8G20G32G14G31G22G24G25G11
  23399937.734                                    23399926.555    -4169923.232 7
  -2914654.61744        43.000          25.300
  21504961.555                                    21504951.195   -13210062.991 8
 -10018390.50246        49.000          41.500
  21278147.102                                    21278136.215   -14722800.306 8
 -10370339.19046        48.000          40.200
  21851935.906    21851925.199                    21851924.785   -16023171.004 8
 -10762683.60946        50.500          40.800
  23170573.227                                    23170560.348    -4020432.717 7
  -2109356.57844        43.400          28.900
  21066755.633                                    21066745.684   -17181263.078 8
 -12509758.08846        51.300          41.500
  24992262.961    24992253.777                    24992251.313    -2051747.793 6
   -709023.27343        39.200          19.000
  21647317.609                                    21647304.848   -10139505.682 7
  -7667350.87746        47.300          37.900
 11  1  1  2  1 30.0000000  0  8G20G32G14G31G22G24G25G11
  23381605.438                                    23381594.727    -4266259.407 7
  -2989721.73944        43.400          24.000
  21494517.297                                    21494506.938   -13264948.243 8
 -10061158.20946        49.200          41.500
  21289727.313                                    21289716.484   -14661942.349 8
 -10322917.40646        49.400          40.500
  21836976.617    21836965.148                    21836965.027   -16101782.647 8
 -10823939.41546        49.600          39.600
  23187163.453                                    23187150.105    -3933252.192 7
  -2041423.72644        43.200          28.200
  21062545.500                                    21062535.727   -17203387.626 8
 -12526997.97946        49.900          41.900
  24979341.391    24979333.027                    24979333.023    -2119636.470 6
   -761923.50643        37.000          18.300
  21647864.648                                    21647853.352   -10136624.911 7
  -7665106.14346        46.400          37.400
 11  1  1  2  2  0.0000000  0  9G20G32G14G31G22G12G24G25G11
  23363294.820                                    23363283.113    -4362479.881 6
  -3064698.69444        41.700          24.000
  21484121.492                                    21484110.898   -13319579.853 8
 -10103728.28446        50.700          40.800
  21301367.102                                    21301357.211   -14600774.128 8
 -10275253.84246        48.800          40.600
  21822099.813    21822088.402                    21822088.105   -16179958.980 8
 -10884856.02346        49.300          40.100
  23203787.563                                    23203774.391    -3845890.707 7
  -1973349.85944        42.600          27.800
  24919777.023                                                     -771297.54615
                        31.200
  21058441.133                                    21058431.594   -17224957.122 8
 -12543805.37646        50.500          41.300
  24966483.172    24966475.453                    24966474.922    -2187208.121 6
   -814576.71342        38.900          17.800
  21648524.594                                    21648514.234   -10133153.715 7
  -7662401.28946        46.800          37.000
 11  1  1  2  2 30.0000000  0  9G20G32G14G31G22G12G24G25G11
  23345005.891                                    23344995.180    -4458586.608 7
  -3139587.03744        42.500          24.400
  21473772.648                                    21473762.758   -13373960.492 8
 -10146102.79846        50.000          41.100
  21313065.789                                    21313055.313   -14539300.968 8
 -10227352.67746        49.000          40.500
  21807305.578    21807294.988                    21807294.340   -16257701.202 8
 -10945434.35446        49.800          40.000
  23220446.016                                    23220432.785    -3758352.605 7
  -1905138.38844        43.400          28.700
  24916804.141    24916790.973                                     -786923.02514
                        28.300
  21054441.563                                    21054432.023   -17245974.050 8
 -12560182.21446        50.800          41.600
  24953684.266    24953677.836                    24953676.426    -2254463.447 6
   -866983.42942        39.300          17.400
  21649297.359                                    21649286.707   -10129096.065 7
  -7659239.47546        47.600          37.400
 11  1  1  2  3  0.0000000  0  9G20G32G14G31G22G12G24G25G11
  23326739.352                                    23326728.816    -4554579.590 7
  -3214386.77544        43.500          25.700
  21463471.711                                    21463462.289   -13428090.622 8
 -10188282.12546        50.000          41.700
  21324820.680                                    21324810.848   -14477526.256 8
 -10179216.53346        49.400          40.500
  21792595.383    21792584.441                    21792583.852   -16335008.047 8
 -11005673.43946        50.400          40.000
  23237136.859                                    23237123.688    -3670640.126 7
  -1836790.98744        43.600          27.800
  24913931.766    24913922.172                                     -802009.79215
                        30.100
  21050547.352                                    21050537.285   -17266439.031 8
 -12576128.96046        51.000          41.500
  24940947.688    24940940.613                    24940938.969    -2321400.864 6
   -919142.39143        39.900          19.000
  21650181.328                                    21650169.152   -10124453.605 7
  -7655621.99446        47.600          37.800
 11  1  1  2  3 30.0000000  0  9G20G32G14G31G22G12G24G25G11
  23308495.586                                    23308483.410    -4650454.427 7
  -3289094.38044        43.700          24.500
  21453220.383                                    21453210.434   -13481966.235 8
 -10230263.10847        51.700          42.100
  21336633.609                                    21336623.016   -14415448.323 8
 -10130844.09946        48.600          41.200
  21777968.039    21777957.273                    21777956.449   -16411874.238 8
 -11065569.15446        49.100          40.100
  23253859.891                                    23253848.594    -3582750.653 6
  -1768305.67344        41.400          28.400
  24911164.672    24911152.676                                     -816553.11615
                        31.500
  21046758.984                                    21046749.035   -17286347.761 8
 -12591642.24846        50.900          41.400
  24928271.359    24928261.004                    24928261.762    -2388014.577 6
   -971049.19043        40.900          18.600
  21651176.797                                    21651163.977   -10119223.768 8
  -7651546.81046        49.800          37.200
 11  1  1  2  4  0.0000000  0  9G20G32G14G31G22G12G24G25G11
  23290273.453                                    23290262.039    -4746210.855 7
  -3363709.77644        42.600          26.000
  21443016.281                                    21443005.746   -13535587.701 8
 -10272046.06146        51.400          41.700
  21348504.250                                    21348492.543   -14353070.334 8
 -10082237.88246        48.000          40.100
  21763424.727    21763413.316                    21763413.313   -16488298.751 8
 -11125120.69546        49.400          39.500
  23270618.414                                    23270606.766    -3494686.486 6
  -1699684.25444        41.600          27.700
  24908498.000    24908491.980                                     -830553.92914
                        29.400
  21043076.117                                    21043066.578   -17305700.578 8
 -12606722.36646        51.100          41.700
  24915654.781    24915646.242                    24915646.590    -2454303.030 6
  -1022702.56043        40.000          18.300
  21652282.977                                    21652271.621   -10113407.859 8
  -7647014.93646        49.200          37.300
 11  1  1  2  4 30.0000000  0  9G20G32G14G31G22G12G24G25G11
  23272073.797                                    23272063.320    -4841847.256 7
  -3438231.60644        42.700          25.500
  21432861.313                                    21432850.191   -13588953.654 8
 -10313629.91446        51.700          41.800
  21360431.359                                    21360419.770   -14290393.641 7
 -10033398.90046        47.600          40.500
  21748966.516    21748955.047                    21748954.809   -16564278.658 8
 -11184325.79046        49.300          39.800
  23287410.188                                    23287397.719    -3406448.245 6
  -1630927.17744        41.600          26.700
  24905942.313    24905926.039                                     -844010.86414
                        28.300
  21039499.359                                    21039489.410   -17324496.317 8
 -12621368.38346        50.700          41.200
  24903104.781    24903096.770                    24903095.066    -2520262.978 6
  -1074099.88043        40.400          20.900
  21653501.258                                    21653490.020   -10107005.687 8
  -7642026.21546        48.800          38.200
