     2.11           OBSERVATION DATA    G (GPS)             RINEX VERSION / TYPE
teqc  2009Mar23     WCDA Operator       20100102 00:08:53UTCPGM / RUN BY / DATE
Solaris x86 5.10|AMD64|cc SC5.8 -xarch=amd64|=+|=+          COMMENT
teqc  2009Mar23     WCDA Operator       20100102 00:08:49UTCCOMMENT
teqc  2009Mar23     WCDA Operator       20100102 00:08:42UTCCOMMENT
teqc  2009Mar23     WCDA Operator       20100101 01:07:04UTCCOMMENT
teqc  2009Mar23     WCDA Operator       20100101 01:07:04UTCCOMMENT
teqc  2009Mar23     WCDA Operator       20100101 01:07:04UTCCOMMENT
CONTACT gps@pgc.nrcan.gc.ca FOR ADDITIONAL INFORMATION      COMMENT
    P1 =    P1  TurboRogue; =    Y1  Benchmark              COMMENT
    L1 = L1(CA)                                             COMMENT
    P2 =    P2  TurboRogue; =    Y2  Benchmark              COMMENT
    L2 = L2(P2) TurboRogue; = L2(Y2) Benchmark              COMMENT
 SNR is mapped to RINEX snr flag value [0-9]                COMMENT
  L1 & L2: min(max(int(snr_dBHz/6), 0), 9)                  COMMENT
teqc windowed: start @ 2010 Jan  1 00:00:00.000             COMMENT
teqc windowed:  end  @ 2010 Jan  1 00:59:59.000             COMMENT
teqc windowed: start @ 2010 Jan  1 00:00:00.000             COMMENT
teqc windowed:  end  @ 2010 Jan  1 00:59:59.000             COMMENT
teqc windowed: start @ 2010 Jan  1 00:00:00.000             COMMENT
teqc windowed:  end  @ 2010 Jan  1 00:59:59.000             COMMENT
teqc windowed: start @ 2010 Jan  1 00:00:00.000             COMMENT
teqc windowed:  end  @ 2010 Jan  1 23:59:59.000             COMMENT
albh  WCDA-ACP   927000   Victoria BC Canada                MARKER NAME
40129M003                                                   MARKER NUMBER
PGC-WCDA            GEOL. SURV. CANADA                      OBSERVER / AGENCY
1113                AOA BENCHMARK ACT   3.3.32.2N lk 99/07/2REC # / TYPE / VERS
99442               AOAD/M_T        SCIS                    ANT # / TYPE
 -2341332.8840 -3539049.5090  4745791.3600                  APPROX POSITION XYZ
        0.1000        0.0000        0.0000                  ANTENNA: DELTA H/E/N
     1     1                                                WAVELENGTH FACT L1/2
     7    C1    P1    P2    L1    L2    S1    S2            # / TYPES OF OBSERV
teqc windowed: start @ 2010 Jan  1 00:00:00.000             COMMENT
teqc windowed:  end  @ 2010 Jan  1 23:59:59.000             COMMENT
  2010     1     1     0     0    0.0000000     GPS         TIME OF FIRST OBS
                                                            END OF HEADER
 10  1  1  0  0  0.0000000  0 10G14G21G 6G27G18G22G 3G26G 9G19
  22293533.826    22293533.564    22293531.427   117153336.645 6  91288325.558 4
        37.000          28.100
  22125900.220    22125899.684    22125896.406   116272437.382 6  90601911.755 4
        37.000          27.100
  21509652.809    21509652.567    21509650.925   113034022.200 7  88078471.400 6
        42.000          37.000
  24132097.173    24132096.748    24132096.155   126815026.663 3  98816910.866 2
        22.100          17.000
  21212925.234    21212924.778    21212921.721   111474717.897 7  86863427.205 6
        44.000          39.000
  20301960.177    20301959.917    20301955.600   106687587.688 8  83133202.447 8
        48.000          50.000
  21471283.788    21471283.316    21471281.876   112832371.478 7  87921329.738 5
        42.000          35.100
  20634541.815    20634541.693    20634539.567   108435281.370 7  84495033.997 6
        45.000          41.000
  23443359.295    23443359.292    23443357.414   123195707.698 4  95996662.575 2
        24.900          17.800
  22076756.898    22076755.535    22076752.382   116014216.196 7  90400704.992 5
        42.000          35.100
 10  1  1  0  0 30.0000000  0 10G14G21G 6G27G18G22G 3G26G 9G19
  22275719.179    22275718.744    22275716.776   117059719.745 6  91215377.358 4
        36.000          29.000
  22140810.943    22140810.454    22140807.470   116350793.993 6  90662968.859 4
        37.000          25.900
  21516680.073    21516679.731    21516677.988   113070950.375 7  88107246.591 6
        42.000          37.000
  24128793.075    24128792.665    24128791.823   126797662.790 3  98803380.613 2
        23.000          17.800
  21222619.644    21222619.059    21222616.116   111525661.638 7  86903123.637 6
        44.000          39.000
  20300612.317    20300612.129    20300607.818   106680504.838 8  83127683.354 8
        48.000          49.000
  21477581.392    21477580.940    21477579.707   112865465.946 7  87947117.636 6
        42.000          36.000
  20621844.618    20621844.585    20621842.518   108368558.287 7  84443042.008 6
        45.000          41.000
  23432224.780    23432224.437    23432222.836   123137195.660 3  95951068.826 3
        23.000          19.900
  22068931.635    22068930.533    22068927.109   115973094.329 7  90368661.984 5
        42.000          35.100
 10  1  1  0  1  0.0000000  0 10G14G21G 6G27G18G22G 3G26G 9G19
  22257967.849    22257967.618    22257965.561   116966437.035 6  91142689.567 4
        37.000          29.000
  22155781.182    22155780.599    22155777.448   116429462.833 6  90724269.251 4
        37.000          27.100
  21523808.357    21523808.051    21523806.635   113108411.096 7  88136436.762 6
        42.000          36.000
  24125581.073    24125580.438    24125579.325   126780784.032 3  98790228.362 2
        21.100          15.100
  21232366.973    21232366.353    21232363.466   111576884.503 7  86943037.559 6
        44.000          39.000
  20299337.262    20299336.982    20299332.600   106673803.710 8  83122461.707 8
        48.000          50.000
  21483989.781    21483989.293    21483988.209   112899142.731 7  87973359.293 6
        42.000          36.000
  20609266.304    20609266.195    20609264.086   108302458.334 7  84391535.577 6
        45.000          41.000
  23421192.012    23421191.647    23421190.463   123079219.778 3  95905892.845 2
        23.000          17.000
  22061209.479    22061208.254    22061205.317   115932514.775 7  90337041.569 6
        42.000          36.000
 10  1  1  0  1 30.0000000  0 10G14G21G 6G27G18G22G 3G26G 9G19
  22240280.281    22240279.627    22240277.549   116873485.742 6  91070260.022 4
        37.000          29.000
  22170809.855    22170809.075    22170806.072   116508438.067 6  90785808.392 4
        37.000          25.900
  21531036.917    21531036.701    21531035.409   113146398.020 7  88166036.957 6
        42.000          37.000
  24122460.175    24122460.135    24122458.981   126764386.237 3  98777450.872 2
        22.100          16.100
  21242166.221    21242165.706    21242162.755   111628380.525 7  86983164.337 6
        43.000          39.000
  20298133.692    20298133.372    20298128.969   106667478.913 8  83117533.306 8
        48.000          49.000
  21490508.152    21490507.651    21490506.230   112933396.101 7  88000050.227 6
        42.000          36.000
  20596806.174    20596805.985    20596803.970   108236979.083 7  84340512.805 6
        45.000          41.000
  23410261.136    23410260.961    23410259.474   123021778.090 3  95861133.119 3
        21.100          19.300
  22053589.839    22053588.608    22053585.597   115892474.027 7  90305840.994 5
        42.000          35.100
 10  1  1  0  2  0.0000000  0 10G14G21G 6G27G18G22G 3G26G 9G19
  22222656.013    22222655.659    22222653.508   116780870.622 6  90998092.430 4
        37.000          29.000
  22185896.741    22185896.120    22185892.988   116587720.876 6  90847587.196 4
        37.000          24.900
  21538366.356    21538365.992    21538364.617   113184912.036 7  88196047.875 6
        42.000          37.000
  24119432.679    24119432.288    24119430.365   126748472.710 3  98765050.749 2
        23.000          16.100
  21252017.989    21252017.375    21252014.302   111680150.837 7  87023504.847 6
        43.000          39.000
  20297002.027    20297001.756    20296997.276   106661532.041 8  83112899.389 8
        48.000          49.000
  21497136.137    21497135.699    21497134.315   112968226.328 7  88027190.667 6
        42.000          36.000
  20584464.649    20584464.523    20584462.677   108172124.668 7  84289976.923 6
        45.000          41.000
  23399433.449    23399432.923    23399431.363   122964875.565 3  95816793.517 3
        23.800          19.300
  22046073.844    22046072.581    22046069.337   115852975.855 7  90275063.208 6
        42.000          36.000
 10  1  1  0  2 30.0000000  0 10G14G21G 6G27G18G22G 3G26G 9G19
  22205097.111    22205096.784    22205094.580   116688598.421 6  90926192.042 4
        37.000          29.000
  22201043.032    22201042.471    22201038.941   116667314.966 6  90909608.573 4
        36.000          24.900
  21545796.407    21545795.941    21545794.356   113223956.444 7  88226472.081 6
        42.000          37.000
  24116497.684    24116497.249    24116495.702   126733049.025 3  98753032.305 2
        23.000          17.000
  21261922.311    21261921.786    21261918.791   111732199.054 7  87064061.905 6
        44.000          39.000
  20295943.175    20295942.896    20295938.385   106655967.787 8  83108563.617 8
        48.000          49.000
  21503874.501    21503873.935    21503872.758   113003636.806 7  88054783.250 6
        42.000          36.000
  20572243.572    20572243.355    20572241.462   108107902.260 7  84239933.505 6
        45.000          41.000
  23388709.751    23388708.701    23388707.148   122908519.843 3  95772879.994 2
        23.800          17.800
  22038661.593    22038660.396    22038657.304   115814026.020 7  90244712.686 6
        42.000          36.000
 10  1  1  0  3  0.0000000  0 10G14G21G 6G27G18G22G 3G26G 9G19
  22187601.845    22187601.276    22187598.962   116596658.861 6  90854550.855 4
        37.000          29.000
  22216245.594    22216245.236    22216241.995   116747206.967 6  90971862.088 4
        36.000          24.900
  21553324.254    21553323.829    21553322.490   113263517.190 7  88257298.635 6
        42.000          37.000
  24113653.289    24113652.684    24113651.614   126718103.397 3  98741386.386 2
        22.100          17.800
  21271877.035    21271876.484    21271873.472   111784511.463 7  87104824.829 6
        44.000          39.000
  20294954.620    20294954.359    20294949.807   106650772.939 8  83104515.692 8
        48.000          49.000
  21510720.616    21510720.052    21510718.863   113039613.290 7  88082816.873 6
        42.000          36.000
  20560140.557    20560140.382    20560138.519   108044301.355 7  84190374.379 6
        45.000          41.000
  23378087.497    23378087.045    23378085.230   122852700.712 4  95729384.577 3
        24.900          21.100
  22031351.965    22031350.726    22031347.609   115775613.564 7  90214780.908 5
        42.000          35.100
 10  1  1  0  3 30.0000000  0 10G14G21G 6G27G18G22G 3G26G 9G19
  22170170.149    22170169.711    22170167.769   116505056.608 6  90783172.505 5
        37.000          31.000
  22231505.762    22231505.276    22231502.295   116827398.393 6  91034348.904 4
        36.000          27.100
  21560950.819    21560950.552    21560948.963   113303595.359 7  88288528.376 6
        42.000          36.000
  24110901.240    24110900.432    24110899.036   126703639.041 3  98730115.472 2
        23.000          17.800
  21281882.291    21281881.701    21281878.638   111837089.129 7  87145794.445 6
        43.000          39.000
  20294036.687    20294036.422    20294031.896   106645949.049 8  83100756.826 8
        48.000          49.000
  21517674.786    21517674.234    21517672.753   113076157.022 7  88111292.508 5
        42.000          35.100
  20548156.908    20548156.836    20548154.705   107981326.620 7  84141303.173 6
        45.000          41.000
  23367568.250    23367568.073    23367566.236   122797423.558 4  95686311.494 2
        27.100          17.800
  22024145.509    22024144.279    22024140.832   115737742.308 7  90185270.846 5
        43.000          35.100
 10  1  1  0  4  0.0000000  0 10G14G21G 6G27G18G22G 3G26G 9G19
  22152804.870    22152804.712    22152802.515   116413802.801 6  90712065.662 5
        37.000          30.100
  22246824.033    22246823.558    22246820.363   116907896.764 6  91097074.904 4
        36.000          24.900
  21568677.173    21568676.905    21568675.516   113344198.103 7  88320166.866 6
        42.000          37.000
  24108241.750    24108241.373    24108240.390   126689665.662 3  98719227.156 2
        21.100          17.000
  21291939.441    21291938.913    21291935.712   111889939.876 7  87186976.858 6
        44.000          39.000
  20293190.828    20293190.615    20293186.224   106641504.608 8  83097293.636 8
        48.000          50.000
  21524737.586    21524737.114    21524736.063   113113274.598 7  88140215.301 5
        42.000          35.100
  20536294.413    20536294.276    20536292.218   107918988.686 7  84092728.175 7
        45.000          42.000
  23357154.698    23357154.609    23357152.683   122742699.677 4  95643669.541 3
        25.900          21.100
  22017043.714    22017042.471    22017039.308   115700422.255 7  90156190.283 5
        42.000          35.100
 10  1  1  0  4 30.0000000  0 10G14G21G 6G27G18G22G 3G26G 9G19
  22135505.880    22135505.529    22135503.388   116322894.586 6  90641228.109 5
        38.000          30.100
  22262199.832    22262199.339    22262196.030   116988695.972 6  91160035.331 4
        36.000          25.900
  21576502.482    21576502.055    21576500.563   113385318.698 7  88352208.886 6
        42.000          37.000
  24105675.133    24105675.194    24105673.335   126676178.746 3  98708717.900 2
        23.000          16.100
  21302047.322    21302046.835    21302043.735   111943057.327 7  87228367.086 6
        44.000          38.000
  20292416.386    20292416.054    20292411.613   106637433.944 8  83094121.701 8
        48.000          49.000
  21531908.903    21531908.487    21531907.159   113150959.296 7  88169579.992 6
        42.000          36.000
  20524552.404    20524552.348    20524550.382   107857284.700 7  84044647.167 7
        45.000          42.000
  23346845.860    23346845.462    23346844.107   122688526.875 4  95601457.025 3
        24.900          22.100
  22010046.164    22010044.906    22010041.572   115663649.474 7  90127536.172 5
        42.000          35.100
 10  1  1  0  5  0.0000000  0 10G14G21G 6G27G18G22G 3G26G 9G19
  22118271.338    22118270.941    22118268.520   116232325.593 6  90570654.890 5
        38.000          30.100
  22277630.725    22277630.125    22277627.584   117069786.423 5  91223222.696 4
        35.100          27.100
  21584424.139    21584423.763    21584422.256   113426947.220 7  88384646.683 6
        42.000          37.000
  24103199.684    24103199.524    24103197.827   126663170.830 3  98698581.854 2
        23.800          16.100
  21312204.167    21312203.594    21312200.608   111996431.756 7  87269957.552 6
        43.000          39.000
  20291711.147    20291710.898    20291706.409   106633728.297 8  83091234.194 8
        48.000          50.000
  21539186.575    21539186.011    21539184.308   113189201.381 7  88199379.012 5
        42.000          35.100
  20512930.067    20512929.891    20512927.960   107796208.295 7  83997055.175 7
        46.000          42.000
  23336640.664    23336640.573    23336638.887   122634899.255 4  95559669.290 3
        24.900          19.300
  22003151.386    22003150.116    22003146.805   115627417.111 7  90099303.165 6
        42.000          36.000
 10  1  1  0  5 30.0000000  0 10G14G21G 6G27G18G22G 3G26G 9G19
  22101104.966    22101104.496    22101101.963   116142114.851 6  90500360.832 5
        38.000          30.100
  22293120.224    22293119.713    22293116.770   117151184.012 6  91286649.375 4
        36.000          24.900
  21592445.154    21592444.879    21592443.396   113469099.065 6  88417492.272 6
        41.000          37.000
  24100819.103    24100818.533    24100817.186   126650659.538 3  98688832.820 2
        22.100          15.100
  21322412.823    21322412.264    21322409.397   112050078.973 7  87311760.582 6
        43.000          39.000
  20291078.435    20291078.193    20291073.678   106630403.770 8  83088643.665 8
        48.000          49.000
  21546572.270    21546571.885    21546570.567   113228015.693 7  88229623.931 5
        42.000          35.100
  20501430.559    20501430.395    20501428.519   107735778.239 7  83949966.838 7
        46.000          42.000
  23326543.297    23326542.989    23326541.373   122581836.203 4  95518321.474 3
        24.900          21.100
  21996363.035    21996361.549    21996358.296   115591742.724 7  90071504.946 6
        43.000          36.000
 10  1  1  0  6  0.0000000  0 10G14G21G 6G27G18G22G 3G26G 9G19
  22084005.308    22084004.764    22084002.336   116052255.275 6  90430340.403 5
        38.000          30.100
  22308666.012    22308665.591    22308662.260   117232878.360 6  91350307.320 3
        36.000          23.000
  21600563.553    21600563.340    21600562.171   113511763.322 6  88450737.143 6
        41.000          37.000
  24098531.647    24098531.371    24098529.511   126638636.446 3  98679464.198 2
        23.000          15.100
  21332671.691    21332671.099    21332668.000   112103988.721 7  87353768.181 6
        44.000          38.000
  20290516.427    20290516.149    20290511.673   106627450.815 8  83086342.676 8
        48.000          49.000
  21554065.082    21554064.680    21554063.408   113267391.449 6  88260306.328 5
        41.000          35.100
  20490052.705    20490052.595    20490050.575   107675987.388 7  83903376.573 7
        46.000          42.000
  23316552.110    23316551.773    23316549.314   122529330.943 4  95477408.301 3
        25.900          19.300
  21989678.817    21989677.507    21989674.269   115556618.602 7  90044135.509 5
        43.000          35.100
 10  1  1  0  6 30.0000000  0 10G14G21G 6G27G18G22G 3G26G 9G19
  22066973.176    22066972.504    22066970.059   115962750.238 6  90360596.246 5
        38.000          31.000
  22324268.360    22324267.858    22324264.516   117314869.093 6  91414196.200 3
        36.000          23.800
  21608780.157    21608779.718    21608778.277   113554938.957 6  88484380.498 6
        41.000          37.000
  24096336.828    24096336.570    24096333.994   126627102.968 3  98670477.084 1
        23.000          11.000
  21342979.952    21342979.510    21342976.519   112158160.617 7  87395980.056 6
        43.000          39.000
  20290025.237    20290024.946    20290020.479   106624869.434 8  83084331.220 8
        48.000          49.000
  21561664.829    21561664.421    21561662.990   113307327.434 6  88291425.273 5
        41.000          35.100
  20478796.993    20478796.913    20478794.868   107616838.302 7  83857286.390 7
        46.000          42.000
  23306667.584    23306667.288    23306664.352   122477386.885 4  95436932.420 2
        27.100          15.100
  21983100.081    21983098.862    21983095.504   115522046.707 7  90017196.374 5
        43.000          35.100
 10  1  1  0  7  0.0000000  0 10G14G21G 6G27G18G22G 3G26G 9G19
  22050009.819    22050009.250    22050006.976   115873607.250 6  90291134.207 5
        38.000          31.000
  22339928.092    22339927.528    22339924.173   117397161.197 5  91478319.930 3
        35.100          23.800
  21617094.381    21617094.014    21617092.623   113598630.443 6  88518425.805 6
        41.000          37.000
  24094235.986    24094235.452    24094233.684   126616065.587 3  98661876.541 2
        23.000          13.900
  21353339.360    21353338.835    21353335.894   112212599.041 7  87438399.613 6
        43.000          38.000
  20289605.838    20289605.560    20289600.975   106622665.197 8  83082613.647 8
        48.000          49.000
  21569371.973    21569371.456    21569370.246   113347827.687 6  88322983.900 5
        41.000          35.100
  20467665.051    20467664.853    20467662.809   107558338.782 7  83811702.364 7
        46.000          42.000
  23296891.153    23296890.716    23296888.657   122426012.320 4  95396900.310 2
        25.900          17.800
  21976627.637    21976626.503    21976623.127   115488034.194 7  89990693.124 5
        43.000          35.100
 10  1  1  0  7 30.0000000  0 10G14G21G 6G27G18G22G 3G26G 9G19
  22033114.070    22033113.542    22033111.398   115784820.426 6  90221949.692 5
        38.000          31.000
  22355643.276    22355642.689    22355639.459   117479744.840 5  91542670.822 3
        34.000          23.000
  21625504.658    21625504.229    21625502.880   113642827.630 6  88552865.171 6
        41.000          36.000
  24092228.700    24092228.481    24092226.776   126605516.503 3  98653656.470 2
        23.000          16.100
  21363747.638    21363747.122    21363744.117   112267294.407 7  87481019.381 6
        43.000          38.000
  20289256.234    20289255.988    20289251.456   106620828.705 8  83081182.627 8
        48.000          49.000
  21577184.453    21577183.955    21577182.820   113388882.152 6  88354974.388 6
        41.000          36.000
  20456655.221    20456655.094    20456653.002   107500482.454 7  83766619.527 7
        46.000          42.000
  23287221.766    23287221.546    23287220.244   122375201.526 4  95357307.509 3
        25.900          21.100
  21970260.408    21970259.108    21970255.984   115454573.745 7  89964620.056 6
        43.000          36.000
 10  1  1  0  8  0.0000000  0 10G14G21G 6G27G18G22G 3G26G 9G19
  22016286.986    22016286.685    22016284.741   115696394.971 6  90153046.763 5
        39.000          32.000
  22371414.212    22371413.603    22371410.508   117562622.222 5  91607250.598 4
        34.000          24.900
  21634011.526    21634011.241    21634009.833   113687531.904 6  88587699.670 6
        41.000          36.000
  24090315.055    24090314.513    24090313.428   126595459.544 3  98645819.905 2
        23.000          17.000
  21374205.107    21374204.604    21374201.528   112322248.676 7  87523840.893 6
        43.000          38.000
  20288977.282    20288977.019    20288972.582   106619363.009 8  83080040.542 8
        48.000          49.000
  21585102.249    21585101.777    21585100.515   113430492.383 6  88387397.937 5
        41.000          35.100
  20445768.965    20445768.791    20445766.683   107443274.307 7  83722041.764 7
        46.000          42.000
  23277661.391    23277661.022    23277659.769   122324960.178 4  95318158.450 2
        25.900          17.800
  21963998.700    21963997.691    21963994.267   115421669.560 7  89938980.440 6
        43.000          36.000
 10  1  1  0  8 30.0000000  0 10G14G21G 6G27G18G22G 3G26G 9G19
  21999529.198    21999528.960    21999526.856   115608333.114 6  90084427.150 5
        39.000          32.000
  22387240.770    22387240.367    22387237.339   117645792.674 5  91672058.746 3
        34.000          23.800
  21642614.578    21642614.317    21642613.129   113732741.907 6  88622928.240 6
        41.000          36.000
  24088494.741    24088494.463    24088493.458   126585895.676 3  98638367.558 2
        23.800          17.800
  21384711.528    21384711.013    21384707.817   112377461.108 7  87566863.569 6
        43.000          37.000
  20288768.878    20288768.544    20288764.138   106618267.370 8  83079186.809 8
        48.000          49.000
  21593125.856    21593125.442    21593123.792   113472656.431 6  88420253.028 5
        41.000          35.100
  20435006.268    20435006.101    20435004.030   107386716.460 7  83677970.731 7
        46.000          42.000
  23268209.568    23268209.459    23268207.563   122275290.823 4  95279455.096 3
        27.100          21.100
  21957843.487    21957842.363    21957839.185   115389322.942 7  89913775.294 6
        43.000          36.000
 10  1  1  0  9  0.0000000  0 10G14G21G 6G27G18G22G 3G26G 9G19
  21982840.973    21982840.587    21982838.360   115520636.042 6  90016091.790 5
        39.000          31.000
  22403123.301    22403122.607    22403119.806   117729254.232 5  91737093.716 3
        34.000          23.800
  21651313.480    21651313.325    21651311.881   113778455.277 6  88658549.048 6
        41.000          36.000
  24086768.686    24086768.394    24086767.612   126576824.901 3  98631299.434 3
        23.800          19.300
  21395267.048    21395266.473    21395263.084   112432929.894 7  87610086.006 6
        43.000          37.000
  20288630.523    20288630.267    20288625.847   106617540.825 8  83078620.684 8
        48.000          49.000
  21601254.399    21601253.953    21601252.415   113515371.443 6  88453537.446 5
        41.000          35.100
  20424367.735    20424367.547    20424365.318   107330810.028 7  83634407.294 7
        46.000          42.000
  23258867.227    23258866.915    23258865.035   122226195.455 4  95241198.996 3
        27.100          22.100
  21951794.478    21951793.279    21951790.018   115357534.453 7  89889005.059 6
        43.000          37.000
 10  1  1  0  9 30.0000000  0 10G14G21G 6G27G18G22G 3G26G 9G19
  21966224.537    21966224.250    21966221.996   115433316.315 6  89948050.464 5
        39.000          32.000
  22419062.945    22419062.069    22419059.062   117813015.555 5  91802362.275 3
        34.000          23.800
  21660110.022    21660109.678    21660107.860   113824679.829 6  88694568.172 5
        41.000          35.100
  24085138.484    24085138.277    24085136.853   126568257.446 3  98624623.513 2
        23.000          17.000
  21405872.507    21405872.047    21405868.983   112488663.517 7  87653514.805 6
        43.000          37.000
  20288564.139    20288563.883    20288559.466   106617192.162 8  83078349.014 8
        48.000          49.000
  21609489.353    21609488.807    21609487.282   113558645.634 6  88487257.591 5
        41.000          34.000
  20413855.368    20413855.138    20413852.851   107275566.402 7  83591360.324 7
        46.000          42.000
  23249635.856    23249635.416    23249634.137   122177685.821 4  95203399.298 3
        25.900          21.100
  21945853.524    21945852.315    21945849.029   115326314.822 7  89864678.078 6
        43.000          36.000
 10  1  1  0 10  0.0000000  0 10G14G21G 6G27G18G22G 3G26G 9G19
  21949678.066    21949677.717    21949675.441   115346363.618 6  89880295.144 5
        39.000          32.000
  22435056.117    22435055.658    22435052.687   117897063.198 5  91867853.948 3
        34.000          23.000
  21669000.714    21669000.438    21668998.889   113871401.935 6  88730975.010 5
        40.000          35.100
  24083602.185    24083601.404    24083600.527   126560181.700 3  98618330.759 3
        23.000          19.300
  21416526.336    21416525.777    21416522.786   112544648.785 7  87697139.690 6
        43.000          37.000
  20288567.489    20288567.221    20288562.629   106617209.087 8  83078362.213 8
        48.000          49.000
  21617827.816    21617827.336    21617825.831   113602465.120 6  88521402.644 5
        41.000          35.100
  20403466.836    20403466.697    20403464.666   107220975.624 7  83548822.071 7
        46.000          42.000
  23240514.322    23240514.040    23240512.130   122129752.473 4  95166048.680 3
        25.900          19.900
  21940018.663    21940017.377    21940014.168   115295653.109 7  89840785.843 6
        43.000          36.000
 10  1  1  0 10 30.0000000  0 10G14G21G 6G27G18G22G 3G26G 9G19
  21933202.361    21933201.961    21933199.528   115259782.840 6  89812829.631 5
        39.000          32.000
  22451104.205    22451103.935    22451101.289   117981398.816 5  91933570.020 3
        34.000          23.000
  21677986.558    21677986.219    21677984.626   113918622.521 6  88767770.273 5
        40.000          35.100
  24082159.296    24082158.894    24082157.065   126552601.012 3  98612423.732 2
        23.800          15.100
  21427228.122    21427227.723    21427224.512   112600887.248 7  87740961.871 6
        43.000          37.000
  20288640.801    20288640.486    20288635.826   106617593.668 8  83078661.899 8
        48.000          49.000
  21626269.943    21626269.652    21626268.494   113646830.633 6  88555973.168 5
        41.000          35.100
  20393203.496    20393203.327    20393201.241   107167041.944 7  83506795.844 7
        46.000          42.000
  23231503.697    23231503.435    23231501.185   122082400.650 4  95129151.176 3
        24.900          19.300
  21934290.983    21934289.728    21934286.161   115265552.990 7  89817331.215 6
        43.000          36.000
 10  1  1  0 11  0.0000000  0 10G14G21G 6G27G18G22G 3G26G 9G19
  21916797.789    21916797.220    21916794.884   115173575.611 6  89745655.189 5
        39.000          32.000
  22467207.454    22467207.250    22467204.478   118066021.115 5  91999509.476 3
        34.000          23.000
  21687066.814    21687066.587    21687064.995   113966339.364 6  88804952.229 5
        41.000          35.100
  24080810.466    24080810.316    24080808.816   126545515.829 3  98606902.831 2
        22.100          15.100
  21437977.872    21437977.396    21437974.138   112657377.126 7  87784979.960 6
        43.000          37.000
  20288783.685    20288783.389    20288778.861   106618345.021 8  83079247.382 8
        48.000          49.000
  21634816.192    21634815.737    21634814.341   113691740.008 6  88590967.483 5
        41.000          34.000
  20383065.458    20383065.379    20383063.259   107113766.691 7  83465282.676 7
        46.000          42.000
  23222603.811    23222603.324    23222601.373   122035632.282 4  95092708.320 3
        25.900          19.300
  21928669.856    21928668.777    21928665.628   115236015.404 7  89794314.928 6
        43.000          36.000
 10  1  1  0 11 30.0000000  0 10G14G21G 6G27G18G22G 3G26G 9G19
  21900464.759    21900464.256    21900461.981   115087745.186 6  89678774.359 5
        40.000          32.000
  22483365.418    22483364.819    22483361.731   118150929.781 5  92065672.066 3
        34.000          23.000
  21696241.167    21696240.922    21696239.659   114014551.697 6  88842520.276 6
        40.000          36.000
  24079556.793    24079556.728    24079555.330   126538927.409 3  98601769.023 2
        22.100          16.100
  21448775.391    21448774.871    21448771.824   112714118.182 7  87829193.778 6
        43.000          37.000
  20288996.429    20288996.174    20288991.716   106619463.691 8  83080119.087 8
        48.000          49.000
  21643465.668    21643465.156    21643463.500   113737192.091 6  88626384.679 5
        41.000          34.000
  20373053.424    20373053.305    20373051.170   107061152.510 7  83424284.629 7
        46.000          43.000
  23213815.606    23213815.159    23213813.700   121989450.538 4  95056722.560 3
        24.900          19.900
  21923156.514    21923155.278    21923152.240   115207042.183 7  89771738.407 6
        43.000          36.000
 10  1  1  0 12  0.0000000  0 10G14G21G 6G27G18G22G 3G26G 9G19
  21884204.190    21884203.650    21884201.295   115002295.430 6  89612190.156 5
        40.000          32.000
  22499577.417    22499577.112    22499573.760   118236125.762 5  92132058.545 3
        33.000          22.100
  21705509.731    21705509.638    21705508.626   114063259.791 6  88880474.624 6
        40.000          36.000
  24078397.948    24078397.502    24078396.203   126532838.255 3  98597024.253 2
        23.000          12.600
  21459620.633    21459620.146    21459617.328   112771111.580 7  87873604.215 6
        42.000          37.000
  20289279.458    20289279.198    20289274.699   106620950.886 8  83081277.953 8
        48.000          49.000
  21652218.182    21652217.609    21652216.193   113783187.371 6  88662225.156 5
        41.000          34.000
  20363167.871    20363167.661    20363165.666   107009203.326 7  83383804.762 7
        46.000          43.000
  23205140.135    23205140.096    23205138.356   121943860.122 4  95021197.591 3
        25.900          21.100
  21917750.616    21917749.600    21917746.540   115178635.896 7  89749603.649 6
        43.000          36.000
 10  1  1  0 12 30.0000000  0 10G14G21G 6G27G18G22G 3G26G 9G19
  21868016.864    21868016.542    21868014.598   114917232.376 6  89545907.286 5
        39.000          32.000
  22515845.446    22515844.669    22515841.369   118321611.693 5  92198670.946 3
        34.000          23.800
  21714873.844    21714873.425    21714871.968   114112465.623 6  88918816.827 5
        40.000          35.100
  24077335.193    24077334.833    24077333.071   126527252.805 3  98592671.979 2
        22.100          13.900
  21470514.831    21470514.338    21470511.525   112828360.351 7  87918213.650 6
        43.000          37.000
  20289633.260    20289633.003    20289628.461   106622810.052 8  83082726.666 8
        48.000          49.000
  21661074.452    21661073.850    21661072.655   113829727.376 6  88698490.089 5
        41.000          35.100
  20353409.702    20353409.566    20353407.649   106957924.591 7  83343847.326 7
        46.000          43.000
  23196578.749    23196578.292    23196576.142   121898867.325 4  94986138.267 3
        25.900          19.900
  21912453.917    21912452.929    21912449.768   115150802.008 7  89727914.917 6
        43.000          36.000
 10  1  1  0 13  0.0000000  0 10G14G21G 6G27G18G22G 3G26G 9G19
  21851903.060    21851902.764    21851900.606   114832553.196 6  89479923.539 5
        40.000          33.000
  22532166.672    22532166.165    22532162.947   118407381.442 5  92265504.514 3
        34.000          23.000
  21724330.733    21724330.427    21724329.028   114162162.421 6  88957541.594 5
        40.000          35.100
  24076367.680    24076367.462    24076364.917   126522166.358 3  98588708.529 2
        23.800          15.100
  21481456.527    21481455.943    21481452.810   112885858.076 7  87963017.080 6
        43.000          37.000
  20290056.630    20290056.342    20290051.790   106625034.895 8  83084460.327 8
        48.000          49.000
  21670032.586    21670032.220    21670030.894   113876804.944 6  88735173.906 5
        40.000          34.000
  20343778.834    20343778.539    20343776.480   106907312.780 7  83304409.567 7
        46.000          43.000
  23188129.429    23188129.343    23188127.773   121854469.082 4  94951542.270 3
        27.100          22.100
  21907265.365    21907264.204    21907261.206   115123536.140 7  89706668.802 6
        42.000          36.000
 10  1  1  0 13 30.0000000  0 10G14G21G 6G27G18G22G 3G26G 9G19
  21835863.341    21835862.863    21835860.527   114748262.986 6  89414242.881 5
        40.000          32.000
  22548542.627    22548541.860    22548538.431   118493436.798 5  92332560.624 3
        33.000          22.100
  21733881.189    21733880.940    21733879.611   114212351.347 6  88996649.834 5
        40.000          35.100
  24075495.438    24075495.176    24075492.376   126517582.599 4  98585136.772 2
        24.900          16.100
  21492445.586    21492445.019    21492441.948   112943606.785 7  88008016.076 6
        42.000          37.000
  20290550.169    20290549.844    20290545.293   106627628.567 8  83086481.383 8
        48.000          49.000
  21679093.992    21679093.496    21679091.850   113924420.975 6  88772277.303 5
        40.000          34.000
  20334275.322    20334275.194    20334273.147   106857372.649 7  83265495.200 7
        46.000          43.000
  23179795.061    23179794.591    23179793.055   121810670.635 4  94917413.653 3
        24.900          22.100
  21902186.471    21902185.110    21902181.756   115096842.344 7  89685868.446 6
        43.000          36.000
 10  1  1  0 14  0.0000000  0 10G14G21G 6G27G18G22G 3G26G 9G19
  21819895.065    21819894.647    21819892.222   114664350.052 6  89348856.204 5
        40.000          32.000
  22564970.217    22564969.431    22564966.052   118579762.903 5  92399827.721 3
        34.000          23.000
  21743522.710    21743522.394    21743520.894   114263016.743 6  89036129.351 5
        40.000          35.100
  24074715.916    24074715.601    24074713.577   126513488.325 3  98581946.458 2
        23.800          17.000
  21503479.600    21503479.007    21503475.960   113001591.234 7  88053198.763 6
        42.000          37.000
  20291111.242    20291110.906    20291106.262   106630576.685 8  83088778.629 8
        48.000          49.000
  21688254.636    21688254.104    21688252.720   113972560.163 6  88809788.352 5
        41.000          34.000
  20324897.588    20324897.395    20324895.288   106808092.009 7  83227094.722 7
        46.000          43.000
  23171572.810    23171572.417    23171570.631   121767460.885 4  94883743.746 3
        25.900          22.100
  21897213.083    21897211.814    21897208.552   115070708.055 7  89665504.076 6
        43.000          37.000
 10  1  1  0 14 30.0000000  0 10G14G21G 6G27G18G22G 3G26G 9G19
  21804001.554    21804001.182    21803998.954   114580829.644 6  89283775.390 5
        40.000          33.000
  22581451.167    22581450.497    22581446.949   118666371.861 5  92467315.210 3
        33.000          22.100
  21753256.783    21753256.460    21753254.726   114314169.952 6  89075988.995 5
        40.000          34.000
  24074032.848    24074032.563    24074030.536   126509897.183 3  98579148.179 2
        23.000          12.600
  21514560.812    21514560.322    21514557.395   113059823.959 7  88098574.915 6
        42.000          37.000
  20291741.874    20291741.587    20291737.086   106633891.759 8  83091361.816 8
        48.000          49.000
  21697516.622    21697516.236    21697515.028   114021233.867 6  88847715.905 5
        41.000          34.000
  20315648.192    20315648.027    20315645.871   106759485.867 7  83189219.824 7
        47.000          43.000
  23163464.469    23163464.073    23163462.964   121724854.924 4  94850544.321 3
        24.900          23.000
  21892348.860    21892347.676    21892344.437   115045147.181 7  89645586.526 6
        43.000          36.000
 10  1  1  0 15  0.0000000  0 10G14G21G 6G27G18G22G 3G26G 9G19
  21788183.967    21788183.590    21788181.125   114497706.576 6  89219004.192 5
        40.000          33.000
  22597985.925    22597985.599    22597982.495   118753265.256 5  92535024.343 3
        32.000          23.000
  21763084.194    21763083.682    21763082.203   114365812.133 6  89116229.643 5
        40.000          35.100
  24073445.416    24073445.168    24073443.471   126506812.299 3  98576744.380 2
        23.000          15.100
  21525689.754    21525689.154    21525686.173   113118306.402 7  88144145.656 6
        43.000          36.000
  20292442.975    20292442.659    20292438.234   106637576.036 8  83094232.694 8
        48.000          49.000
  21706880.675    21706880.408    21706879.038   114070442.509 6  88886060.303 5
        41.000          34.000
  20306527.930    20306527.781    20306525.657   106711558.557 7  83151873.886 7
        47.000          43.000
  23155473.068    23155472.543    23155471.447   121682858.125 4  94817819.568 3
        24.900          23.000
  21887594.359    21887593.289    21887590.019   115020163.422 7  89626118.669 6
        43.000          37.000
 10  1  1  0 15 30.0000000  0 10G14G21G 6G27G18G22G 3G26G 9G19
  21772441.471    21772441.135    21772438.656   114414979.146 6  89154541.289 5
        40.000          33.000
  22614574.167    22614573.959    22614570.981   118840438.061 5  92602951.193 3
        33.000          22.100
  21773003.263    21773002.882    21773001.175   114417937.273 6  89156846.615 5
        40.000          34.000
  24072954.740    24072954.547    24072952.091   126504229.829 4  98574732.102 2
        25.900          16.100
  21536865.079    21536864.545    21536861.559   113177033.694 7  88189907.182 6
        42.000          36.000
  20293213.566    20293213.254    20293208.735   106641624.945 8  83097387.698 8
        48.000          49.000
  21716345.710    21716345.240    21716344.152   114120179.878 6  88924816.694 5
        40.000          35.100
  20297536.380    20297536.135    20297534.057   106664307.546 7  83115054.930 7
        47.000          43.000
  23147596.472    23147596.345    23147594.761   121641468.467 4  94785567.914 3
        24.900          21.100
  21882949.637    21882948.477    21882945.104   114995754.072 7  89607098.403 6
        43.000          37.000
 10  1  1  0 16  0.0000000  0 10G14G21G 6G27G18G22G 3G26G 9G19
  21756774.023    21756773.612    21756771.283   114332647.086 6  89090386.462 5
        40.000          34.000
  22631215.169    22631214.921    22631211.475   118927886.993 5  92671093.212 3
        32.000          19.900
  21783013.386    21783013.076    21783011.584   114470541.329 6  89197836.774 5
        40.000          35.100
  24072558.235    24072557.964    24072555.862   126502148.245 4  98573110.098 2
        25.900          13.900
  21548086.637    21548086.051    21548082.935   113236002.405 7  88235856.834 6
        42.000          36.000
  20294053.028    20294052.654    20294048.129   106646036.193 8  83100825.046 8
        48.000          49.000
  21725910.443    21725909.912    21725908.332   114170441.559 6  88963981.637 5
        40.000          34.000
  20288673.176    20288673.104    20288670.925   106617732.095 7  83078762.392 7
        47.000          43.000
  23139836.113    23139835.895    23139833.776   121600685.865 4  94753789.280 3
        25.900          21.100
  21878413.765    21878412.455    21878409.037   114971917.222 7  89588524.247 6
        43.000          36.000
 10  1  1  0 16 30.0000000  0 10G14G21G 6G27G18G22G 3G26G 9G19
  21741182.417    21741181.923    21741179.506   114250711.954 6  89026540.930 5
        41.000          34.000
  22647908.262    22647908.096    22647904.559   119015609.975 5  92739448.786 3
        32.000          19.900
  21793114.291    21793113.922    21793112.615   114523621.823 6  89239198.187 5
        40.000          35.100
  24072257.155    24072257.020    24072254.943   126500567.487 4  98571878.355 2
        24.900          17.000
  21559353.705    21559353.099    21559350.143   113295211.163 7  88281993.533 6
        42.000          36.000
  20294961.038    20294960.768    20294956.293   106650808.874 8  83104544.027 8
        48.000          49.000
  21735574.029    21735573.587    21735572.171   114221225.557 6  89003553.575 5
        40.000          34.000
  20279939.097    20279938.921    20279936.634   106571833.241 7  83042997.065 7
        47.000          43.000
  23132191.492    23132191.397    23132188.341   121560511.975 4  94722484.973 3
        27.100          19.300
  21873986.735    21873985.628    21873982.203   114948653.674 7  89570396.814 6
        44.000          36.000
 10  1  1  0 17  0.0000000  0 10G14G21G 6G27G18G22G 3G26G 9G19
  21725665.353    21725665.046    21725662.675   114169170.168 6  88963001.904 5
        41.000          34.000
  22664652.872    22664652.391    22664649.145   119103600.813 5  92808013.063 3
        32.000          22.100
  21803304.398    21803304.066    21803302.873   114577171.350 6  89280925.071 5
        40.000          35.100
  24072050.459    24072050.468    24072049.063   126499482.148 4  98571032.677 2
        24.900          17.000
  21570665.328    21570664.569    21570661.343   113354653.229 7  88328312.030 6
        42.000          36.000
  20295936.633    20295936.426    20295931.905   106655935.885 8  83108539.106 8
        48.000          49.000
  21745335.818    21745335.340    21745333.782   114272524.079 6  89043526.441 5
        40.000          34.000
  20271332.611    20271332.529    20271330.382   106526606.795 7  83007755.694 7
        47.000          43.000
  23124662.181    23124661.360    23124659.070   121520943.559 4  94691652.465 3
        27.100          19.300
  21869667.845    21869666.960    21869663.555   114925958.590 7  89552712.345 6
        44.000          36.000
 10  1  1  0 17 30.0000000  0 10G14G21G 6G27G18G22G 3G26G 9G19
  21710227.948    21710227.539    21710225.219   114088045.685 6  88899788.048 5
        40.000          34.000
  22681451.291    22681451.224    22681448.295   119191879.835 5  92876801.888 3
        32.000          22.100
  21813587.293    21813587.121    21813585.971   114631209.659 6  89323032.834 5
        40.000          35.100
  24071942.709    24071942.099    24071941.046   126498914.313 3  98570590.230 2
        23.800          17.800
  21582024.802    21582024.285    21582021.090   113414349.272 7  88374828.431 5
        42.000          35.100
  20296983.914    20296983.683    20296979.090   106661438.677 7  83112827.004 8
        47.000          49.000
  21755199.099    21755198.602    21755197.391   114324356.662 6  89083915.462 5
        40.000          34.000
  20262858.806    20262858.617    20262856.459   106482076.136 7  82973056.493 7
        47.000          43.000
  23117252.240    23117251.811    23117249.298   121482004.414 4  94661310.289 3
        28.100          21.100
  21865461.830    21865460.543    21865457.305   114903854.438 7  89535488.347 6
        44.000          37.000
 10  1  1  0 18  0.0000000  0 10G14G21G 6G27G18G22G 3G26G 9G19
  21694865.981    21694865.362    21694863.054   114007316.941 6  88836882.561 5
        41.000          34.000
  22698300.967    22698300.380    22698296.945   119280422.683 5  92945796.318 3
        32.000          19.300
  21823959.280    21823958.785    21823957.161   114685711.362 6  89365501.670 5
        40.000          35.100
  24071928.878    24071928.398    24071926.852   126498840.908 3  98570533.021 2
        23.000          16.100
  21593428.370    21593427.788    21593424.523   113474274.640 7  88421523.527 5
        42.000          35.100
  20298098.081    20298097.742    20298093.241   106667293.312 8  83117389.063 8
        48.000          49.000
  21765159.155    21765158.781    21765157.333   114376697.563 6  89124700.573 5
        40.000          33.000
  20254513.047    20254512.895    20254510.651   106438219.151 7  82938882.233 7
        47.000          43.000
  23109957.985    23109957.621    23109955.079   121443673.383 4  94631441.973 3
        27.100          19.900
  21861363.435    21861362.152    21861359.055   114882318.547 7  89518707.151 6
        43.000          37.000
 10  1  1  0 18 30.0000000  0 10G14G21G 6G27G18G22G 3G26G 9G19
  21679581.408    21679580.870    21679578.727   113926997.244 6  88774295.814 5
        41.000          34.000
  22715201.618    22715201.217    22715198.273   119369239.096 5  93015003.922 3
        31.000          19.900
  21834420.131    21834419.833    21834418.374   114740685.779 6  89408338.864 5
        39.000          35.100
  24072011.123    24072010.524    24072009.287   126499273.279 3  98570869.974 3
        23.000          19.900
  21604877.375    21604876.815    21604873.584   113534439.435 7  88468405.192 5
        42.000          35.100
  20299281.132    20299280.861    20299276.325   106673510.546 8  83122233.667 8
        48.000          49.000
  21775217.811    21775217.550    21775215.990   114429556.140 6  89165889.071 5
        40.000          33.000
  20246297.838    20246297.728    20246295.531   106395048.450 7  82905242.739 7
        47.000          43.000
  23102782.225    23102781.723    23102779.290   121405963.725 4  94602057.844 3
        27.100          21.100
  21857375.802    21857374.589    21857371.097   114861363.000 7  89502378.162 6
        43.000          36.000
 10  1  1  0 19  0.0000000  0 10G14G21G 6G27G18G22G 3G26G 9G19
  21664376.400    21664375.733    21664373.370   113847093.185 6  88712032.937 5
        41.000          34.000
  22732156.071    22732155.623    22732152.618   119458332.677 5  93084427.477 3
        32.000          21.100
  21844971.727    21844971.589    21844970.110   114796135.525 6  89451546.445 5
        39.000          35.100
  24072191.155    24072190.583    24072189.090   126500216.784 4  98571605.174 3
        24.900          21.100
  21616372.269    21616371.821    21616368.878   113594847.682 7  88515476.559 6
        42.000          36.000
  20300534.016    20300533.774    20300529.207   106680094.630 8  83127364.124 8
        48.000          49.000
  21785375.668    21785375.152    21785373.693   114482934.866 6  89207482.871 5
        40.000          33.000
  20238214.487    20238214.365    20238212.159   106352570.134 7  82872142.766 7
        47.000          43.000
  23095725.076    23095725.016    23095722.844   121368882.257 4  94573163.227 3
        27.100          21.100
  21853499.706    21853498.461    21853494.907   114840993.380 7  89486505.742 6
        43.000          36.000
 10  1  1  0 19 30.0000000  0 10G14G21G 6G27G18G22G 3G26G 9G19
  21649248.022    21649247.565    21649245.194   113767594.814 6  88650086.177 5
        41.000          35.100
  22749160.072    22749159.771    22749156.533   119547690.037 5  93154056.576 3
        32.000          19.300
  21855611.692    21855611.318    21855609.834   114852046.872 6  89495113.710 5
        39.000          35.100
  24072464.558    24072464.369    24072463.262   126501659.699 3  98572729.547 2
        23.800          17.000
  21627911.603    21627911.131    21627908.000   113655486.544 7  88562727.623 5
        42.000          35.100
  20301854.338    20301854.140    20301849.559   106687033.339 8  83132770.916 8
        48.000          49.000
  21795629.552    21795629.082    21795627.596   114536819.749 6  89249471.080 5
        40.000          33.000
  20230260.845    20230260.681    20230258.541   106310773.435 7  82839573.923 7
        47.000          43.000
  23088786.222    23088785.971    23088784.908   121332419.060 4  94544750.368 3
        27.100          23.000
  21849732.891    21849731.671    21849728.109   114821198.301 7  89471081.013 6
        43.000          36.000
 10  1  1  0 20  0.0000000  0 10G14G21G 6G27G18G22G 3G26G 9G19
  21634199.415    21634199.046    21634196.778   113688514.336 6  88588465.051 5
        41.000          35.100
  22766215.943    22766215.459    22766212.118   119637320.318 5  93223898.350 2
        31.000          16.100
  21866340.390    21866340.105    21866338.874   114908427.911 6  89539046.973 5
        39.000          35.100
  24072836.772    24072836.106    24072834.878   126503612.532 3  98574251.254 3
        22.100          19.300
  21639496.704    21639496.006    21639492.973   113716364.607 7  88610165.082 5
        42.000          35.100
  20303244.095    20303243.775    20303239.216   106694335.555 8  83138460.958 8
        48.000          49.000
  21805981.153    21805980.753    21805979.594   114591218.452 6  89291859.667 5
        40.000          33.000
  20222439.101    20222439.037    20222436.738   106269670.002 7  82807545.286 7
        47.000          43.000
  23081967.656    23081967.314    23081966.222   121296586.013 4  94516828.529 3
        25.900          23.000
  21846077.564    21846076.343    21846072.583   114801988.705 7  89456112.506 6
        44.000          36.000
 10  1  1  0 20 30.0000000  0 10G14G21G 6G27G18G22G 3G26G 9G19
  21619229.492    21619228.961    21619226.568   113609844.876 6  88527164.200 5
        41.000          35.100
  22783322.761    22783322.002    22783318.292   119727213.704 5  93293945.145 3
        31.000          19.300
  21877156.650    21877156.299    21877155.086   114965267.869 6  89583337.833 5
        39.000          34.000
  24073303.744    24073303.195    24073301.418   126506066.689 3  98576163.600 2
        23.800          15.100
  21651124.860    21651124.340    21651121.325   113777472.530 7  88657781.652 5
        42.000          35.100
  20304701.222    20304700.828    20304696.273   106701992.234 7  83144427.205 8
        47.000          49.000
  21816428.790    21816428.361    21816427.134   114646120.237 6  89334640.268 5
        40.000          34.000
  20214748.065    20214747.887    20214745.431   106229252.334 7  82776051.011 7
        47.000          43.000
  23075267.530    23075267.251    23075265.835   121261376.762 4  94489392.773 3
        25.900          23.000
  21842531.911    21842530.713    21842527.130   114783356.759 7  89441594.120 6
        44.000          37.000
 10  1  1  0 21  0.0000000  0 10G14G21G 6G27G18G22G 3G26G 9G19
  21604337.670    21604337.425    21604335.113   113531590.217 6  88466186.574 5
        41.000          35.100
  22800478.603    22800478.220    22800475.115   119817370.588 5  93364197.268 3
        31.000          19.300
  21888060.214    21888059.906    21888058.512   115022566.484 6  89627986.094 5
        39.000          34.000
  24073865.818    24073865.333    24073865.209   126509024.013 3  98578468.021 3
        23.000          19.300
  21662797.153    21662796.668    21662793.587   113838811.074 7  88705577.923 5
        42.000          35.100
  20306225.608    20306225.343    20306220.940   106710004.481 7  83150670.514 8
        47.000          49.000
  21826971.948    21826971.560    21826970.137   114701524.449 6  89377812.366 5
        40.000          33.000
  20207187.711    20207187.538    20207185.312   106189523.305 7  82745093.336 7
        47.000          43.000
  23068686.946    23068686.598    23068684.841   121226794.863 4  94462445.851 3
        25.900          21.100
  21839096.498    21839095.254    21839091.971   114765304.758 7  89427527.644 6
        44.000          37.000
 10  1  1  0 21 30.0000000  0 10G14G21G 6G27G18G22G 3G26G 9G19
  21589526.513    21589525.965    21589523.675   113453756.090 6  88405536.622 5
        41.000          35.100
  22817685.337    22817684.816    22817681.615   119907793.937 4  93434657.005 3
        29.000          19.300
  21899051.383    21899051.054    21899049.889   115080325.012 6  89672992.728 5
        39.000          34.000
  24074524.994    24074524.780    24074523.629   126512488.204 3  98581167.430 2
        22.100          15.100
  21674513.821    21674513.298    21674510.156   113900382.182 6  88753555.420 5
        41.000          35.100
  20307818.503    20307818.245    20307813.880   106718375.558 7  83157193.435 8
        47.000          49.000
  21837610.935    21837610.494    21837609.278   114757432.347 6  89421376.947 5
        40.000          33.000
  20199759.168    20199759.114    20199757.167   106150487.562 7  82714675.885 7
        47.000          43.000
  23062226.667    23062226.237    23062224.788   121192845.789 4  94435992.051 3
        27.100          22.100
  21835772.415    21835771.139    21835767.798   114747836.360 7  89413915.919 6
        43.000          36.000
 10  1  1  0 22  0.0000000  0 10G14G21G 6G27G18G22G 3G26G 9G19
  21574795.918    21574795.362    21574793.117   113376346.248 7  88345217.289 5
        42.000          35.100
  22834943.578    22834943.142    22834939.179   119998483.664 5  93505324.343 2
        31.000          17.000
  21910129.919    21910129.584    21910128.371   115138543.651 6  89718357.897 5
        39.000          34.000
  24075281.521    24075280.728    24075279.287   126516461.640 3  98584263.623 2
        23.000          16.100
  21686274.584    21686274.211    21686271.310   113962187.214 6  88801715.192 5
        41.000          34.000
  20309480.026    20309479.799    20309475.343   106727106.807 7  83163997.013 8
        47.000          49.000
  21848345.515    21848345.080    21848343.683   114813843.982 6  89465334.038 5
        40.000          33.000
  20192463.641    20192463.535    20192461.525   106112148.504 7  82684801.302 7
        47.000          44.000
  23055887.197    23055886.813    23055884.938   121159533.167 4  94410034.173 3
        28.100          22.100
  21832560.339    21832558.881    21832555.382   114730955.090 7  89400761.690 6
        44.000          36.000
 10  1  1  0 22 30.0000000  0 10G14G21G 6G27G18G22G 3G26G 9G19
  21560145.745    21560145.380    21560143.001   113299359.513 7  88285227.641 5
        42.000          35.100
  22852250.728    22852250.516    22852247.217   120089435.750 5  93576196.094 3
        31.000          19.300
  21921295.371    21921294.966    21921293.738   115197217.233 6  89764077.554 5
        39.000          34.000
  24076133.427    24076133.148    24076131.559   126520941.233 3  98587754.225 2
        23.000          15.100
  21698079.668    21698079.232    21698076.028   114024222.153 6  88850054.112 5
        41.000          34.000
  20311209.318    20311209.080    20311204.593   106736194.396 7  83171078.255 8
        47.000          49.000
  21859175.240    21859174.735    21859173.197   114870753.974 6  89509679.473 5
        39.000          33.000
  20185300.244    20185300.118    20185298.015   106074504.417 7  82655468.259 7
        47.000          44.000
  23049668.762    23049668.557    23049666.618   121126855.896 4  94384571.397 3
        27.100          22.100
  21829458.642    21829457.423    21829454.259   114714658.178 7  89388062.808 6
        44.000          37.000
 10  1  1  0 23  0.0000000  0 10G14G21G 6G27G18G22G 3G26G 9G19
  21545576.312    21545575.869    21545573.374   113222796.199 7  88225567.944 5
        42.000          35.100
  22869607.835    22869607.090    22869604.087   120180647.207 4  93647269.935 3
        29.000          19.300
  21932546.599    21932546.234    21932544.778   115256342.078 6  89810148.856 5
        39.000          34.000
  24077082.399    24077082.081    24077080.113   126525925.445 3  98591638.048 2
        23.000          13.900
  21709927.998    21709927.427    21709924.170   114086484.046 6  88898569.885 5
        41.000          34.000
  20313006.118    20313005.793    20313001.267   106745636.031 8  83178435.376 8
        48.000          49.000
  21870099.261    21870098.675    21870097.060   114928158.273 6  89554410.076 5
        40.000          33.000
  20178268.855    20178268.724    20178266.561   106037554.454 7  82626676.091 7
        47.000          43.000
  23043572.442    23043572.007    23043569.407   121094814.373 4  94359603.991 3
        29.000          19.300
  21826468.420    21826467.168    21826463.997   114698944.437 7  89375818.347 6
        43.000          37.000
 10  1  1  0 23 30.0000000  0 10G14G21G 6G27G18G22G 3G26G 9G19
  21531088.414    21531088.021    21531085.397   113146661.705 7  88166242.383 5
        42.000          35.100
  22887014.345    22887014.024    22887010.919   120272120.443 5  93718547.778 3
        30.100          19.300
  21943883.705    21943883.389    21943881.986   115315919.483 6  89856572.792 5
        39.000          34.000
  24078127.667    24078127.310    24078125.043   126531417.755 3  98595917.788 2
        23.800          13.900
  21721819.430    21721819.052    21721815.921   114148975.674 6  88947264.667 5
        41.000          34.000
  20314870.731    20314870.468    20314865.941   106755434.753 7  83186070.748 8
        47.000          49.000
  21881117.134    21881116.680    21881115.036   114986058.218 6  89599526.905 5
        39.000          33.000
  20171370.508    20171370.376    20171368.315   106001303.444 7  82598428.560 7
        47.000          44.000
  23037596.485    23037596.290    23037593.941   121063413.833 4  94335136.037 3
        29.000          19.300
  21823590.043    21823588.885    21823585.654   114683818.129 7  89364031.618 6
        44.000          37.000
 10  1  1  0 24  0.0000000  0 10G14G21G 6G27G18G22G 3G26G 9G19
  21516683.364    21516682.819    21516680.216   113070962.108 7  88107255.705 5
        42.000          35.100
  22904471.716    22904471.115    22904468.317   120363858.309 4  93790031.820 2
        29.000          17.800
  21955307.654    21955307.250    21955305.591   115375951.501 6  89903350.980 5
        39.000          34.000
  24079270.198    24079269.532    24079268.314   126537422.533 3  98600596.838 2
        23.800          17.800
  21733755.661    21733755.182    21733751.795   114211700.251 6  88996140.968 5
        41.000          34.000
  20316803.879    20316803.718    20316799.178   106765594.000 7  83193987.053 8
        47.000          49.000
  21892229.514    21892228.950    21892227.737   115044455.195 6  89645031.023 5
        39.000          32.000
  20164606.128    20164606.037    20164603.903   105965756.540 7  82570729.688 7
        47.000          44.000
  23031743.967    23031743.558    23031741.702   121032660.196 4  94311172.203 3
        27.100          21.100
  21820824.328    21820823.153    21820819.854   114669283.754 7  89352706.141 6
        44.000          37.000
 10  1  1  0 24 30.0000000  0 10G14G21G 6G27G18G22G 3G26G 9G19
  21502358.558    21502358.174    21502355.676   112995686.579 7  88048599.472 5
        42.000          35.100
  22921976.524    22921976.031    22921973.097   120455847.222 4  93861711.484 2
        29.000          16.100
  21966814.899    21966814.513    21966813.178   115436423.573 6  89950472.067 5
        39.000          34.000
  24080508.131    24080507.739    24080506.363   126543927.553 3  98605665.713 2
        23.800          17.000
  21745733.379    21745732.804    21745729.846   114274644.013 6  89045188.062 5
        41.000          34.000
  20318803.395    20318803.151    20318798.554   106776100.875 7  83202174.233 8
        47.000          49.000
  21903433.899    21903433.398    21903432.272   115103335.088 6  89690911.435 5
        39.000          32.000
  20157973.414    20157973.400    20157971.278   105930902.076 7  82543570.377 7
        47.000          44.000
  23026013.267    23026012.842    23026010.937   121002543.244 4  94287704.451 3
        28.100          19.900
  21818168.849    21818167.496    21818164.259   114655329.410 7  89341832.633 6
        44.000          37.000
 10  1  1  0 25  0.0000000  0 10G14G21G 6G27G18G22G 3G26G 9G19
  21488116.086    21488115.675    21488113.201   112920841.778 7  87990278.871 6
        42.000          36.000
  22939530.051    22939529.508    22939526.586   120548090.223 5  93933589.133 2
        30.100          15.100
  21978406.523    21978406.174    21978404.783   115497338.036 6  89997937.878 5
        39.000          33.000
  24081842.202    24081841.870    24081839.785   126550937.165 4  98611127.759 2
        25.900          17.800
  21757753.591    21757753.145    21757750.014   114337810.429 6  89094408.649 5
        41.000          34.000
  20320869.813    20320869.518    20320864.874   106786959.396 7  83210635.422 8
        47.000          49.000
  21914730.623    21914730.128    21914728.862   115162699.942 6  89737169.744 5
        38.000          32.000
  20151473.788    20151473.680    20151471.669   105896745.894 7  82516955.181 7
        47.000          44.000
  23020404.781    23020404.184    23020402.515   120973068.629 4  94264737.247 3
        28.100          23.000
  21815625.027    21815623.729    21815620.364   114641960.134 7  89331415.018 6
        44.000          37.000
 10  1  1  0 25 30.0000000  0 10G14G21G 6G27G18G22G 3G26G 9G19
  21473957.172    21473956.659    21473954.299   112846435.930 7  87932300.313 6
        42.000          36.000
  22957132.836    22957132.144    22957128.847   120640592.581 4  94005668.894 2
        29.000          16.100
  21990082.964    21990082.699    21990081.594   115558699.178 6  90045751.745 5
        39.000          33.000
  24083273.095    24083272.888    24083270.834   126558457.979 3  98616988.149 2
        23.800          15.100
  21769817.075    21769816.589    21769813.579   114401205.267 6  89143807.231 5
        41.000          34.000
  20323003.875    20323003.694    20322999.195   106798175.182 7  83219375.005 8
        47.000          49.000
  21926120.716    21926120.053    21926118.661   115222553.324 6  89783808.718 5
        39.000          33.000
  20145108.434    20145108.297    20145106.219   105863295.305 7  82490889.799 7
        47.000          44.000
  23014919.296    23014918.984    23014917.044   120944244.988 4  94242277.291 3
        28.100          19.900
  21813193.569    21813192.338    21813188.838   114629182.946 7  89321458.766 6
        44.000          37.000
 10  1  1  0 26  0.0000000  0 10G14G21G 6G27G18G22G 3G26G 9G19
  21459880.299    21459879.914    21459877.518   112772462.061 7  87874658.361 6
        42.000          36.000
  22974782.595    22974782.127    22974778.803   120733344.294 5  94077942.943 3
        30.100          19.300
  22001842.571    22001842.239    22001841.134   115620496.005 6  90093905.111 5
        39.000          33.000
  24084800.323    24084800.000    24084797.738   126566481.332 4  98623240.128 2
        25.900          17.800
  21781922.585    21781921.933    21781918.713   114464818.286 6  89193375.816 5
        41.000          34.000
  20325204.472    20325204.150    20325199.710   106809739.016 7  83228385.795 8
        47.000          49.000
  21937601.263    21937600.652    21937599.420   115282884.348 6  89830819.886 5
        39.000          33.000
  20138875.739    20138875.609    20138873.433   105830542.350 7  82465368.027 7
        47.000          44.000
  23009556.399    23009556.044    23009554.609   120916064.839 4  94220318.744 3
        27.100          21.100
  21810873.156    21810871.863    21810868.402   114616989.479 7  89311957.359 6
        44.000          37.000
 10  1  1  0 26 30.0000000  0 10G14G21G 6G27G18G22G 3G26G 9G19
  21445887.279    21445886.783    21445884.244   112698927.527 7  87817358.748 6
        42.000          36.000
  22992480.852    22992480.510    22992477.123   120826349.410 4  94150414.456 2
        29.000          17.800
  22013685.694    22013685.368    22013683.989   115682731.954 6  90142400.658 5
        39.000          33.000
  24086423.016    24086422.977    24086420.916   126575012.630 4  98629887.897 2
        24.900          15.100
  21794070.117    21794069.446    21794066.134   114528654.336 6  89243118.199 5
        41.000          33.000
  20327472.036    20327471.798    20327467.309   106821655.566 7  83237671.425 8
        47.000          49.000
  21949173.352    21949172.799    21949171.989   115343696.285 6  89878205.786 5
        39.000          34.000
  20132777.027    20132776.959    20132774.710   105798493.530 7  82440394.932 7
        47.000          44.000
  23004318.269    23004318.007    23004315.765   120888535.588 4  94198867.397 3
        28.100          21.100
  21808664.903    21808663.658    21808660.245   114605385.632 7  89302915.397 6
        44.000          37.000
 10  1  1  0 27  0.0000000  0 10G14G21G 6G27G18G22G 3G26G 9G19
  21431979.038    21431978.421    21431975.927   112625838.612 7  87760406.370 6
        42.000          37.000
  23010227.400    23010227.356    23010224.005   120919611.549 5  94223086.252 2
        30.100          13.900
  22025613.113    22025612.621    22025611.158   115745409.334 6  90191240.173 5
        38.000          33.000
  24088144.080    24088144.026    24088141.344   126584056.304 3  98636934.942 2
        23.800          12.600
  21806260.657    21806260.158    21806256.834   114592717.032 6  89293037.194 5
        41.000          33.000
  20329807.546    20329807.319    20329802.805   106833928.896 7  83247235.067 8
        47.000          49.000
  21960837.268    21960836.780    21960835.820   115404991.099 6  89925967.951 5
        39.000          33.000
  20126813.384    20126813.252    20126811.099   105767154.273 7  82415974.741 7
        47.000          44.000
  22999204.707    22999204.260    22999202.155   120861663.299 4  94177927.978 3
        28.100          19.300
  21806569.777    21806568.716    21806565.174   114594376.459 7  89294336.815 6
        44.000          37.000
 10  1  1  0 27 30.0000000  0 10G14G21G 6G27G18G22G 3G26G 9G19
  21418154.030    21418153.569    21418151.027   112553188.741 7  87703796.102 6
        42.000          37.000
  23028022.382    23028021.904    23028018.347   121013120.681 4  94295950.506 2
        29.000          16.100
  22037621.970    22037621.621    22037620.070   115808517.484 6  90240415.345 5
        38.000          33.000
  24089960.903    24089960.582    24089958.577   126593603.951 3  98644374.666 2
        23.800          12.600
  21818492.398    21818492.083    21818488.809   114656996.792 6  89343125.325 5
        40.000          33.000
  20332209.259    20332209.028    20332204.510   106846549.997 7  83257069.700 8
        47.000          48.000
  21972591.363    21972590.780    21972589.743   115466757.906 6  89974097.917 5
        38.000          33.000
  20120983.284    20120983.138    20120981.034   105736516.982 7  82392101.538 7
        47.000          44.000
  22994214.679    22994214.145    22994212.272   120835441.136 4  94157495.145 3
        27.100          19.300
  21804586.265    21804585.154    21804581.928   114583953.749 7  89286215.212 6
        44.000          37.000
 10  1  1  0 28  0.0000000  0 10G14G21G 6G27G18G22G 3G26G 9G19
  21404413.025    21404412.561    21404409.975   112480979.298 7  87647529.024 6
        42.000          37.000
  23045862.999    23045862.661    23045859.940   121106875.504 4  94369006.215 2
        29.000          17.000
  22049712.237    22049712.117    22049710.768   115872054.137 6  90289924.429 5
        38.000          32.000
  24091874.062    24091873.849    24091871.283   126603655.555 4  98652207.113 1
        24.900          11.000
  21830765.641    21830765.293    21830762.006   114721492.701 6  89393381.885 5
        41.000          33.000
  20334677.306    20334676.942    20334672.308   106859518.480 7  83267175.018 8
        47.000          48.000
  21984434.203    21984433.843    21984432.578   115528994.293 6  90022593.778 5
        39.000          33.000
  20115287.043    20115286.806    20115284.680   105706582.590 7  82368776.049 7
        47.000          44.000
  22989349.008    22989348.558    22989346.391   120809870.792 4  94137570.219 3
        28.100          19.300
  21802714.747    21802713.561    21802710.111   114574117.731 7  89278550.769 6
        44.000          37.000
 10  1  1  0 28 30.0000000  0 10G14G21G 6G27G18G22G 3G26G 9G19
  21390757.578    21390757.168    21390754.751   112409220.113 7  87591612.800 6
        43.000          37.000
  23063752.478    23063751.710    23063748.579   121200882.391 4  94442258.316 2
        28.100          16.100
  22061885.454    22061885.191    22061884.103   115936024.612 6  90339771.545 5
        38.000          32.000
  24093884.453    24093883.790    24093881.571   126614218.256 4  98660437.800 2
        24.900          17.000
  21843081.215    21843080.801    21843077.603   114786210.949 6  89443811.699 5
        40.000          33.000
  20337212.335    20337212.062    20337207.417   106872840.874 7  83277556.115 8
        47.000          48.000
  21996367.614    21996367.165    21996366.489   115591705.638 6  90071459.739 5
        38.000          33.000
  20109725.990    20109725.854    20109723.623   105677359.194 7  82346004.582 7
        47.000          44.000
  22984608.905    22984608.391    22984606.202   120784961.140 4  94118160.109 3
        28.100          22.100
  21800956.377    21800955.252    21800951.567   114564876.740 7  89271349.979 6
        44.000          36.000
 10  1  1  0 29  0.0000000  0 10G14G21G 6G27G18G22G 3G26G 9G19
  21377186.591    21377186.200    21377183.747   112337903.282 7  87536041.262 6
        43.000          37.000
  23081687.447    23081686.763    23081683.227   121295130.120 4  94515698.102 2
        29.000          12.600
  22074138.676    22074138.608    22074137.597   116000416.861 6  90389947.320 5
        38.000          33.000
  24095989.351    24095989.239    24095987.137   126625282.334 4  98669059.162 2
        24.900          17.800
  21855437.212    21855436.591    21855433.452   114851141.102 6  89494406.628 5
        40.000          33.000
  20339813.033    20339812.727    20339807.975   106886506.860 7  83288204.945 8
        47.000          48.000
  22008389.425    22008389.063    22008387.902   115654879.519 6  90120686.114 5
        38.000          33.000
  20104298.650    20104298.492    20104296.179   105648837.962 7  82323780.257 7
        47.000          44.000
  22979992.681    22979992.191    22979990.364   120760704.119 4  94099258.553 3
        28.100          22.100
  21799309.292    21799308.071    21799304.699   114556221.344 7  89264605.505 6
        44.000          37.000
 10  1  1  0 29 30.0000000  0 10G14G21G 6G27G18G22G 3G26G 9G19
  21363700.820    21363700.395    21363697.863   112267034.922 7  87480819.180 6
        43.000          37.000
  23099668.895    23099668.138    23099664.632   121389622.177 4  94589328.287 2
        28.100          15.100
  22086473.343    22086472.914    22086471.786   116065233.247 6  90440453.588 5
        38.000          33.000
  24098191.042    24098190.713    24098189.096   126636852.250 4  98678074.701 3
        24.900          19.300
  21867833.889    21867833.329    21867830.463   114916286.770 6  89545169.487 5
        40.000          33.000
  20342479.638    20342479.386    20342474.749   106900520.587 7  83299124.743 8
        47.000          48.000
  22020499.589    22020499.153    22020497.775   115718518.134 6  90170274.616 5
        38.000          33.000
  20099005.775    20099005.618    20099003.410   105621024.144 7  82302107.165 7
        47.000          44.000
  22975501.813    22975500.998    22975499.199   120737105.839 4  94080870.304 3
        27.100          19.300
  21797774.611    21797773.405    21797770.001   114548156.095 7  89258320.891 6
        44.000          37.000
 10  1  1  0 30  0.0000000  0 10G14G21G 6G27G18G22G 3G26G 9G19
  21350300.627    21350300.144    21350297.662   112196616.880 7  87425947.997 6
        43.000          38.000
  23117695.778    23117695.278    23117692.424   121484357.511 4  94663148.007 2
        28.100          16.100
  22098887.705    22098887.407    22098886.016   116130471.667 6  90491288.719 5
        37.000          32.000
  24100488.888    24100488.633    24100486.958   126648928.045 3  98687484.425 2
        23.000          17.800
  21880271.619    21880271.078    21880267.955   114981647.330 6  89596099.797 5
        40.000          33.000
  20345212.329    20345212.058    20345207.598   106914881.562 7  83310315.122 8
        47.000          48.000
  22032697.758    22032697.337    22032696.079   115782619.342 6  90220223.589 5
        39.000          33.000
  20093847.739    20093847.584    20093845.506   105593918.773 7  82280986.107 7
        47.000          44.000
  22971137.294    22971136.883    22971134.193   120714167.913 4  94062996.604 3
        29.000          19.300
  21796351.985    21796350.672    21796347.640   114540681.559 7  89252496.572 6
        43.000          37.000
 10  1  1  0 30 30.0000000  0 10G14G21G 6G27G18G22G 3G26G 9G19
  21336986.744    21336986.305    21336983.836   112126652.393 7  87371430.230 6
        43.000          38.000
  23135769.869    23135769.185    23135765.844   121579336.208 4  94737157.376 2
        28.100          13.900
  22111382.286    22111382.142    22111380.508   116196131.299 6  90542452.066 5
        38.000          32.000
  24102883.804    24102883.287    24102881.531   126661511.008 4  98697289.344 3
        27.100          19.300
  21892750.474    21892749.818    21892746.614   115047222.758 6  89647197.544 5
        40.000          33.000
  20348011.472    20348011.149    20348006.584   106929590.571 7  83321776.692 8
        47.000          48.000
  22044983.507    22044983.004    22044982.111   115847181.793 6  90270531.972 5
        38.000          32.000
  20088825.084    20088824.851    20088822.674   105567523.936 7  82260418.710 7
        47.000          44.000
  22966897.683    22966897.663    22966895.640   120691893.074 4  94045639.604 3
        28.100          19.300
  21795042.125    21795040.984    21795037.939   114533799.033 7  89247133.554 6
        44.000          37.000
 10  1  1  0 31  0.0000000  0 10G14G21G 6G27G18G22G 3G26G 9G19
  21323759.646    21323759.294    21323756.919   112057144.140 7  87317267.976 6
        43.000          38.000
  23153890.324    23153889.398    23153885.774   121674558.262 4  94811356.376 2
        27.100          12.600
  22123956.648    22123956.648    22123955.251   116262211.177 6  90593942.872 5
        37.000          32.000
  24105374.089    24105373.696    24105372.766   126674602.169 3  98707490.261 2
        23.800          17.800
  21905270.197    21905269.492    21905266.087   115113013.700 6  89698463.215 5
        40.000          33.000
  20350876.831    20350876.598    20350871.907   106944648.236 7  83333509.950 8
        47.000          48.000
  22057356.623    22057356.258    22057355.303   115912204.310 6  90321198.856 5
        38.000          32.000
  20083937.847    20083937.573    20083935.311   105541841.318 7  82240406.293 7
        47.000          44.000
  22962786.209    22962785.988    22962783.283   120670284.032 4  94028801.416 3
        28.100          19.300
  21793845.480    21793844.396    21793841.121   114527510.619 7  89242233.488 6
        44.000          37.000
 10  1  1  0 31 30.0000000  0 10G14G21G 6G27G18G22G 3G26G 9G19
  21310619.213    21310618.888    21310616.400   111988090.569 7  87263460.015 6
        43.000          38.000
  23172055.259    23172054.596    23172051.539   121770018.059 4  94885740.615 2
        28.100          16.100
  22136610.443    22136610.099    22136608.457   116328705.213 6  90645756.406 5
        37.000          31.000
  24107961.959    24107961.565    24107959.629   126688197.667 4  98718084.192 3
        24.900          19.300
  21917829.948    21917829.354    21917825.717   115179015.721 6  89749893.371 5
        40.000          32.000
  20353807.711    20353807.464    20353802.844   106960050.279 7  83345511.550 8
        47.000          48.000
  22069816.407    22069815.951    22069814.839   115977680.617 6  90372219.331 5
        38.000          32.000
  20079185.497    20079185.361    20079183.014   105516867.942 7  82220946.533 7
        47.000          44.000
  22958800.143    22958799.543    22958797.339   120649338.412 4  94012480.158 3
        28.100          19.300
  21792761.651    21792760.440    21792756.834   114521812.803 7  89237793.620 6
        44.000          37.000
 10  1  1  0 32  0.0000000  0 10G14G21G 6G27G18G22G 3G26G 9G19
  21297565.386    21297564.924    21297562.565   111919491.969 7  87210006.575 6
        43.000          38.000
  23190266.121    23190265.057    23190261.841   121865713.474 4  94960308.468 2
        27.100          13.900
  22149342.205    22149341.748    22149340.082   116395609.779 6  90697889.828 5
        37.000          32.000
  24110644.433    24110644.106    24110642.421   126702296.137 3  98729070.002 3
        23.000          19.300
  21930429.396    21930428.729    21930425.019   115245226.355 6  89801486.080 5
        40.000          32.000
  20356803.875    20356803.536    20356798.959   106975794.825 7  83357780.035 8
        47.000          48.000
  22082362.229    22082361.632    22082360.127   116043606.883 6  90423590.436 5
        38.000          31.000
  20074568.037    20074567.932    20074565.599   105492603.186 7  82202038.945 7
        47.000          44.000
  22954940.383    22954939.931    22954938.211   120629056.600 4  93996676.179 3
        25.900          19.300
  21791789.546    21791788.212    21791784.715   114516704.202 7  89233812.886 6
        44.000          37.000
 10  1  1  0 32 30.0000000  0 10G14G21G 6G27G18G22G 3G26G 9G19
  21284599.624    21284599.067    21284596.754   111851356.113 7  87156913.718 6
        43.000          38.000
  23208521.194    23208520.776    23208517.708   121961649.071 4  95035063.472 3
        28.100          19.300
  22162152.235    22162151.948    22162150.536   116462928.882 6  90750346.268 5
        37.000          31.000
  24113424.165    24113423.734    24113422.191   126716903.417 3  98740452.346 2
        23.000          17.800
  21943069.211    21943068.692    21943065.407   115311650.706 6  89853245.318 5
        40.000          32.000
  20359866.066    20359865.770    20359861.157   106991887.343 7  83370319.666 8
        47.000          48.000
  22094993.793    22094993.134    22094992.162   116109986.985 6  90475315.175 5
        37.000          32.000
  20070086.483    20070086.496    20070084.332   105469053.600 7  82183688.631 7
        47.000          44.000
  22951209.111    22951208.683    22951206.609   120609445.759 4  93981395.015 3
        28.100          19.900
  21790930.958    21790929.608    21790926.060   114512191.324 7  89230296.353 6
        44.000          37.000
 10  1  1  0 33  0.0000000  0 10G14G21G 6G27G18G22G 3G26G 9G19
  21271721.425    21271721.004    21271718.581   111783681.001 7  87104179.882 6
        43.000          38.000
  23226821.851    23226821.270    23226818.363   122057820.026 4  95110001.865 2
        28.100          13.900
  22175040.033    22175040.016    22175038.596   116530656.438 6  90803120.974 5
        37.000          31.000
  24116300.027    24116299.882    24116297.402   126732015.584 4  98752228.062 2
        24.900          15.100
  21955748.806    21955748.387    21955745.496   115378284.266 6  89905167.578 5
        40.000          32.000
  20362993.638    20362993.430    20362988.762   107008323.556 7  83383127.110 8
        47.000          48.000
  22107710.444    22107710.119    22107708.841   116176814.501 6  90527388.551 5
        38.000          31.000
  20065740.771    20065740.689    20065738.631   105446216.389 7  82165893.414 7
        47.000          45.000
  22947604.520    22947603.994    22947602.041   120590503.744 4  93966635.021 3
        28.100          22.100
  21790184.474    21790183.400    21790180.066   114508270.511 7  89227241.169 6
        44.000          37.000
 10  1  1  0 33 30.0000000  0 10G14G21G 6G27G18G22G 3G26G 9G19
  21258932.098    21258931.618    21258929.135   111716472.392 7  87051809.552 6
        43.000          38.000
  23245168.619    23245167.806    23245164.451   122154229.111 4  95185125.826 2
        25.900          16.100
  22188006.536    22188006.344    22188004.958   116598794.196 6  90856215.333 5
        37.000          32.000
  24119271.645    24119271.729    24119269.974   126747636.469 3  98764400.191 2
        23.000          16.100
  21968469.314    21968468.819    21968465.468   115445130.075 6  89957255.229 5
        39.000          32.000
  20366187.421    20366187.223    20366182.597   107025107.124 7  83396205.224 8
        47.000          48.000
  22120512.988    22120512.536    22120511.228   116244090.796 6  90579811.625 5
        39.000          31.000
  20061531.533    20061531.369    20061529.148   105424095.791 7  82148656.596 7
        47.000          44.000
  22944128.547    22944128.073    22944126.009   120572235.702 4  93952400.204 3
        29.000          21.100
  21789551.936    21789550.775    21789547.557   114504946.035 7  89224650.670 6
        44.000          37.000
 10  1  1  0 34  0.0000000  0 10G14G21G 6G27G18G22G 3G26G 9G19
  21246230.576    21246230.130    21246227.648   111649725.773 7  86999799.216 6
        43.000          39.000
  23263558.490    23263557.707    23263554.618   122250869.078 4  95260429.677 1
        25.900          11.000
  22201048.895    22201048.727    22201047.345   116667333.592 6  90909622.648 5
        37.000          31.000
  24122340.539    24122340.202    24122338.357   126763759.732 4  98776963.796 3
        24.900          19.900
  21981228.647    21981228.159    21981225.081   115512181.202 6  90009502.870 5
        39.000          32.000
  20369446.072    20369445.781    20369441.191   107042231.034 7  83409548.536 8
        47.000          48.000
  22133399.035    22133398.544    22133397.312   116311807.374 6  90632577.784 5
        38.000          31.000
  20057457.359    20057457.229    20057454.992   105402686.299 7  82131973.887 7
        47.000          44.000
  22940778.963    22940778.785    22940776.462   120554637.194 4  93938687.096 3
        29.000          19.300
  21789031.656    21789030.480    21789027.100   114502212.056 7  89222520.297 6
        44.000          37.000
 10  1  1  0 34 30.0000000  0 10G14G21G 6G27G18G22G 3G26G 9G19
  21233617.908    21233617.266    21233614.714   111583444.448 7  86948151.443 6
        44.000          39.000
  23281991.811    23281991.412    23281988.224   122347739.800 4  95335913.348 1
        25.900          11.000
  22214168.738    22214168.248    22214166.489   116736274.312 6  90963342.677 5
        37.000          31.000
  24125504.698    24125504.367    24125502.761   126780386.744 3  98789919.913 3
        23.800          19.300
  21994027.431    21994026.973    21994023.767   115579438.402 6  90061911.078 5
        39.000          32.000
  20372769.566    20372769.351    20372764.763   107059696.561 7  83423158.042 8
        47.000          48.000
  22146368.699    22146368.280    22146366.931   116379963.278 6  90685686.279 5
        38.000          31.000
  20053518.890    20053518.808    20053516.600   105381990.241 7  82115847.103 7
        47.000          44.000
  22937558.386    22937557.735    22937556.022   120537711.176 4  93925498.013 3
        27.100          22.100
  21788624.201    21788622.964    21788619.549   114500070.283 7  89220851.384 6
        44.000          37.000
 10  1  1  0 35  0.0000000  0 10G14G21G 6G27G18G22G 3G26G 9G19
  21221094.309    21221093.891    21221091.289   111517634.079 7  86896870.654 6
        44.000          39.000
  23300471.044    23300470.129    23300467.524   122444844.261 4  95411579.157 2
        27.100          13.900
  22227363.895    22227363.572    22227361.854   116805617.390 6  91017376.237 5
        37.000          31.000
  24128764.925    24128764.747    24128763.375   126797521.144 3  98803271.419 3
        23.800          19.900
  22006865.784    22006865.436    22006862.157   115646904.779 6  90114482.290 5
        39.000          32.000
  20376158.770    20376158.553    20376153.943   107077506.965 7  83437036.287 8
        47.000          48.000
  22159421.921    22159421.436    22159420.365   116448560.193 6  90739138.414 5
        37.000          31.000
  20049717.020    20049716.906    20049714.870   105362011.706 7  82100279.427 7
        47.000          44.000
  22934466.453    22934466.036    22934463.595   120521462.248 4  93912836.522 3
        29.000          21.100
  21788330.144    21788328.767    21788325.739   114498524.836 7  89219647.142 6
        44.000          38.000
 10  1  1  0 35 30.0000000  0 10G14G21G 6G27G18G22G 3G26G 9G19
  21208661.101    21208660.560    21208657.877   111452296.393 7  86845958.181 6
        44.000          39.000
  23318993.581    23318992.876    23318989.926   122542181.154 4  95487426.079 1
        25.900          11.000
  22240635.233    22240635.044    22240634.004   116875361.046 6  91071721.938 5
        37.000          31.000
  24132122.259    24132121.813    24132120.408   126815162.643 3  98817018.065 3
        23.800          19.300
  22019743.816    22019743.411    22019740.408   115714579.470 6  90167215.820 5
        39.000          32.000
  20379613.497    20379613.369    20379608.761   107095662.293 7  83451183.302 8
        47.000          48.000
  22172559.163    22172558.623    22172557.655   116517595.844 6  90792932.422 5
        37.000          31.000
  20046051.919    20046051.918    20046049.747   105342751.494 7  82085271.479 7
        47.000          45.000
  22931502.969    22931502.676    22931500.307   120505891.786 4  93900703.704 3
        28.100          19.300
  21788149.445    21788148.226    21788144.985   114497575.734 7  89218907.591 6
        44.000          38.000
 10  1  1  0 36  0.0000000  0 10G14G21G 6G27G18G22G 3G26G 9G19
  21196314.455    21196313.958    21196311.287   111387414.495 7  86795400.872 6
        44.000          39.000
  23337556.144    23337555.506    23337553.104   122639730.618 4  95563438.640 1
        24.900          11.000
  22253979.227    22253979.164    22253978.194   116945484.383 6  91126363.492 5
        37.000          32.000
  24135571.827    24135571.629    24135570.335   126833292.407 3  98831145.157 3
        23.800          19.300
  22032658.239    22032657.519    22032654.297   115782443.202 6  90220096.652 5
        39.000          31.000
  20383130.472    20383130.168    20383125.418   107114142.794 7  83465583.697 7
        46.000          47.000
  22185775.761    22185775.186    22185774.047   116587048.661 6  90847051.498 5
        37.000          31.000
  20042520.174    20042520.084    20042517.775   105324191.170 8  82070808.898 7
        48.000          44.000
  22928666.534    22928666.101    22928663.229   120490982.596 4  93889086.169 3
        28.100          21.100
  21788078.681    21788077.463    21788074.261   114497204.387 7  89218618.240 6
        44.000          37.000
 10  1  1  0 36 30.0000000  0 10G14G21G 6G27G18G22G 3G26G 9G19
  21184058.058    21184057.541    21184054.950   111323006.535 7  86745212.869 6
        44.000          39.000
  23356162.181    23356161.887    23356158.851   122737507.821 4  95639628.661 1
        27.100          11.000
  22267398.139    22267397.989    22267397.198   117016001.197 6  91181311.643 5
        36.000          31.000
  24139118.322    24139118.071    24139116.270   126851926.598 4  98845665.330 2
        24.900          16.100
  22045610.642    22045610.208    22045607.241   115850511.446 6  90273136.844 5
        39.000          31.000
  20386711.913    20386711.687    20386707.099   107132964.555 7  83480250.008 7
        46.000          47.000
  22199074.072    22199073.740    22199072.435   116656932.925 6  90901506.760 5
        37.000          30.100
  20039124.751    20039124.618    20039122.268   105306347.910 7  82056905.071 7
        47.000          45.000
  22925957.868    22925957.617    22925955.675   120476752.481 4  93877997.783 2
        27.100          17.800
  21788121.148    21788119.745    21788116.665   114497427.546 7  89218792.139 6
        44.000          37.000
 10  1  1  0 37  0.0000000  0 10G14G21G 6G27G18G22G 3G26G 9G19
  21171892.897    21171892.325    21171889.883   111259078.173 7  86695398.577 6
        44.000          39.000
  23374812.377    23374812.030    23374809.367   122835515.702 4  95715998.441 1
        27.100           6.500
  22280892.719    22280892.431    22280891.149   117086913.785 6  91236568.200 5
        36.000          31.000
  24142761.134    24142760.711    24142758.994   126871069.305 4  98860581.732 2
        24.900          17.800
  22058603.840    22058603.032    22058599.874   115918787.747 6  90326339.168 5
        39.000          32.000
  20390359.298    20390358.956    20390354.466   107152131.096 7  83495184.982 7
        46.000          47.000
  22212454.879    22212454.447    22212453.526   116727250.079 6  90956299.352 5
        37.000          30.100
  20035866.714    20035866.491    20035864.102   105289226.055 7  82043563.376 7
        47.000          45.000
  22923380.668    22923380.224    22923378.369   120463206.638 4  93867442.602 3
        29.000          22.100
  21788277.180    21788275.990    21788272.780   114498249.341 7  89219432.516 6
        43.000          37.000
 10  1  1  0 37 30.0000000  0 10G14G21G 6G27G18G22G 3G26G 9G19
  21159817.636    21159817.162    21159814.731   111195623.133 7  86645953.106 6
        44.000          39.000
  23393504.597    23393504.529    23393501.981   122933744.858 4  95792540.619 2
        25.900          12.600
  22294459.987    22294459.852    22294458.506   117158211.589 6  91292124.914 5
        36.000          31.000
  24146498.482    24146498.394    24146496.446   126890712.122 3  98875887.855 2
        23.800          15.100
  22071633.707    22071633.207    22071630.250   115987263.230 6  90379696.686 5
        38.000          31.000
  20394070.591    20394070.348    20394065.767   107171634.261 7  83510382.259 7
        46.000          47.000
  22225916.702    22225916.112    22225914.654   116797989.690 6  91011421.124 5
        37.000          31.000
  20032744.205    20032744.070    20032741.867   105272818.264 7  82030778.095 7
        47.000          45.000
  22920931.764    22920931.304    22920929.613   120450338.254 4  93857415.313 3
        27.100          21.100
  21788546.253    21788545.037    21788541.653   114499661.978 7  89220533.283 6
        44.000          37.000
 10  1  1  0 38  0.0000000  0 10G14G21G 6G27G18G22G 3G26G 9G19
  21147833.883    21147833.625    21147831.151   111132649.327 7  86596882.624 6
        44.000          40.000
  23412240.957    23412240.058    23412237.299   123032200.201 3  95869259.058 2
        23.800          16.100
  22308101.975    22308101.386    22308100.306   117229898.583 5  91347984.897 5
        35.100          31.000
  24150333.229    24150332.740    24150330.503   126910860.668 4  98891588.019 2
        24.900          17.000
  22084703.303    22084702.686    22084699.369   116055943.104 6  90433213.483 5
        38.000          31.000
  20397847.118    20397846.786    20397842.162   107191479.496 7  83525846.086 7
        46.000          47.000
  22239458.395    22239457.939    22239457.001   116869155.074 6  91066874.670 5
        37.000          30.100
  20029758.778    20029758.746    20029756.591   105257130.576 7  82018553.931 7
        47.000          45.000
  22918612.618    22918612.482    22918610.663   120438154.623 4  93847921.592 3
        27.100          19.300
  21788928.960    21788927.629    21788924.194   114501671.752 7  89222099.363 6
        44.000          37.000
 10  1  1  0 38 30.0000000  0 10G14G21G 6G27G18G22G 3G26G 9G19
  21135940.076    21135939.625    21135936.993   111070145.667 7  86548178.485 6
        44.000          39.000
  23431016.325    23431015.651    23431013.297   123130868.133 4  95946143.150 2
        24.900          13.900
  22321814.265    22321814.189    22321812.872   117301959.574 6  91404136.306 5
        36.000          31.000
  24154261.276    24154260.861    24154258.156   126931502.274 4  98907672.405 2
        24.900          13.900
  22097808.991    22097808.355    22097805.332   116124814.470 6  90486879.488 5
        39.000          31.000
  20401686.049    20401685.748    20401681.181   107211653.771 7  83541566.310 7
        46.000          47.000
  22253078.950    22253078.528    22253077.176   116940731.177 6  91122648.262 5
        37.000          30.100
  20026908.394    20026908.271    20026906.048   105242150.981 7  82006881.533 7
        47.000          45.000
  22916422.949    22916422.571    22916420.218   120426644.189 4  93838952.446 3
        28.100          19.300
  21789422.237    21789421.185    21789417.936   114504266.049 7  89224120.914 6
        44.000          37.000
 10  1  1  0 39  0.0000000  0 10G14G21G 6G27G18G22G 3G26G 9G19
  21124138.918    21124138.663    21124136.158   111008131.756 7  86499855.975 6
        44.000          40.000
  23449835.844    23449835.459    23449832.085   123229764.996 3  96023205.638
        23.800           3.000
  22335601.355    22335601.192    22335599.869   117374410.791 6  91460591.782 5
        36.000          30.100
  24158286.034    24158286.119    24158283.533   126952654.582 4  98924154.750 2
        24.900          15.100
  22110954.425    22110953.890    22110950.648   116193894.106 6  90540707.777 5
        38.000          31.000
  20405590.947    20405590.684    20405586.150   107232174.631 7  83557556.597 7
        46.000          47.000
  22266780.959    22266780.448    22266778.806   117012733.615 6  91178754.059 4
        37.000          29.000
  20024196.155    20024195.965    20024193.686   105227897.667 7  81995775.063 7
        47.000          45.000
  22914364.137    22914363.723    22914361.263   120415826.045 4  93830522.729 3
        29.000          19.300
  21790030.663    21790029.517    21790026.543   114507462.593 7  89226611.748 6
        44.000          38.000
 10  1  1  0 39 30.0000000  0 10G14G21G 6G27G18G22G 3G26G 9G19
  21112428.364    21112427.863    21112425.363   110946590.986 7  86451902.148 6
        44.000          40.000
  23468695.708    23468694.723    23468691.828   123328871.246 3  96100431.271 1
        23.800           6.500
  22349458.882    22349458.360    22349456.885   117447230.845 6  91517334.664 5
        36.000          30.100
  24162404.284    24162404.164    24162402.371   126974298.799 4  98941020.387 2
        24.900          12.600
  22124135.406    22124135.109    22124132.195   116263162.996 6  90594683.541 5
        38.000          31.000
  20409558.401    20409558.080    20409553.505   107253023.000 7  83573802.088 7
        46.000          47.000
  22280559.752    22280559.022    22280557.712   117085141.488 6  91235175.790 4
        37.000          29.000
  20021618.412    20021618.354    20021616.125   105214352.646 7  81985220.513 7
        47.000          45.000
  22912433.745    22912433.583    22912431.702   120405682.811 4  93822618.931 3
        28.100          19.900
  21790750.445    21790749.002    21790745.896   114511243.145 7  89229557.652 6
        44.000          38.000
 10  1  1  0 40  0.0000000  0 10G14G21G 6G27G18G22G 3G26G 9G19
  21100809.568    21100809.167    21100806.756   110885534.377 7  86404325.588 6
        44.000          40.000
  23487596.249    23487595.609    23487592.734   123428195.184 3  96177826.532 2
        23.800          15.100
  22363387.285    22363387.225    22363385.819   117520427.771 6  91574371.227 4
        36.000          29.000
  24166618.726    24166618.173    24166616.525   126996444.016 3  98958276.420 2
        23.000          13.900
  22137355.010    22137354.396    22137351.340   116332629.667 6  90648813.421 5
        38.000          31.000
  20413589.619    20413589.462    20413584.905   107274208.024 7  83590309.904 7
        47.000          47.000
  22294416.912    22294416.232    22294414.882   117157961.732 6  91291918.837 5
        36.000          30.100
  20019177.707    20019177.487    20019175.207   105201525.485 7  81975225.335 7
        47.000          45.000
  22910633.977    22910633.455    22910631.214   120396225.042 4  93815249.253 3
        28.100          19.900
  21791582.173    21791581.041    21791578.034   114515617.265 7  89232966.075 6
        44.000          37.000
 10  1  1  0 40 30.0000000  0 10G14G21G 6G27G18G22G 3G26G 9G19
  21089283.238    21089282.980    21089280.611   110824963.830 7  86357127.776 6
        44.000          41.000
  23506538.131    23506537.473    23506534.599   123527735.895 4  96255390.707
        24.900
  22377387.831    22377387.473    22377385.995   117593998.574 6  91631699.110 5
        36.000          30.100
  24170927.790    24170927.491    24170924.900   127019090.095 4  98975922.725 1
        24.900          11.000
  22150611.740    22150611.122    22150608.001   116402293.963 6  90703097.288 5
        38.000          30.100
  20417685.107    20417684.904    20417680.266   107295729.342 7  83607079.770 7
        47.000          47.000
  22308351.573    22308351.265    22308350.188   117231191.881 6  91348981.291 5
        37.000          30.100
  20016873.456    20016873.221    20016870.993   105189416.725 7  81965789.946 7
        47.000          45.000
  22908964.975    22908964.612    22908962.578   120387454.108 4  93808414.777 3
        29.000          21.100
  21792527.604    21792526.537    21792523.279   114520585.206 7  89236837.211 6
        44.000          37.000
 10  1  1  0 41  0.0000000  0 10G14G21G 6G27G18G22G 3G26G 9G19
  21077848.422    21077848.048    21077845.706   110764872.940 7  86310303.720 6
        44.000          41.000
  23525519.458    23525518.965    23525517.424   123627484.185 4  96333116.656
        25.900
  22391457.290    22391456.972    22391455.618   117667933.778 6  91689310.951 5
        36.000          30.100
  24175331.431    24175331.248    24175328.850   127042228.804 4  98993952.899 2
        24.900          16.100
  22163904.122    22163903.572    22163900.324   116472147.259 6  90757528.437 5
        38.000          30.100
  20421843.099    20421842.762    20421838.071   107317578.898 7  83624105.405 7
        46.000          47.000
  22322363.400    22322362.842    22322361.502   117304821.531 6  91406355.048 5
        37.000          30.100
  20014704.400    20014704.248    20014702.026   105178018.964 7  81956908.585 7
        47.000          45.000
  22907425.813    22907425.436    22907422.995   120379363.049 5  93802110.075 3
        30.100          21.100
  21793584.762    21793583.627    21793580.048   114526138.961 7  89241164.817 6
        44.000          37.000
 10  1  1  0 41 30.0000000  0 10G14G21G 6G27G18G22G 3G26G 9G19
  21066508.139    21066507.554    21066504.910   110705277.418 7  86263865.670 6
        44.000          40.000
  23544543.109    23544542.489    23544541.570   123727453.166 3  96411014.569
        23.800
  22405598.642    22405598.039    22405596.619   117742244.906 5  91747215.716 5
        35.100          30.100
  24179831.354    24179830.630    24179828.377   127065873.908 3  99012377.674 2
        23.800          16.100
  22177235.463    22177234.793    22177231.818   116542203.151 6  90812117.447 5
        38.000          30.100
  20426065.820    20426065.548    20426060.990   107339770.358 7  83641397.463 7
        46.000          47.000
  22336452.951    22336452.403    22336451.261   117378862.491 6  91464049.301 5
        37.000          30.100
  20012673.334    20012673.222    20012671.047   105167346.096 7  81948592.074 7
        47.000          45.000
  22906018.152    22906017.578    22906015.477   120371967.028 4  93796346.961 3
        27.100          22.100
  21794756.062    21794754.727    21794751.159   114532292.491 7  89245959.789 6
        44.000          37.000
 10  1  1  0 42  0.0000000  0 10G14G21G 6G27G18G22G 3G26G 9G19
  21055261.001    21055260.481    21055257.740   110646173.361 7  86217810.575 6
        44.000          41.000
  23563606.626    23563606.545    23563604.584   123827635.557 3  96489078.780
        23.800           3.000
  22419809.137    22419808.906    22419807.527   117816923.945 6  91805407.163 5
        36.000          30.100
  24184425.516    24184425.379    24184423.475   127090019.429 4  99031192.369 2
        25.900          16.100
  22190603.649    22190603.152    22190600.301   116612455.014 6  90866859.166 5
        38.000          31.000
  20430352.434    20430352.220    20430347.716   107362297.419 7  83658951.023 7
        47.000          47.000
  22350618.744    22350618.316    22350617.326   117453306.429 6  91522057.567 5
        36.000          30.100
  20010779.283    20010779.185    20010776.990   105157392.795 7  81940836.268 7
        47.000          45.000
  22904742.105    22904741.843    22904739.520   120365261.427 4  93791121.830 3
        28.100          19.900
  21796039.821    21796038.499    21796035.284   114539039.929 7  89251217.548 6
        44.000          38.000
 10  1  1  0 42 30.0000000  0 10G14G21G 6G27G18G22G 3G26G 9G19
  21044105.895    21044105.543    21044102.920   110587554.464 7  86172133.531 6
        44.000          40.000
  23582710.129    23582709.649    23582707.002   123928022.534 4  96567302.380
        24.900           3.000
  22434088.141    22434087.844    22434086.621   117891960.770 5  91863877.388 4
        35.100          29.000
  24189114.111    24189114.022    24189111.518   127114657.007 3  99050390.500 2
        23.800          15.100
  22204008.358    22204007.740    22204004.275   116682894.318 6  90921746.941 5
        38.000          30.100
  20434701.516    20434701.322    20434696.696   107385151.681 7  83676759.551 7
        46.000          47.000
  22364859.710    22364859.254    22364858.488   117528143.188 6  91580371.927 5
        36.000          30.100
  20009020.757    20009020.627    20009018.404   105148151.444 7  81933635.226 7
        47.000          45.000
  22903596.355    22903596.090    22903593.343   120359238.996 5  93786429.040 3
        30.100          21.100
  21797434.753    21797433.596    21797430.839   114546373.548 7  89256932.068 6
        44.000          38.000
 10  1  1  0 43  0.0000000  0 10G14G21G 6G27G18G22G 3G26G 9G19
  21033043.361    21033042.972    21033040.319   110529420.457 7  86126834.323 6
        44.000          41.000
  23601851.111    23601850.958    23601848.628   124028611.357 3  96645683.280 1
        23.800           6.500
  22448434.295    22448433.986    22448432.688   117967351.465 5  91922623.371 4
        35.100          29.000
  24193895.653    24193895.506    24193893.715   127139784.789 4  99069970.605 3
        24.900          19.300
  22217447.884    22217447.258    22217443.611   116753518.998 6  90976779.171 4
        38.000          29.000
  20439112.743    20439112.412    20439107.726   107408331.409 7  83694821.686 7
        47.000          47.000
  22379174.737    22379174.255    22379173.543   117603368.616 6  91638989.136 5
        36.000          30.100
  20007397.241    20007397.202    20007395.034   105139620.495 7  81926987.746 7
        47.000          45.000
  22902580.185    22902579.801    22902576.432   120353899.072 4  93782268.070 3
        29.000          19.300
  21798942.127    21798940.741    21798937.413   114554291.698 7  89263102.063 6
        44.000          38.000
 10  1  1  0 43 30.0000000  0 10G14G21G 6G27G18G22G 3G26G 9G19
  21022075.112    21022074.648    21022072.064   110471781.764 7  86081921.067 6
        44.000          41.000
  23621033.236    23621032.405    23621030.540   124129409.293 3  96724227.127 1
        23.000           6.500
  22462849.606    22462849.189    22462848.011   118043102.373 5  91981650.043 5
        35.100          30.100
  24198772.113    24198771.855    24198769.703   127165410.780 3  99089938.947 3
        23.800          19.900
  22230923.853    22230923.173    22230920.050   116824336.881 6  91031961.944 4
        37.000          29.000
  20443587.135    20443586.837    20443582.225   107431844.832 7  83713143.840 7
        47.000          47.000
  22393565.137    22393564.607    22393563.211   117678988.444 6  91697913.674 4
        36.000          29.000
  20005910.800    20005910.658    20005908.438   105131808.491 7  81920900.480 7
        47.000          45.000
  22901695.064    22901694.661    22901692.527   120349251.202 4  93778646.378 2
        28.100          17.800
  21800561.598    21800560.398    21800557.046   114562802.782 7  89269734.080 6
        44.000          37.000
 10  1  1  0 44  0.0000000  0 10G14G21G 6G27G18G22G 3G26G 9G19
  21011201.754    21011201.373    21011198.869   110414642.695 7  86037397.130 6
        44.000          41.000
  23640253.634    23640252.604    23640251.166   124230417.427 3  96802934.761 1
        23.800           9.000
  22477332.538    22477332.362    22477331.262   118119213.802 5  92040957.636 4
        34.000          29.000
  24203743.398    24203742.957    24203741.263   127191537.372 3  99110297.329 2
        23.000          13.900
  22244436.653    22244436.365    22244433.266   116895350.014 6  91087296.858 4
        37.000          29.000
  20448125.577    20448125.243    20448120.493   107455693.927 7  83731727.560 7
        47.000          47.000
  22408030.355    22408029.640    22408028.268   117755002.942 6  91757145.748 4
        36.000          29.000
  20004561.650    20004561.511    20004559.154   105124718.413 7  81915375.757 7
        47.000          45.000
  22900942.817    22900942.839    22900940.874   120345299.263 4  93775566.951 3
        29.000          21.100
  21802294.768    21802293.521    21802289.866   114571909.639 7  89276830.335 6
        44.000          37.000
 10  1  1  0 44 30.0000000  0 10G14G21G 6G27G18G22G 3G26G 9G19
  21000422.102    21000421.630    21000419.080   110357994.687 7  85993255.842 6
        44.000          41.000
  23659512.992    23659512.071    23659509.807   124331624.830 3  96881797.668 1
        23.000          11.000
  22491882.200    22491882.004    22491881.344   118195673.592 5  92100536.684 4
        35.100          29.000
  24208808.738    24208808.427    24208805.964   127218153.907 4  99131037.495 2
        24.900          15.100
  22257985.529    22257984.988    22257981.833   116966547.965 6  91142775.790 5
        37.000          30.100
  20452725.620    20452725.441    20452720.733   107479868.358 7  83750564.789 7
        47.000          47.000
  22422568.187    22422567.486    22422566.213   117831399.540 6  91816675.556 5
        36.000          30.100
  20003347.984    20003347.826    20003345.425   105118340.203 7  81910405.732 7
        47.000          45.000
  22900322.068    22900321.556    22900319.368   120342033.582 4  93773022.274 3
        29.000          21.100
  21804138.805    21804137.649    21804134.514   114581601.652 7  89284382.554 6
        44.000          38.000
 10  1  1  0 45  0.0000000  0 10G14G21G 6G27G18G22G 3G26G 9G19
  20989737.221    20989736.678    20989734.014   110301845.070 7  85949502.912 6
        44.000          41.000
  23678811.046    23678810.431    23678807.868   124433036.538 3  96960819.762 2
        23.000          13.900
  22506499.635    22506499.216    22506497.882   118272485.154 5  92160389.826 4
        35.100          29.000
  24213968.267    24213967.747    24213965.537   127245265.927 3  99152163.744 2
        23.000          17.000
  22271569.974    22271569.558    22271566.482   117037935.696 6  91198402.601 5
        37.000          30.100
  20457388.843    20457388.581    20457383.891   107504373.647 7  83769659.825 7
        46.000          47.000
  22437178.834    22437178.444    22437177.168   117908181.751 6  91876505.856 4
        36.000          29.000
  20002270.648    20002270.634    20002268.317   105112679.820 7  81905995.055 7
        47.000          45.000
  22899832.371    22899832.197    22899830.025   120339461.265 4  93771017.877 3
        29.000          23.000
  21806095.628    21806094.429    21806091.269   114591884.800 7  89292395.404 6
        44.000          38.000
 10  1  1  0 45 30.0000000  0 10G14G21G 6G27G18G22G 3G26G 9G19
  20979145.843    20979145.262    20979142.580   110246187.288 7  85906133.229 6
        44.000          41.000
  23698146.782    23698145.751    23698143.389   124534642.733 3  97039993.407 1
        23.000           9.000
  22521181.478    22521180.882    22521179.485   118349638.032 5  92220508.941 4
        34.000          29.000
  24219219.378    24219219.263    24219217.995   127272864.844 3  99173669.409 3
        23.800          19.300
  22285189.199    22285188.714    22285185.586   117109504.606 6  91254170.587 4
        37.000          29.000
  20462113.466    20462113.189    20462108.502   107529201.534 7  83789006.241 7
        46.000          47.000
  22451861.120    22451860.626    22451859.738   117985338.675 6  91936628.139 4
        36.000          29.000
  20001328.785    20001328.546    20001326.215   105107728.967 7  81902137.261 7
        47.000          45.000
  22899473.202    22899472.794    22899471.149   120337574.593 4  93769547.770 3
        28.100          22.100
  21808163.264    21808162.102    21808158.694   114602750.665 7  89300862.309 6
        44.000          37.000
 10  1  1  0 46  0.0000000  0 10G14G21G 6G27G18G22G 3G26G 9G19
  20968649.373    20968648.830    20968646.148   110191027.853 7  85863151.865 6
        44.000          41.000
  23717518.807    23717518.576    23717516.647   124636447.318 3  97119321.645 1
        22.100           6.500
  22535928.598    22535928.158    22535927.048   118427134.939 5  92280896.126 4
        34.000          29.000
  24224564.677    24224564.665    24224562.912   127300955.331 3  99195558.110 3
        23.800          19.300
  22298843.675    22298843.137    22298839.835   117181259.195 6  91310083.270 4
        37.000          29.000
  20466900.336    20466900.039    20466895.330   107554356.296 7  83808607.359 7
        46.000          47.000
  22466615.396    22466615.031    22466613.915   118062873.338 5  91997044.757 4
        35.100          28.100
  20000522.609    20000522.404    20000520.042   105103492.812 7  81898836.368 7
        47.000          45.000
  22899245.671    22899245.376    22899243.663   120336379.703 4  93768616.697 3
        28.100          21.100
  21810342.835    21810341.718    21810338.163   114614204.068 7  89309787.040 6
        44.000          37.000
 10  1  1  0 46 30.0000000  0 10G14G21G 6G27G18G22G 3G26G 9G19
  20958247.854    20958247.427    20958244.790   110136368.042 7  85820559.822 6
        44.000          41.000
  23736928.555    23736928.544    23736926.914   124738448.798 3  97198803.336
        22.100
  22550740.850    22550740.200    22550738.982   118504973.381 5  92341549.444 4
        34.000          29.000
  24230004.475    24230003.938    24230002.098   127329536.366 3  99217829.062 3
        23.800          19.300
  22312532.911    22312532.524    22312529.953   117253198.451 6  91366139.828 5
        36.000          30.100
  20471749.155    20471748.881    20471744.260   107579837.535 7  83828462.878 7
        46.000          47.000
  22481441.266    22481440.877    22481439.547   118140782.439 5  92057753.140 4
        35.100          28.100
  19999852.259    19999852.141    19999849.904   105099970.937 7  81896092.061 7
        47.000          45.000
  22899150.664    22899150.261    22899148.005   120335877.005 5  93768225.001 3
        30.100          21.100
  21812634.173    21812632.947    21812629.362   114626244.841 7  89319169.453 6
        44.000          37.000
 10  1  1  0 47  0.0000000  0 10G14G21G 6G27G18G22G 3G26G 9G19
  20947942.348    20947941.917    20947939.494   110082212.810 7  85778360.958 6
        44.000          41.000
  23756377.197    23756376.593    23756375.205   124840649.885 3  97278440.537
        23.000
  22565617.968    22565617.748    22565616.491   118583154.556 5  92402469.821 4
        34.000          28.100
  24235537.006    24235536.612    24235534.978   127358611.273 4  99240484.854 2
        25.900          17.800
  22326258.651    22326258.107    22326254.696   117325325.598 6  91422342.807 4
        36.000          28.100
  20476660.722    20476660.480    20476655.874   107605648.521 7  83848575.336 7
        46.000          47.000
  22496338.361    22496338.059    22496336.564   118219066.853 6  92118753.983 4
        36.000          28.100
  19999318.815    19999318.599    19999316.376   105097166.980 7  81893907.172 7
        47.000          45.000
  22899187.413    22899186.894    22899184.651   120336070.768 4  93768376.001 3
        29.000          19.300
  21815037.703    21815036.613    21815033.063   114638876.134 7  89329012.026 6
        44.000          37.000
 10  1  1  0 47 30.0000000  0 10G14G21G 6G27G18G22G 3G26G 9G19
  20937732.220    20937731.885    20937729.490   110028559.036 7  85736552.840 7
        44.000          42.000
  23775862.402    23775861.852    23775860.397   124943044.061 3  97358228.211
        22.100           3.000
  22580559.498    22580559.254    22580557.904   118661671.223 5  92463651.616 4
        34.000          28.100
  24241162.745    24241162.526    24241160.256   127388174.465 4  99263521.111 3
        24.900          19.300
  22340018.538    22340018.114    22340014.913   117397635.097 6  91478687.882 4
        36.000          28.100
  20481634.165    20481633.936    20481629.184   107631783.866 7  83868940.545 7
        46.000          46.000
  22511305.499    22511305.100    22511303.754   118297719.512 5  92180041.763 4
        35.100          29.000
  19998920.587    19998920.498    19998918.429   105095075.779 7  81892277.676 7
        47.000          45.000
  22899355.672    22899355.246    22899353.001   120336956.609 4  93769066.271 3
        29.000          19.300
  21817553.041    21817551.819    21817548.121   114652092.650 7  89339310.609 6
        44.000          37.000
 10  1  1  0 48  0.0000000  0 10G14G21G 6G27G18G22G 3G26G 9G19
  20927618.999    20927618.660    20927616.200   109975413.644 7  85695140.864 7
        44.000          42.000
  23795384.983    23795384.720    23795382.931   125045635.609 3  97438169.691 1
        21.100           6.500
  22595565.141    22595564.882    22595563.392   118740526.491 5  92525097.267 4
        34.000          28.100
  24246881.493    24246881.555    24246879.912   127418230.890 4  99286941.718 2
        24.900          17.000
  22353814.219    22353813.595    22353810.531   117470131.524 6  91535178.604 4
        36.000          29.000
  20486670.175    20486669.956    20486665.275   107658248.466 7  83889562.318 7
        46.000          46.000
  22526343.210    22526342.708    22526341.526   118376743.384 5  92241618.802 4
        35.100          29.000
  19998659.443    19998659.293    19998657.077   105093702.779 7  81891207.815 7
        47.000          45.000
  22899656.994    22899656.838    22899654.710   120338540.631 4  93770300.593 3
        29.000          21.100
  21820180.243    21820178.994    21820175.331   114665899.551 7  89350069.236 6
        44.000          37.000
 10  1  1  0 48 30.0000000  0 10G14G21G 6G27G18G22G 3G26G 9G19
  20917601.157    20917600.690    20917598.091   109922768.533 7  85654118.719 7
        44.000          42.000
  23814942.380    23814942.153    23814940.117   125148414.088 3  97518256.804
        19.900
  22610632.338    22610632.186    22610631.189   118819708.969 5  92586797.886 4
        34.000          27.100
  24252693.505    24252693.097    24252691.488   127448770.901 3  99310739.149 3
        23.000          19.300
  22367643.846    22367643.340    22367639.556   117542805.430 6  91591807.630 4
        37.000          27.100
  20491766.943    20491766.732    20491762.118   107685032.773 7  83910433.208 7
        46.000          46.000
  22541448.680    22541448.580    22541447.759   118456126.464 5  92303475.745 4
        35.100          28.100
  19998533.220    19998533.036    19998530.583   105093038.588 8  81890690.276 7
        48.000          45.000
  22900089.479    22900089.487    22900087.384   120340814.355 4  93772072.347 3
        29.000          19.900
  21822918.175    21822916.880    21822913.316   114680287.509 7  89361280.633 6
        44.000          37.000
 10  1  1  0 49  0.0000000  0 10G14G21G 6G27G18G22G 3G26G 9G19
  20907679.419    20907678.824    20907676.172   109870628.085 7  85613489.817 7
        44.000          42.000
  23834536.362    23834536.291    23834534.107   125251381.187 3  97598490.895
        21.100
  22625763.037    22625762.827    22625761.584   118899218.918 5  92648753.670 4
        33.000          28.100
  24258597.897    24258597.821    24258595.776   127479796.579 4  99334914.996 3
        24.900          19.300
  22381507.491    22381506.906    22381503.159   117615659.028 6  91648576.680 4
        37.000          28.100
  20496925.173    20496924.964    20496920.366   107712139.439 7  83931555.287 7
        46.000          46.000
  22556623.696    22556623.330    22556622.375   118535869.021 5  92365612.796 4
        35.100          27.100
  19998542.041    19998541.943    19998539.474   105093085.691 7  81890726.990 7
        47.000          45.000
  22900654.270    22900654.039    22900651.591   120343781.197 4  93774384.191 3
        29.000          21.100
  21825767.199    21825765.922    21825762.381   114695258.828 7  89372946.597 6
        44.000          37.000
 10  1  1  0 49 30.0000000  0 10G14G21G 6G27G18G22G 3G26G 9G19
  20897854.042    20897853.608    20897850.955   109818996.180 7  85573257.177 7
        44.000          42.000
  23854167.134    23854166.708    23854164.938   125354538.208 3  97678872.979 1
        23.000           6.500
  22640955.869    22640955.531    22640954.027   118979056.535 5  92710964.780 4
        33.000          25.900
  24264594.661    24264593.953    24264592.557   127511309.850 3  99359470.816 3
        23.800          19.300
  22395405.265    22395404.749    22395401.594   117688694.191 6  91705487.206 4
        36.000          28.100
  20502144.948    20502144.821    20502140.295   107739570.334 7  83952930.015 7
        46.000          46.000
  22571866.458    22571866.133    22571865.088   118615971.068 5  92428029.972 4
        35.100          28.100
  19998686.801    19998686.631    19998684.295   105093846.441 7  81891319.793 7
        47.000          45.000
  22901351.193    22901351.077    22901348.270   120347444.040 4  93777238.348 3
        29.000          19.900
  21828727.695    21828726.350    21828723.043   114710815.921 7  89385069.010 6
        44.000          37.000
 10  1  1  0 50  0.0000000  0 10G14G21G 6G27G18G22G 3G26G 9G19
  20888124.601    20888124.160    20888121.539   109767868.152 7  85533417.172 7
        44.000          42.000
  23873831.174    23873830.985    23873829.133   125457877.637 3  97759397.225
        21.100           3.000
  22656208.478    22656208.442    22656207.642   119059213.196 5  92773424.502 4
        33.000          28.100
  24270682.535    24270682.211    24270680.850   127543303.841 3  99384401.202 3
        23.000          19.300
  22409336.908    22409336.371    22409332.753   117761904.110 6  91762533.904 4
        36.000          27.100
  20507425.567    20507425.310    20507420.713   107767319.110 7  83974552.443 7
        46.000          46.000
  22587176.466    22587175.752    22587174.521   118696423.294 5  92490720.006 4
        34.000          27.100
  19998966.100    19998965.990    19998963.725   105095314.235 7  81892463.539 7
        47.000          45.000
  22902179.745    22902179.504    22902176.789   120351797.413 4  93780630.601 3
        29.000          19.900
  21831798.352    21831796.918    21831793.625   114726951.885 7  89397642.487 6
        44.000          37.000
 10  1  1  0 50 30.0000000  0 10G14G21G 6G27G18G22G 3G26G 9G19
  20878493.087    20878492.654    20878490.092   109717254.645 7  85493978.092 7
        44.000          42.000
  23893532.671    23893532.321    23893530.597   125561407.770 3  97840070.041
        21.100
  22671524.393    22671524.086    22671522.904   119139696.067 5  92836138.418 4
        34.000          27.100
  24276863.472    24276863.469    24276861.946   127575787.419 3  99409713.073 3
        19.900          19.300
  22423303.421    22423302.763    22423299.242   117835297.594 6  91819723.640 4
        37.000          28.100
  20512768.244    20512767.927    20512763.370   107795394.771 7  83996429.583 7
        46.000          46.000
  22602554.084    22602553.357    22602551.884   118777233.096 5  92553688.681 4
        34.000          25.900
  19999381.555    19999381.521    19999379.284   105097498.381 7  81894165.480 7
        47.000          45.000
  22903141.682    22903141.368    22903138.615   120356850.897 4  93784568.406 3
        29.000          21.100
  21834980.688    21834979.255    21834976.300   114743675.668 7  89410674.011 6
        44.000          37.000
 10  1  1  0 51  0.0000000  0 10G14G21G 6G27G18G22G 3G26G 9G19
  20868958.757    20868958.226    20868955.564   109667150.721 7  85454936.090 7
        44.000          42.000
  23913268.871    23913268.104    23913266.629   125665121.049 3  97920885.571 1
        21.100           9.000
  22686900.578    22686900.143    22686898.914   119220496.463 5  92899099.746 4
        34.000          28.100
  24283137.072    24283136.790    24283135.121   127608753.827 3  99435401.206 2
        23.800          15.100
  22437303.259    22437302.690    22437299.314   117908868.188 6  91877051.374 4
        36.000          28.100
  20518171.581    20518171.394    20518166.923   107823790.578 7  84018556.188 7
        46.000          46.000
  22617997.940    22617997.414    22617996.149   118858391.637 5  92616929.086 4
        35.100          27.100
  19999932.373    19999932.257    19999929.875   105100392.315 7  81896420.499 7
        47.000          45.000
  22904234.892    22904234.860    22904232.344   120362598.953 4  93789047.421 3
        29.000          19.300
  21838273.535    21838272.302    21838269.003   114760980.794 7  89424158.526 6
        44.000          37.000
 10  1  1  0 51 30.0000000  0 10G14G21G 6G27G18G22G 3G26G 9G19
  20859521.948    20859521.460    20859518.799   109617560.172 7  85416294.121 7
        44.000          42.000
  23933039.351    23933038.998    23933037.495   125769018.095 3  98001844.317
        22.100
  22702336.700    22702336.167    22702335.026   119301614.282 5  92962308.423 4
        34.000          28.100
  24289503.213    24289502.908    24289501.072   127642204.349 4  99461466.564 3
        24.900          19.300
  22451337.191    22451336.683    22451332.945   117982617.381 6  91934518.275 4
        36.000          27.100
  20523636.635    20523636.319    20523631.794   107852508.412 7  84040933.728 7
        46.000          46.000
  22633508.338    22633507.866    22633505.802   118939898.363 5  92680440.812 4
        34.000          24.900
  20000618.618    20000618.443    20000616.010   105103997.803 7  81899229.977 7
        47.000          45.000
  22905462.033    22905461.226    22905458.699   120369043.903 4  93794069.470 3
        29.000          21.100
  21841677.827    21841676.477    21841672.792   114778869.237 7  89438097.570 6
        44.000          37.000
 10  1  1  0 52  0.0000000  0 10G14G21G 6G27G18G22G 3G26G 9G19
  20850182.221    20850181.765    20850179.090   109568479.760 7  85378049.655 7
        44.000          42.000
  23952844.523    23952843.671    23952842.552   125873093.661 3  98082942.159
        21.100           3.000
  22717831.866    22717831.531    22717830.070   119383042.718 5  93025759.137 4
        34.000          25.900
  24295958.713    24295958.626    24295957.746   127676134.004 3  99487905.251 3
        23.000          19.300
  22465404.445    22465403.802    22465400.288   118056540.339 5  91992120.588 4
        35.100          28.100
  20529161.830    20529161.579    20529157.048   107881543.439 7  84063558.431 7
        46.000          46.000
  22649082.870    22649082.672    22649081.382   119021746.362 5  92744218.468 4
        34.000          27.100
  20001439.196    20001439.028    20001436.707   105108310.236 7  81902590.327 7
        47.000          45.000
  22906819.895    22906819.364    22906817.017   120376182.163 5  93799631.758 3
        30.100          21.100
  21845192.042    21845190.743    21845186.795   114797336.086 7  89452487.323 6
        44.000          36.000
 10  1  1  0 52 30.0000000  0 10G14G21G 6G27G18G22G 3G26G 9G19
  20840941.019    20840940.659    20840937.926   109519917.370 7  85340208.848 7
        44.000          43.000
  23972685.515    23972684.507    23972683.863   125977353.238 3  98164183.382
        21.100
  22733387.129    22733386.773    22733385.670   119464786.082 5  93089455.250 4
        34.000          28.100
  24302508.235    24302507.932    24302505.623   127710548.892 4  99514722.061 3
        25.900          19.900
  22479505.266    22479504.827    22479501.540   118130643.167 6  92049863.059 4
        36.000          27.100
  20534748.562    20534748.306    20534743.745   107910902.157 7  84086435.360 7
        46.000          46.000
  22664723.860    22664723.441    22664722.643   119103939.683 5  92808265.190 4
        34.000          25.900
  20002395.494    20002395.294    20002393.047   105113335.726 7  81906506.299 7
        47.000          45.000
  22908311.487    22908311.073    22908308.759   120384020.514 5  93805739.582 3
        30.100          19.300
  21848817.053    21848815.812    21848812.256   114816387.132 7  89467332.293 6
        44.000          37.000
 10  1  1  0 53  0.0000000  0 10G14G21G 6G27G18G22G 3G26G 9G19
  20831796.521    20831796.079    20831793.403   109471862.420 7  85302763.444 7
        44.000          43.000
  23992556.843    23992555.937    23992555.055   126081783.258 3  98245557.419
        21.100
  22748999.819    22748999.334    22748998.241   119546829.719 5  93153385.337 4
        33.000          28.100
  24309147.403    24309146.967    24309144.477   127745436.067 3  99541906.889 2
        23.800          16.100
  22493638.708    22493638.049    22493634.732   118204912.856 5  92107735.540 4
        35.100          27.100
  20540394.577    20540394.264    20540389.604   107940571.972 7  84109554.701 7
        46.000          46.000
  22680427.771    22680427.322    22680425.983   119186463.529 5  92872569.481 4
        34.000          27.100
  20003485.000    20003484.867    20003482.666   105119061.701 7  81910968.104 7
        47.000          45.000
  22909934.089    22909933.480    22909931.953   120392547.280 4  93812383.812 3
        28.100          22.100
  21852550.740    21852549.662    21852546.504   114836010.035 7  89482622.870 6
        43.000          37.000
 10  1  1  0 53 30.0000000  0 10G14G21G 6G27G18G22G 3G26G 9G19
  20822749.299    20822748.821    20822746.122   109424318.794 7  85265716.479 7
        44.000          43.000
  24012461.874    24012461.728    24012460.294   126186385.114 2  98327065.361
        17.800
  22764669.233    22764668.789    22764667.696   119629174.002 5  93217549.702 4
        33.000          27.100
  24315876.443    24315876.162    24315873.885   127780797.377 4  99569461.165 2
        27.100          17.800
  22507803.560    22507803.083    22507799.836   118279351.700 5  92165739.843 4
        35.100          27.100
  20546099.878    20546099.708    20546095.202   107970555.074 7  84132918.166 7
        46.000          46.000
  22696195.018    22696194.086    22696192.789   119269317.736 5  92937131.206 4
        35.100          27.100
  20004708.225    20004708.181    20004705.938   105125490.377 8  81915977.471 7
        48.000          45.000
  22911688.217    22911687.813    22911685.687   120401765.370 4  93819566.759 3
        28.100          22.100
  21856394.201    21856393.212    21856389.857   114856206.968 7  89498360.734 6
        44.000          37.000
 10  1  1  0 54  0.0000000  0 10G14G21G 6G27G18G22G 3G26G 9G19
  20813800.979    20813800.543    20813797.783   109377295.056 7  85229074.618 7
        44.000          43.000
  24032400.772    24032399.989    24032398.873   126291164.801 2  98408711.868
        17.800
  22780396.777    22780396.574    22780395.054   119711823.809 5  93281952.131 4
        32.000          24.900
  24322696.154    24322696.032    24322694.524   127816639.541 3  99597390.135 2
        23.800          17.000
  22522002.681    22522001.961    22521998.561   118353966.574 5  92223881.306 4
        35.100          27.100
  20551866.409    20551866.201    20551861.776   108000858.486 7  84156531.224 7
        46.000          46.000
  22712025.187    22712024.587    22712023.396   119352507.343 5  93001954.262 4
        34.000          27.100
  20006066.855    20006066.614    20006064.244   105132628.522 7  81921539.672 7
        47.000          45.000
  22913575.326    22913574.924    22913572.842   120411682.465 4  93827294.368 3
        29.000          19.300
  21860348.248    21860347.021    21860343.812   114876984.412 7  89514550.954 6
        44.000          37.000
 10  1  1  0 54 30.0000000  0 10G14G21G 6G27G18G22G 3G26G 9G19
  20804951.092    20804950.640    20804948.012   109330788.925 7  85192836.093 7
        44.000          43.000
  24052372.816    24052372.492    24052371.039   126396117.602 3  98490493.257
        19.300
  22796181.523    22796181.407    22796179.620   119794773.067 5  93346587.914 4
        33.000          25.900
  24329608.311    24329607.737    24329605.648   127852958.293 3  99625690.475 3
        23.000          19.300
  22536233.598    22536233.308    22536230.214   118428753.199 5  92282156.604 4
        35.100          27.100
  20557692.998    20557692.926    20557688.401   108031477.959 7  84180390.559 7
        46.000          46.000
  22727918.133    22727917.677    22727916.441   119436026.129 5  93067033.819 4
        35.100          27.100
  20007559.430    20007559.197    20007556.815   105140471.979 7  81927651.461 7
        47.000          45.000
  22915594.368    22915594.250    22915592.167   120422295.023 4  93835563.908 3
        29.000          19.900
  21864411.381    21864410.277    21864407.296   114898338.500 7  89531190.503 6
        44.000          37.000
 10  1  1  0 55  0.0000000  0 10G14G21G 6G27G18G22G 3G26G 9G19
  20796200.034    20796199.518    20796197.066   109284802.272 7  85157002.354 7
        44.000          43.000
  24072376.922    24072377.074    24072375.236   126501242.747 2  98572408.948
        17.000
  22812023.040    22812022.513    22812021.373   119878020.260 5  93411455.847 4
        32.000          25.900
  24336609.670    24336609.332    24336607.753   127889753.545 3  99654362.093 3
        23.800          19.300
  22550497.897    22550497.387    22550494.281   118503711.972 5  92340566.032 4
        34.000          27.100
  20563580.384    20563580.056    20563575.403   108062414.467 7  84204496.938 7
        46.000          45.000
  22743873.584    22743873.208    22743871.471   119519871.958 5  93132368.218 4
        35.100          25.900
  20009186.356    20009186.118    20009183.694   105149021.269 7  81934313.255 7
        47.000          45.000
  22917747.095    22917746.579    22917744.684   120433603.984 4  93844376.087 3
        29.000          21.100
  21868585.055    21868583.974    21868580.523   114920269.469 7  89548279.578 6
        44.000          37.000
 10  1  1  0 55 30.0000000  0 10G14G21G 6G27G18G22G 3G26G 9G19
  20787547.660    20787547.272    20787544.653   109239334.097 7  85121572.625 7
        44.000          43.000
  24092413.742    24092413.554    24092412.026   126606537.067 3  98654456.505
        21.100
  22827919.644    22827919.728    22827918.857   119961560.807 5  93476552.361 4
        31.000          27.100
  24343701.883    24343701.442    24343699.276   127927022.293 3  99683402.700 3
        23.800          19.300
  22564794.190    22564793.891    22564790.380   118578840.142 5  92399107.465 4
        35.100          24.900
  20569527.000    20569526.765    20569522.140   108093664.678 7  84228847.759 7
        46.000          45.000
  22759890.220    22759889.604    22759888.407   119604040.029 5  93197953.719 4
        34.000          27.100
  20010946.803    20010946.715    20010944.240   105158273.323 8  81941522.658 7
        48.000          45.000
  22920031.192    22920030.863    22920028.873   120445607.215 5  93853729.284 3
        30.100          21.100
  21872867.884    21872866.747    21872863.027   114942774.238 7  89565815.756 6
        44.000          37.000
 10  1  1  0 56  0.0000000  0 10G14G21G 6G27G18G22G 3G26G 9G19
  20778995.307    20778994.866    20778992.181   109194390.978 7  85086552.030 7
        44.000          43.000
  24112484.102    24112483.543    24112481.869   126712004.704 3  98736639.082
        19.300
  22843873.736    22843873.422    22843872.289   120045397.580 5  93541879.696 4
        31.000          25.900
  24350884.915    24350884.320    24350882.876   127964769.425 3  99712816.042 3
        23.000          19.300
  22579124.049    22579123.426    22579120.171   118654143.132 5  92457785.133 4
        34.000          25.900
  20575534.598    20575534.289    20575529.673   108125234.559 7  84253447.673 7
        46.000          45.000
  22775968.840    22775968.362    22775967.482   119688533.314 5  93263792.624 4
        34.000          28.100
  20012842.022    20012841.885    20012839.555   105168233.049 7  81949283.491 7
        47.000          45.000
  22922448.543    22922448.236    22922445.827   120458310.582 4  93863628.014 3
        29.000          21.100
  21877260.618    21877259.288    21877255.894   114965857.736 7  89583802.895 6
        44.000          37.000
 10  1  1  0 56 30.0000000  0 10G14G21G 6G27G18G22G 3G26G 9G19
  20770540.578    20770540.018    20770537.405   109149960.814 7  85051931.140 7
        44.000          43.000
  24132584.457    24132583.562    24132582.027   126817630.965 3  98818945.213 1
        19.300           6.500
  22859880.349    22859880.359    22859878.759   120129514.937 5  93607425.679 3
        33.000          23.000
  24358156.142    24358155.742    24358153.624   128002980.512 4  99742590.941 3
        24.900          19.300
  22593484.274    22593483.787    22593480.713   118729606.716 5  92516587.919 4
        35.100          27.100
  20581600.085    20581599.877    20581595.287   108157109.866 7  84278285.581 7
        46.000          45.000
  22792106.241    22792105.801    22792104.591   119773335.720 5  93329872.403 4
        34.000          27.100
  20014869.385    20014869.205    20014866.860   105178886.574 7  81957584.947 7
        47.000          45.000
  22924996.584    22924996.162    22924993.772   120471700.792 4  93874061.961 3
        29.000          21.100
  21881760.386    21881759.106    21881756.057   114989506.014 7  89602230.118 6
        44.000          37.000
 10  1  1  0 57  0.0000000  0 11G14G21G 6G27G18G11G22G 3G26G 9G19
  20762185.258    20762184.790    20762182.074   109106053.066 7  85017717.328 7
        44.000          43.000
  24152716.333    24152715.230    24152714.206   126923423.005 3  98901380.566
        19.900
  22875942.363    22875942.058    22875940.500   120213918.648 5  93673194.800 4
        32.000          24.900
  24365517.365    24365516.656    24365515.271   128041662.818 3  99772732.985 3
        23.000          19.300
  22607876.970    22607876.397    22607873.047   118805238.561 5  92575521.828 4
        35.100          27.100
  24410890.211    24410890.160    24410887.976   128280170.941 2  99958591.894 1
        16.100          11.000
  20587725.506    20587725.224    20587720.582   108189298.382 7  84303367.551 7
        46.000          45.000
  22808303.059    22808302.759    22808301.835   119858452.892 5  93396197.456 4
        33.000          27.100
  20017030.067    20017029.882    20017027.580   105190241.342 7  81966432.828 7
        47.000          45.000
  22927676.996    22927676.679    22927673.686   120485786.008 5  93885037.469 3
        30.100          19.300
  21886369.372    21886368.232    21886364.793   115013726.335 7  89621103.095 6
        44.000          36.000
 10  1  1  0 57 30.0000000  0 11G14G21G 6G27G18G11G22G 3G26G 9G19
  20753929.874    20753929.511    20753926.712   109062671.006 7  84983913.144 7
        44.000          43.000
  24172879.284    24172878.302    24172877.498   127029381.387 3  98983945.570
        19.900
  22892058.473    22892058.268    22892056.793   120298608.460 5  93739186.847 4
        33.000          24.900
  24372968.194    24372967.907    24372965.612   128080817.947 3  99803243.486 2
        22.100          16.100
  22622301.077    22622300.588    22622297.606   118881040.172 5  92634588.024 4
        34.000          25.900
  24391381.944    24391382.458    24391380.161   128177655.445 2  99878709.703
        13.900           3.000
  20593910.729    20593910.490    20593905.804   108221802.020 7  84328695.070 7
        46.000          45.000
  22824560.065    22824559.875    22824558.736   119943884.493 5  93462767.526 4
        33.000          25.900
  20019324.414    20019324.313    20019321.983   105202298.929 7  81975828.357 7
        47.000          45.000
  22930490.363    22930489.799    22930486.801   120500568.486 4  93896556.296 2
        29.000          17.800
  21891087.789    21891086.390    21891082.842   115038520.532 7  89640423.247 6
        44.000          36.000
 10  1  1  0 58  0.0000000  0 11G14G21G 6G27G18G11G22G 3G26G 9G19
  20745774.174    20745773.779    20745771.071   109019813.107 7  84950517.393 7
        44.000          43.000
  24193073.420    24193072.593    24193071.324   127135502.161 3  99066637.061
        19.300
  22908227.822    22908227.377    22908226.152   120383579.138 5  93805397.751 4
        31.000          25.900
  24380508.161    24380507.878    24380506.142   128120442.242 3  99834119.574 2
        23.000          16.100
  22636757.523    22636756.901    22636753.935   118957008.603 5  92693784.204 4
        34.000          25.900
  24371904.421    24371905.044    24371902.391   128075300.643 3  99798952.728
        19.300
  20600155.214    20600155.030    20600150.464   108254617.766 7  84354265.788 7
        46.000          45.000
  22840876.039    22840875.644    22840874.732   120029625.052 5  93529578.340 4
        32.000          27.100
  20021752.139    20021751.961    20021749.558   105215055.888 7  81985768.855 7
        47.000          45.000
  22933434.962    22933434.594    22933432.507   120516045.588 4  93908616.385 3
        29.000          21.100
  21895914.073    21895913.026    21895909.284   115063884.973 7  89660187.754 6
        44.000          36.000
 10  1  1  0 58 30.0000000  0 11G14G21G 6G27G18G11G22G 3G26G 9G19
  20737718.429    20737717.937    20737715.289   108977479.890 7  84917530.488 7
        44.000          43.000
  24213297.784    24213297.362    24213296.150   127241783.600 3  99149453.764
        19.300
  22924449.914    22924449.745    22924448.219   120468827.837 5  93871825.299 3
        31.000          23.800
  24388137.475    24388137.149    24388135.032   128160534.047 3  99865359.932 2
        23.000          17.800
  22651245.257    22651244.797    22651241.784   119033142.800 5  92753109.555 4
        34.000          27.100
  24352458.717    24352458.338    24352456.444   127973108.365 2  99719322.414 1
        15.100           6.500
  20606459.132    20606458.892    20606454.293   108287744.640 7  84380078.941 7
        46.000          45.000
  22857250.199    22857249.923    22857248.882   120115671.297 5  93596627.336 4
        33.000          27.100
  20024312.573    20024312.401    20024310.032   105228510.783 8  81996253.196 7
        48.000          45.000
  22936512.187    22936511.900    22936509.579   120532216.817 5  93921217.356 3
        30.100          21.100
  21900849.278    21900848.045    21900844.202   115089818.278 7  89680395.532 6
        44.000          36.000
 10  1  1  0 59  0.0000000  0 11G14G21G 6G27G18G11G22G 3G26G 9G19
  20729762.348    20729761.761    20729759.083   108935669.713 7  84884951.149 7
        44.000          43.000
  24233551.978    24233551.798    24233550.256   127348221.725 3  99232392.557
        21.100
  22940724.471    22940723.987    22940722.706   120554349.165 5  93938465.290 4
        31.000          24.900
  24395854.838    24395854.639    24395852.023   128201089.810 3  99896961.861 2
        23.800          15.100
  22665764.112    22665763.576    22665760.187   119109439.136 5  92812561.250 4
        34.000          25.900
  24333042.858    24333042.860    24333040.779   127871078.562 3  99639818.679
        19.300
  20612821.566    20612821.325    20612816.666   108321179.520 7  84406132.102 7
        46.000          45.000
  22873680.924    22873680.741    22873679.940   120202017.670 5  93663910.199 4
        32.000          25.900
  20027005.117    20027004.872    20027002.612   105242660.118 7  82007278.663 7
        47.000          45.000
  22939721.466    22939720.845    22939718.259   120549079.413 4  93934357.044 3
        29.000          23.000
  21905891.600    21905890.752    21905886.895   115116317.258 7  89701044.080 6
        44.000          36.000
 10  1  1  0 59 30.0000000  0 11G14G21G 6G27G18G11G22G 3G26G 9G19
  20721905.664    20721905.300    20721902.600   108894383.520 7  84852780.107 7
        44.000          44.000
  24253835.401    24253835.400    24253833.529   127454815.188 2  99315452.405
        13.900
  22957050.372    22957049.913    22957048.630   120640140.923 5  94005316.008 4
        32.000          25.900
  24403660.779    24403660.497    24403658.311   128242108.941 3  99928924.824 3
        23.000          19.300
  22680313.490    22680312.938    22680309.381   119185897.836 5  92872139.465 4
        33.000          24.900
  24313658.554    24313658.422    24313656.639   127769213.842 2  99560443.581
        16.100
  20619242.603    20619242.357    20619237.702   108354921.992 7  84432424.945 7
        46.000          45.000
  22890169.041    22890168.759    22890167.974   120288661.770 5  93731425.076 4
        32.000          25.900
  20029829.485    20029829.320    20029827.081   105257503.310 7  82018844.795 7
        47.000          45.000
  22943061.655    22943061.237    22943058.821   120566633.158 4  93948035.291 3
        29.000          19.900
  21911042.075    21911040.798    21911037.209   115143380.883 7  89722132.612 6
        44.000          37.000
                            4 18
RINEX FILE SPLICE                                           COMMENT
teqc  2009Mar23     WCDA Operator       20100102 00:08:42UTCCOMMENT
teqc  2009Mar23     WCDA Operator       20100101 02:07:04UTCCOMMENT
teqc  2009Mar23     WCDA Operator       20100101 02:07:04UTCCOMMENT
teqc  2009Mar23     WCDA Operator       20100101 02:07:04UTCCOMMENT
CONTACT gps@pgc.nrcan.gc.ca FOR ADDITIONAL INFORMATION      COMMENT
    P1 =    P1  TurboRogue; =    Y1  Benchmark              COMMENT
    L1 = L1(CA)                                             COMMENT
    P2 =    P2  TurboRogue; =    Y2  Benchmark              COMMENT
    L2 = L2(P2) TurboRogue; = L2(Y2) Benchmark              COMMENT
 SNR is mapped to RINEX snr flag value [0-9]                COMMENT
  L1 & L2: min(max(int(snr_dBHz/6), 0), 9)                  COMMENT
teqc windowed: start @ 2010 Jan  1 01:00:00.000             COMMENT
teqc windowed:  end  @ 2010 Jan  1 01:59:59.000             COMMENT
teqc windowed: start @ 2010 Jan  1 01:00:00.000             COMMENT
teqc windowed:  end  @ 2010 Jan  1 01:59:59.000             COMMENT
teqc windowed: start @ 2010 Jan  1 01:00:00.000             COMMENT
teqc windowed:  end  @ 2010 Jan  1 01:59:59.000             COMMENT
 10  1  1  1  0  0.0000000  0 11G14G21G 6G27G18G11G22G 3G26G 9G19
  20714150.051    20714149.545    20714146.765   108853626.454 7  84821021.367 7
        44.000          44.000
  24274149.767    24274149.634    24274148.025   127561566.897 2  99398635.528
        17.800
  22973427.363    22973427.225    22973426.192   120726204.764 5  94072378.717 4
        31.000          25.900
  24411555.035    24411554.793    24411553.384   128283594.629 3  99961251.333 2
        23.800          17.800
  22694894.641    22694894.173    22694891.027   119262522.292 5  92931846.833 4
        34.000          25.900
  24294307.265    24294307.376    24294305.003   127667520.724 2  99481202.235
        17.800
  20625723.008    20625722.753    20625717.986   108388976.114 7  84458960.629 7
        46.000          45.000
  22906713.865    22906713.376    22906713.107   120375605.079 5  93799173.099 4
        31.000          25.900
  20032786.697    20032786.541    20032784.225   105273043.589 7  82030954.112 7
        47.000          45.000
  22946534.337    22946533.818    22946531.910   120584882.270 4  93962255.380 3
        29.000          21.100
  21916300.158    21916298.965    21916295.573   115171012.370 7  89743663.638 6
        44.000          37.000
 10  1  1  1  0 30.0000000  0 11G14G21G 6G27G18G11G22G 3G26G 9G19
  20706494.458    20706493.948    20706491.158   108813396.188 7  84789673.122 7
        44.000          44.000
  24294493.505    24294493.219    24294492.066   127668471.814 2  99481938.039
        17.800
  22989854.809    22989854.667    22989853.840   120812534.707 5  94139648.785 3
        30.100          23.000
  24419537.647    24419537.390    24419535.718   128325542.059 4  99993937.672 2
        24.900          17.800
  22709506.847    22709506.298    22709502.670   119339308.269 5  92991680.063 4
        33.000          24.900
  24274988.825    24274988.256    24274986.350   127565998.173 2  99402093.791
        12.600
  20632261.612    20632261.445    20632256.753   108423337.827 7  84485735.996 7
        46.000          44.000
  22923314.625    22923314.094    22923313.255   120462841.564 5  93867149.571 3
        32.000          23.000
  20035875.737    20035875.624    20035873.306   105289276.498 8  82043603.141 7
        48.000          45.000
  22950137.880    22950137.721    22950136.218   120603822.690 4  93977014.172 3
        27.100          23.000
  21921665.534    21921664.194    21921660.651   115199207.629 7  89765633.972 6
        44.000          37.000
 10  1  1  1  1  0.0000000  0 10G14G 6G27G18G11G22G 3G26G 9G19
  20698938.821    20698938.367    20698935.476   108773690.767 7  84758733.848 7
        44.000          44.000
  23006332.832    23006332.487    23006331.200   120899125.179 5  94207121.876 3
        31.000          23.000
  24427607.256    24427607.067    24427604.701   128367947.425 3 100026980.811 2
        23.000          17.800
  22724148.393    22724147.878    22724145.076   119416252.521 5  93051636.632 4
        34.000          25.900
  24255702.061    24255701.340    24255699.644   127464645.811 3  99323117.948
        19.300           3.000
  20638858.544    20638858.226    20638853.498   108458003.861 7  84512748.494 7
        46.000          44.000
  22939969.484    22939969.120    22939968.177   120550365.050 5  93935349.692 3
        32.000          22.100
  20039095.863    20039095.770    20039093.328   105306198.074 8  82056788.794 7
        48.000          45.000
  22953873.388    22953873.140    22953870.646   120623451.583 4  93992309.405 3
        29.000          19.900
  21927137.566    21927136.250    21927132.799   115227962.670 7  89788040.494 6
        44.000          37.000
 10  1  1  1  1 30.0000000  0 10G14G 6G27G18G11G22G 3G26G 9G19
  20691481.845    20691481.359    20691478.519   108734504.210 7  84728198.881 7
        44.000          44.000
  23022857.963    23022857.833    23022856.151   120985966.583 5  94274790.515 3
        31.000          22.100
  24435762.205    24435761.756    24435759.685   128410802.583 3 100060374.451 3
        21.100          19.300
  22738818.952    22738818.475    22738815.424   119493347.266 5  93111710.457 3
        33.000          23.800
  24236446.274    24236446.001    24236444.517   127363459.016 3  99244271.095
        19.300           3.000
  20645511.596    20645511.325    20645506.747   108492966.539 7  84539992.145 7
        46.000          44.000
  22956677.400    22956677.247    22956675.847   120638166.064 5  94003766.069 3
        32.000          21.100
  20042445.615    20042445.457    20042442.958   105323800.457 8  82070504.945 7
        48.000          45.000
  22957738.047    22957737.735    22957735.835   120643761.427 4  94008135.261 3
        28.100          19.900
  21932714.261    21932713.028    21932709.600   115257269.772 7  89810877.199 6
        44.000          36.000
 10  1  1  1  2  0.0000000  0 10G14G 6G27G18G11G22G 3G26G 9G19
  20684127.777    20684127.431    20684124.687   108695859.642 7  84698086.245 7
        44.000          44.000
  23039434.913    23039434.691    23039433.582   121073078.895 5  94342670.254 3
        31.000          23.800
  24444006.187    24444005.957    24444004.711   128454129.119 3 100094135.403 2
        21.100          17.000
  22753523.199    22753522.559    22753518.911   119570614.703 5  93171918.858 4
        34.000          24.900
  24217226.698    24217226.852    24217224.800   127262462.724 2  99165572.722
        15.100           3.000
  20652225.384    20652225.176    20652220.597   108528248.105 7  84567484.278 7
        46.000          44.000
  22973442.640    22973442.136    22973440.635   120726264.535 5  94072414.215 4
        33.000          24.900
  20045928.749    20045928.617    20045926.235   105342105.067 8  82084768.288 7
        48.000          45.000
  22961736.865    22961736.565    22961734.620   120664774.586 4  94024509.168 3
        29.000          22.100
  21938400.366    21938398.979    21938395.650   115287149.982 7  89834160.470 6
        43.000          37.000
 10  1  1  1  2 30.0000000  0 10G14G 6G27G18G11G22G 3G26G 9G19
  20676874.344    20676873.818    20676871.089   108657741.572 7  84668383.865 7
        44.000          44.000
  23056059.939    23056059.679    23056058.529   121160443.290 5  94410746.379 3
        31.000          23.000
  24452338.187    24452337.539    24452336.100   128497909.576 3 100128250.041 2
        23.800          15.100
  22768256.602    22768255.844    22768252.319   119648037.961 5  93232248.677 4
        33.000          25.900
  24198041.754    24198041.468    24198039.243   127161642.941 2  99087011.862 2
        16.100          12.600
  20658996.959    20658996.689    20658991.920   108563831.816 7  84595211.848 7
        46.000          44.000
  22990260.313    22990259.715    22990258.191   120814640.868 5  94141278.869 4
        33.000          24.900
  20049542.149    20049542.056    20049539.821   105361094.455 7  82099565.219 7
        47.000          45.000
  22965866.469    22965866.136    22965864.068   120686474.460 4  94041418.180 3
        29.000          21.100
  21944192.251    21944191.145    21944187.460   115317586.186 7  89857876.996 6
        44.000          37.000
 10  1  1  1  3  0.0000000  0 10G14G 6G27G18G11G22G 3G26G 9G19
  20669722.902    20669722.389    20669719.635   108620160.729 7  84639100.102 7
        44.000          44.000
  23072734.726    23072734.322    23072732.724   121248066.801 5  94479024.432 3
        31.000          22.100
  24460757.314    24460757.232    24460755.007   128542152.516 3 100162725.066 2
        23.000          17.000
  22783020.646    22783020.080    22783016.818   119725626.206 5  93292707.042 4
        33.000          24.900
  24178892.469    24178892.247    24178889.705   127061011.854 2  99008598.055 2
        16.100          15.100
  20665827.466    20665827.203    20665822.444   108599726.563 7  84623181.784 7
        46.000          44.000
  23007131.755    23007131.284    23007129.807   120903302.331 5  94210365.705 3
        32.000          23.800
  20053287.794    20053287.586    20053285.283   105380777.210 7  82114902.437 7
        47.000          45.000
  22970128.457    22970127.916    22970125.705   120708870.059 4  94058869.283 3
        29.000          19.900
  21950091.420    21950090.197    21950086.705   115348587.068 7  89882033.530 6
        43.000          37.000
 10  1  1  1  3 30.0000000  0 10G14G 6G27G18G11G22G 3G26G 9G19
  20662672.495    20662672.042    20662669.279   108583110.896 7  84610230.113 7
        44.000          44.000
  23089456.136    23089455.957    23089454.445   121335940.071 5  94547497.114 3
        31.000          22.100
  24469262.503    24469262.123    24469260.121   128586849.973 3 100197554.266 2
        23.800          15.100
  22797814.581    22797814.161    22797811.101   119803371.509 5  93353287.807 3
        33.000          23.800
  24159777.552    24159777.105    24159775.628   126960565.152 2  98930327.963 2
        17.000          15.100
  20672715.897    20672715.543    20672710.798   108635925.277 7  84651388.579 7
        46.000          44.000
  23024055.770    23024055.325    23024053.817   120992239.208 5  94279667.158 3
        32.000          21.100
  20057163.776    20057163.574    20057161.096   105401145.225 7  82130773.624 7
        47.000          45.000
  22974520.902    22974520.259    22974518.779   120731954.173 4  94076856.932 3
        28.100          22.100
  21956096.204    21956095.235    21956091.992   115380144.455 7  89906623.694 6
        43.000          37.000
 10  1  1  1  4  0.0000000  0 10G14G 6G27G18G11G22G 3G26G 9G19
  20655721.637    20655721.152    20655718.337   108546583.479 7  84581767.197 7
        44.000          44.000
  23106222.882    23106222.417    23106221.794   121424051.308 4  94616155.215 3
        29.000          23.800
  24477852.529    24477852.169    24477850.253   128631991.564 3 100232729.537 2
        21.100          17.000
  22812637.226    22812636.731    22812633.613   119881264.382 5  93413983.554 3
        33.000          23.800
  24140696.540    24140696.641    24140694.468   126860296.097 2  98852196.281 2
        17.000          16.100
  20679660.069    20679659.760    20679654.993   108672417.988 7  84679824.458 7
        46.000          44.000
  23041030.343    23041029.666    23041028.570   121081439.563 5  94349173.941 3
        32.000          23.000
  20061168.056    20061167.885    20061165.432   105422188.292 7  82147170.826 7
        47.000          45.000
  22979042.779    22979042.442    22979040.703   120755717.108 4  94095373.495 3
        28.100          19.300
  21962205.646    21962204.353    21962201.173   115412248.116 7  89931639.536 6
        43.000          37.000
 10  1  1  1  4 30.0000000  0 10G14G 6G27G18G11G22G 3G26G 9G19
  20648872.083    20648871.588    20648868.794   108510589.039 7  84553719.593 7
        44.000          44.000
  23123036.354    23123036.024    23123035.231   121512407.230 4  94685003.954 4
        29.000          24.900
  24486529.118    24486528.838    24486526.222   128677585.561 3 100268257.330 2
        21.100          15.100
  22827489.805    22827489.047    22827486.186   119959314.165 5  93474801.572 4
        32.000          24.900
  24121652.566    24121652.016    24121649.750   126760216.379 2  98774212.129 3
        16.100          19.300
  20686662.236    20686661.955    20686657.086   108709214.249 7  84708496.872 7
        46.000          44.000
  23058055.203    23058054.918    23058054.054   121170909.719 5  94418890.931 3
        31.000          23.000
  20065302.322    20065302.234    20065299.857   105443914.677 7  82164100.478 7
        47.000          45.000
  22983695.612    22983695.240    22983693.865   120780167.614 4  94114425.864 3
        29.000          22.100
  21968420.308    21968419.318    21968415.840   115444906.675 7  89957087.754 6
        43.000          37.000
 10  1  1  1  5  0.0000000  0 10G14G 6G27G18G11G22G 3G26G 9G19
  20642123.764    20642123.189    20642120.384   108475126.009 7  84526086.071 7
        43.000          45.000
  23139896.239    23139895.838    23139894.436   121601003.086 5  94754039.683 3
        31.000          23.800
  24495290.762    24495290.333    24495288.285   128723628.376 3 100304134.861 2
        22.100          17.000
  22842371.482    22842370.891    22842367.950   120037517.587 5  93535739.292 4
        32.000          24.900
  24102643.527    24102643.684    24102641.527   126660326.276 2  98696375.727 1
        16.100           6.500
  20693721.458    20693721.136    20693716.348   108746310.634 7  84737403.149 7
        46.000          44.000
  23075131.690    23075131.072    23075130.525   121260644.624 5  94488814.217 4
        32.000          24.900
  20069566.281    20069566.130    20069563.606   105466320.850 8  82181559.840 7
        48.000          45.000
  22988478.874    22988478.464    22988476.450   120805303.059 4  94134011.917 3
        29.000          23.000
  21974740.244    21974738.929    21974735.379   115478116.298 7  89982965.382 6
        43.000          37.000
 10  1  1  1  5 30.0000000  0 10G14G 6G27G18G11G22G 3G26G 9G19
  20635476.191    20635475.794    20635472.994   108440193.797 7  84498866.172 7
        43.000          45.000
  23156800.483    23156799.889    23156798.616   121689834.657 5  94823259.088 3
        30.100          23.800
  24504137.887    24504137.140    24504135.574   128770117.601 3 100340360.239 3
        23.000          19.300
  22857281.881    22857281.493    22857278.213   120115872.535 5  93596795.094 3
        32.000          23.800
  24083672.163    24083671.986    24083669.881   126560626.837 3  98618687.870 1
        19.300           9.000
  20700837.252    20700837.076    20700832.446   108783705.646 7  84766542.119 7
        46.000          44.000
  23092257.652    23092257.032    23092255.841   121350640.263 5  94558940.666 3
        32.000          23.800
  20073958.759    20073958.755    20073956.241   105489404.301 8  82199546.949 7
        48.000          45.000
  22993392.059    22993391.732    22993389.215   120831121.288 4  94154130.018 3
        29.000          19.900
  21981163.881    21981162.680    21981159.382   115511874.893 7  90009270.767 6
        43.000          36.000
 10  1  1  1  6  0.0000000  0 10G14G 6G27G18G11G22G 3G26G 9G19
  20628931.770    20628931.424    20628928.765   108405803.541 7  84472068.579 7
        43.000          45.000
  23173750.058    23173750.012    23173749.184   121778910.068 5  94892668.487 3
        30.100          23.800
  24513070.958    24513070.303    24513068.425   128817062.598 3 100376940.750 2
        21.100          16.100
  22872223.185    22872222.714    22872219.481   120194389.235 5  93657976.951 3
        32.000          23.000
  24064739.188    24064738.821    24064737.145   126461131.036 3  98541158.696
        21.100
  20708011.788    20708011.744    20708007.359   108821409.529 7  84795921.771 7
        46.000          44.000
  23109433.458    23109433.353    23109432.330   121440904.409 5  94629276.365 3
        31.000          23.000
  20078482.131    20078481.975    20078479.484   105513174.089 8  82218068.867 7
        48.000          45.000
  22998437.041    22998436.626    22998434.126   120857632.467 5  94174788.099 3
        30.100          19.900
  21987694.265    21987692.787    21987689.819   115546191.439 7  90036010.941 6
        43.000          36.000
 10  1  1  1  6 30.0000000  0 10G14G 6G27G18G11G22G 3G26G 9G19
  20622489.032    20622488.679    20622485.945   108371946.565 7  84445686.529 7
        43.000          45.000
  23190745.326    23190744.945    23190743.630   121868217.518 5  94962258.684 3
        30.100          23.800
  24522088.603    24522088.153    24522086.429   128864452.897 3 100413868.259 2
        22.100          16.100
  22887193.196    22887192.786    22887189.698   120273057.900 5  93719277.201 3
        32.000          23.000
  24045842.150    24045842.373    24045840.876   126361832.134 3  98463782.916
        19.300
  20715243.529    20715243.382    20715239.093   108859412.262 7  84825534.291 7
        45.000          44.000
  23126658.865    23126658.717    23126658.045   121531425.199 5  94699812.024 4
        30.100          24.900
  20083133.999    20083133.776    20083131.384   105537619.919 8  82237117.572 7
        48.000          44.000
  23003611.893    23003611.551    23003609.141   120884826.730 4  94195978.433 3
        29.000          21.100
  21994328.713    21994327.566    21994324.231   115581055.672 7  90063177.868 6
        43.000          36.000
 10  1  1  1  7  0.0000000  0 10G14G 6G27G18G11G22G 3G26G 9G19
  20616148.122    20616147.669    20616144.917   108338624.474 7  84419721.270 7
        43.000          45.000
  23207783.504    23207783.520    23207781.922   121957754.986 5  95032028.131 3
        31.000          23.000
  24531191.334    24531190.939    24531188.930   128912287.758 3 100451142.200 2
        22.100          13.900
  22902192.739    22902191.811    22902188.585   120351878.607 5  93780695.933 3
        31.000          23.000
  24026984.517    24026984.281    24026982.523   126262733.316 2  98386563.078
        17.000
  20722532.377    20722532.158    20722527.615   108897714.014 7  84855379.816 7
        46.000          44.000
  23143933.682    23143933.040    23143932.338   121622200.283 5  94770545.827 4
        30.100          24.900
  20087914.229    20087914.075    20087911.787   105562740.891 7  82256692.356 7
        47.000          45.000
  23008916.242    23008915.926    23008914.460   120912704.425 4  94217701.315 3
        28.100          22.100
  22001067.645    22001066.599    22001062.614   115616466.927 7  90090771.054 6
        43.000          36.000
 10  1  1  1  7 30.0000000  0 10G14G 6G27G18G11G22G 3G26G 9G19
  20609908.820    20609908.420    20609905.674   108305836.944 7  84394172.555 7
        43.000          45.000
  23224865.147    23224864.748    23224863.629   122047519.295 4  95101974.332 3
        29.000          21.100
  24540378.250    24540378.180    24540376.133   128960565.256 3 100488761.048 2
        23.800          15.100
  22917220.279    22917219.740    22917216.061   120430849.896 5  93842232.011 3
        32.000          21.100
  24008165.100    24008164.821    24008162.607   126163836.288 3  98309500.474 2
        21.100          12.600
  20729877.798    20729877.552    20729872.877   108936314.023 7  84885457.748 7
        46.000          44.000
  23161255.366    23161254.822    23161253.712   121713226.062 5  94841474.990 3
        32.000          23.800
  20092822.688    20092822.541    20092820.158   105588535.034 7  82276791.692 7
        47.000          45.000
  23014351.300    23014350.894    23014348.277   120941263.838 4  94239955.399 3
        28.100          19.300
  22007909.533    22007908.363    22007904.953   115652423.250 7  90118788.956 6
        43.000          36.000
 10  1  1  1  8  0.0000000  0 10G14G 6G27G18G11G22G 3G26G 9G19
  20603771.487    20603771.102    20603768.368   108273585.012 7  84369041.184 7
        43.000          45.000
  23241989.249    23241988.951    23241987.499   122137507.824 4  95172095.270 3
        29.000          19.900
  24549649.513    24549649.074    24549647.089   129009284.154 3 100526723.821 2
        23.000          17.000
  22932276.232    22932275.658    22932272.556   120509971.757 5  93903885.418 3
        31.000          23.000
  23989384.921    23989384.785    23989382.499   126065143.748 3  98232597.233 3
        23.000          19.900
  20737279.556    20737279.380    20737274.746   108975211.178 7  84915767.219 7
        46.000          44.000
  23178623.793    23178623.323    23178622.116   121804499.602 5  94912597.237 3
        31.000          21.100
  20097859.204    20097859.004    20097856.402   105615001.054 8  82297414.570 7
        48.000          44.000
  23019915.055    23019914.851    23019911.993   120970503.955 4  94262739.925 2
        29.000          17.000
  22014854.981    22014853.808    22014850.376   115688923.357 7  90147230.590 5
        43.000          35.100
 10  1  1  1  8 30.0000000  0 10G14G 6G27G18G11G22G 3G26G 9G19
  20597736.196    20597735.722    20597732.881   108241868.334 7  84344326.897 7
        43.000          45.000
  23259155.915    23259155.539    23259153.947   122227717.152 4  95242388.249 3
        29.000          21.100
  24559003.603    24559003.419    24559001.360   129058442.414 3 100565028.955 2
        22.100          16.100
  22947361.092    22947360.677    22947357.582   120589242.791 5  93965655.054 3
        32.000          23.800
  23970643.286    23970643.250    23970640.472   125966657.084 3  98155854.437 3
        23.000          19.900
  20744738.070    20744737.788    20744733.040   109014404.648 7  84946307.587 7
        45.000          44.000
  23196038.868    23196038.332    23196037.142   121896017.811 4  94983910.122 3
        29.000          19.300
  20103023.030    20103022.868    20103020.257   105642136.960 8  82318559.435 7
        48.000          44.000
  23025608.841    23025608.340    23025606.025   121000423.754 4  94286054.076 3
        29.000          19.300
  22021903.829    22021902.634    22021899.234   115725965.386 7  90176094.511 6
        42.000          36.000
 10  1  1  1  9  0.0000000  0 10G14G 6G27G18G11G22G 3G26G 9G19
  20591803.403    20591802.937    20591800.073   108210691.028 7  84320032.900 7
        43.000          45.000
  23276363.841    23276363.417    23276362.872   122318148.257 4  95312854.036 3
        29.000          23.000
  24568442.019    24568441.993    24568440.013   129108042.069 3 100603678.056 1
        22.100           9.000
  22962475.147    22962474.776    22962471.164   120668665.735 5  94027543.065 3
        32.000          23.000
  23951942.994    23951942.500    23951939.596   125868382.634 3  98079276.983 2
        23.000          17.800
  20752252.865    20752252.759    20752248.352   109053897.455 7  84977081.208 7
        46.000          44.000
  23213501.612    23213500.872    23213499.302   121987781.248 5  95055414.092 3
        30.100          21.100
  20108314.573    20108314.382    20108311.894   105669944.594 8  82340227.725 7
        48.000          45.000
  23031432.784    23031432.320    23031429.570   121031025.713 4  94309899.766 3
        28.100          19.300
  22029056.394    22029055.325    22029051.846   115763551.645 7  90205382.510 6
        42.000          36.000
 10  1  1  1  9 30.0000000  0 10G14G 6G27G18G11G22G 3G26G 9G19
  20585972.238    20585971.798    20585969.186   108180049.388 7  84296156.305 7
        43.000          45.000
  23293613.209    23293613.108    23293612.152   122408794.091 4  95383487.124 3
        28.100          23.000
  24577964.370    24577963.766    24577961.292   129158077.699 3 100642666.859 2
        23.000          15.100
  22977616.959    22977616.323    22977612.943   120748235.702 5  94089545.643 3
        32.000          23.000
  23933281.406    23933280.925    23933277.995   125770318.419 3  98002863.340 2
        19.300          13.900
  20759824.329    20759824.172    20759819.688   109093684.997 7  85008084.487 7
        46.000          43.000
  23231009.040    23231008.311    23231007.014   122079782.478 5  95127103.374 3
        32.000          21.100
  20113732.646    20113732.553    20113730.276   105698418.309 7  82362415.037 7
        47.000          45.000
  23037385.001    23037384.814    23037382.016   121062305.254 4  94334273.454 2
        29.000          17.800
  22036311.537    22036310.364    22036306.918   115801676.176 7  90235089.925 6
        43.000          36.000
 10  1  1  1 10  0.0000000  0 10G14G 6G27G18G11G22G 3G26G 9G19
  20580241.653    20580241.432    20580238.993   108149936.866 7  84272692.011 7
        43.000          45.000
  23310901.408    23310901.248    23310900.392   122499644.992 4  95454279.999 3
        28.100          21.100
  24587566.236    24587565.957    24587564.384   129208540.932 3 100681988.885 2
        19.900          17.800
  22992784.459    22992784.020    22992781.126   120827945.144 5  94151656.897 3
        31.000          23.800
  23914659.349    23914658.948    23914656.353   125672459.916 3  97926610.018 1
        19.900          11.000
  20767450.318    20767450.167    20767445.606   109133759.712 7  85039311.540 7
        46.000          43.000
  23248558.583    23248558.599    23248557.827   122172011.816 5  95198970.373 3
        30.100          23.800
  20119276.242    20119276.086    20119273.762   105727549.430 7  82385114.616 7
        47.000          44.000
  23043464.402    23043463.901    23043462.006   121094254.111 4  94359168.674 3
        28.100          21.100
  22043667.051    22043665.876    22043662.486   115840330.818 7  90265210.410 6
        43.000          36.000
 10  1  1  1 10 30.0000000  0 10G14G 6G27G18G11G22G 3G26G 9G19
  20574615.137    20574614.732    20574612.094   108120367.882 7  84249651.251 7
        43.000          45.000
  23328231.142    23328230.944    23328229.665   122590712.148 4  95525241.405 3
        29.000          19.300
  24597252.854    24597252.344    24597250.733   129259444.304 3 100721653.851 2
        21.100          17.000
  23007981.920    23007981.513    23007978.687   120907807.162 5  94213887.024 3
        30.100          23.800
  23896079.540    23896079.165    23896076.385   125574823.280 3  97850529.559
        19.300           3.000
  20775133.499    20775133.254    20775128.606   109174134.372 7  85070772.318 7
        46.000          43.000
  23266155.073    23266154.727    23266153.923   122264480.104 5  95271023.570 3
        30.100          22.100
  20124947.149    20124947.032    20124944.651   105757350.305 7  82408336.081 7
        47.000          44.000
  23049673.601    23049673.264    23049670.872   121126885.140 4  94384595.461 3
        29.000          19.300
  22051125.882    22051124.597    22051121.745   115879527.751 7  90295753.477 6
        43.000          36.000
 10  1  1  1 11  0.0000000  0 10G14G 6G27G18G11G22G 3G26G 9G19
  20569090.938    20569090.478    20569087.575   108091336.887 7  84227029.706 7
        43.000          45.000
  23345599.736    23345599.853    23345598.585   122681986.912 4  95596364.611 3
        28.100          19.300
  24607021.810    24607021.493    24607020.326   129310780.544 3 100761656.128 2
        22.100          17.000
  23023207.224    23023206.720    23023203.484   120987815.579 5  94276231.247 3
        31.000          23.800
  23877541.089    23877540.951    23877539.095   125477405.083 3  97774619.327
        22.100
  20782872.305    20782872.176    20782867.480   109214802.886 7  85102462.069 7
        46.000          43.000
  23283795.956    23283795.114    23283793.597   122357178.733 5  95343256.266 3
        30.100          22.100
  20130744.384    20130744.098    20130741.724   105787813.602 7  82432073.715 7
        47.000          45.000
  23056011.531    23056011.241    23056009.235   121160191.127 4  94410548.179 3
        27.100          21.100
  22058687.332    22058685.977    22058682.165   115919259.807 7  90326713.513 6
        43.000          36.000
 10  1  1  1 11 30.0000000  0 10G14G 6G27G18G11G22G 3G26G 9G19
  20563668.957    20563668.483    20563665.568   108062843.954 7  84204827.428 7
        43.000          45.000
  23363008.493    23363007.958    23363007.079   122773466.292 4  95667647.245 3
        28.100          23.000
  24616873.729    24616873.338    24616870.993   129362547.722 3 100801994.184 2
        23.000          15.100
  23038459.995    23038459.528    23038456.287   121067969.651 5  94338688.956 3
        30.100          23.000
  23859045.349    23859045.254    23859042.988   125380207.330 3  97698880.817
        23.000           3.000
  20790667.236    20790666.936    20790662.192   109255764.541 7  85134380.248 7
        46.000          43.000
  23301478.358    23301477.782    23301476.965   122450104.317 5  95415665.814 3
        30.100          23.000
  20136666.778    20136666.615    20136664.340   105818937.169 7  82456325.851 7
        47.000          45.000
  23062477.359    23062477.140    23062475.119   121194170.925 4  94437025.929 3
        27.100          19.300
  22066348.833    22066347.648    22066344.401   115959525.118 7  90358089.077 6
        42.000          36.000
 10  1  1  1 12  0.0000000  0 10G14G 6G27G18G11G22G 3G26G 9G19
  20558348.839    20558348.359    20558345.402   108034886.264 7  84183042.225 7
        43.000          46.000
  23380454.092    23380453.656    23380452.952   122865144.308 4  95739084.634 3
        28.100          21.100
  24626805.103    24626804.608    24626802.534   129414741.014 3 100842664.288 2
        22.100          12.600
  23053739.681    23053739.310    23053735.875   121148264.963 5  94401256.729 3
        30.100          23.000
  23840591.613    23840591.197    23840588.358   125283229.193 4  97623313.429 1
        25.900           6.500
  20798516.867    20798516.670    20798511.953   109297015.235 7  85166523.653 7
        46.000          43.000
  23319203.413    23319202.836    23319202.504   122543251.119 4  95488247.746 3
        29.000          23.800
  20142713.984    20142713.908    20142711.624   105850716.054 7  82481088.622 7
        47.000          44.000
  23069070.382    23069070.463    23069068.606   121228820.348 4  94464025.495 3
        27.100          19.300
  22074111.679    22074110.405    22074107.176   116000318.781 7  90389876.341 6
        43.000          36.000
 10  1  1  1 12 30.0000000  0 10G14G 6G27G18G11G22G 3G26G 9G19
  20553133.189    20553132.619    20553129.619   108007477.248 7  84161684.558 7
        43.000          46.000
  23397939.228    23397939.343    23397938.309   122957031.024 4  95810684.652 3
        29.000          21.100
  24636820.444    24636820.005    24636817.391   129467371.964 3 100883675.427 2
        21.100          16.100
  23069048.339    23069047.983    23069044.986   121228714.133 5  94463944.389 3
        30.100          21.100
  23822181.815    23822181.268    23822178.259   125186486.138 3  97547929.263 2
        23.000          16.100
  20806424.286    20806423.913    20806419.197   109338567.522 7  85198902.060 7
        46.000          43.000
  23336971.868    23336971.755    23336971.567   122636628.769 4  95561009.514 3
        28.100          23.800
  20148888.223    20148888.104    20148885.690   105883161.726 7  82506370.969 7
        47.000          44.000
  23075794.444    23075794.112    23075791.378   121264151.199 4  94491556.041 2
        28.100          16.100
  22081977.166    22081975.973    22081972.860   116041652.307 7  90422084.267 6
        42.000          36.000
 10  1  1  1 13  0.0000000  0 10G14G 6G27G18G11G22G 3G26G 9G19
  20548019.288    20548018.822    20548015.908   107980604.166 7  84140744.500 7
        43.000          46.000
  23415462.642    23415462.047    23415459.790   123049111.081 4  95882435.350 2
        28.100          17.800
  24646916.041    24646915.415    24646913.861   129520426.216 3 100925016.403 1
        21.100           9.000
  23084384.474    23084383.778    23084380.374   121309303.517 5  94526741.309 3
        30.100          21.100
  23803815.425    23803814.646    23803811.229   125089967.590 3  97472720.036 2
        23.000          17.000
  20814385.960    20814385.719    20814381.180   109380407.925 7  85231504.975 7
        46.000          43.000
  23354782.787    23354782.302    23354781.286   122730221.207 4  95633938.656 3
        29.000          21.100
  20155186.593    20155186.483    20155184.066   105916259.610 7  82532161.531 7
        47.000          44.000
  23082644.476    23082644.117    23082642.280   121300149.316 4  94519606.515 3
        27.100          19.300
  22089942.910    22089941.622    22089938.382   116083511.188 7  90454701.568 6
        42.000          36.000
 10  1  1  1 13 30.0000000  0 11G14G32G 6G27G18G11G22G 3G26G 9G19
  20543006.990    20543006.389    20543003.578   107954263.909 7  84120219.634 7
        43.000          46.000
  24528698.766    24528698.206    24528698.754   128899167.800 2 100440907.984 1
        13.900          11.000
  23433019.861    23433019.504    23433017.347   123141378.273 4  95954331.877 2
        27.100          15.100
  24657091.156    24657091.067    24657089.855   129573898.671 2 100966683.285 3
        17.800          19.300
  23099745.743    23099745.385    23099742.022   121390029.210 5  94589644.447 3
        30.100          21.100
  23785491.162    23785490.626    23785487.265   124993672.652 3  97397685.065 2
        22.100          17.800
  20822402.063    20822401.737    20822397.269   109422532.478 7  85264329.304 7
        46.000          43.000
  23372632.438    23372632.360    23372631.084   122824022.448 5  95707030.544 3
        30.100          19.300
  20161607.918    20161607.800    20161605.489   105950004.237 7  82558456.049 7
        47.000          44.000
  23089621.506    23089620.875    23089617.970   121336810.585 4  94548173.763 2
        28.100          16.100
  22098007.362    22098006.170    22098002.438   116125890.370 7  90487724.307 5
        42.000          35.100
 10  1  1  1 14  0.0000000  0 11G14G32G 6G27G18G11G22G 3G26G 9G19
  20538096.980    20538096.560    20538093.800   107928463.074 7  84100115.100 7
        43.000          46.000
  24511902.814    24511902.008    24511901.180   128810900.075 2 100372128.005
        13.900           3.000
  23450613.806    23450613.552    23450612.263   123233835.866 4  96026376.751 3
        27.100          21.100
  24667348.016    24667347.355    24667345.476   129627793.893 3 101008679.547 2
        19.900          15.100
  23115134.555    23115133.829    23115130.207   121470896.660 5  94652658.048 3
        30.100          19.300
  23767210.051    23767210.014    23767207.107   124897609.572 3  97322830.760 2
        23.000          13.900
  20830473.043    20830472.785    20830468.288   109464946.220 7  85297378.976 7
        46.000          43.000
  23390522.720    23390522.377    23390520.948   122918035.556 4  95780287.525 3
        29.000          19.300
  20168153.180    20168153.121    20168150.806   105984400.135 7  82585258.050 7
        47.000          44.000
  23096724.339    23096724.011    23096721.873   121374139.629 4  94577261.341 3
        28.100          19.300
  22106171.571    22106170.464    22106166.972   116168794.352 7  90521155.975 5
        42.000          35.100
 10  1  1  1 14 30.0000000  0 11G14G32G 6G27G18G11G22G 3G26G 9G19
  20533289.441    20533289.035    20533286.302   107903199.658 7  84080429.327 7
        43.000          46.000
  24495123.491    24495122.658    24495122.225   128722725.541 2 100303420.630 1
        17.800          11.000
  23468243.398    23468243.093    23468242.176   123326479.046 4  96098566.223 3
        28.100          23.800
  24677682.909    24677683.078    24677681.183   129682108.339 3 101051002.499 2
        23.000          16.100
  23130549.114    23130548.817    23130545.444   121551902.977 4  94715779.858 3
        29.000          21.100
  23748974.130    23748973.964    23748971.100   124801778.840 4  97248157.491 3
        24.900          19.300
  20838598.800    20838598.587    20838593.875   109507646.951 7  85330652.274 7
        46.000          43.000
  23408452.156    23408451.512    23408450.802   123012255.429 4  95853705.597 3
        28.100          21.100
  20174821.844    20174821.649    20174819.261   106019443.358 7  82612564.461 7
        47.000          44.000
  23103954.446    23103954.185    23103951.608   121412132.736 4  94606866.355 2
        28.100          13.900
  22114435.282    22114434.190    22114430.493   116212219.382 7  90554993.644 5
        43.000          35.100
 10  1  1  1 15  0.0000000  0 11G14G32G 6G27G18G11G22G 3G26G 9G19
  20528584.931    20528584.429    20528581.508   107878476.056 7  84061164.194 7
        43.000          46.000
  24478362.906    24478362.308    24478362.079   128634646.783 3 100234787.924 1
        21.100           9.000
  23485907.900    23485907.590    23485906.926   123419307.025 4  96170899.705 3
        29.000          23.000
  24688098.518    24688098.227    24688096.797   129736842.439 3 101093652.471 2
        23.000          15.100
  23145991.377    23145990.592    23145987.462   121633049.672 5  94779011.053 3
        30.100          21.100
  23730782.813    23730782.741    23730780.007   124706184.839 3  97173668.697 3
        23.000          19.300
  20846779.461    20846779.148    20846774.383   109550635.970 7  85364150.212 7
        46.000          43.000
  23426420.506    23426420.029    23426418.791   123106680.819 4  95927283.809 3
        29.000          19.300
  20181613.463    20181613.283    20181610.997   106055134.035 7  82640375.384 7
        47.000          44.000
  23111311.329    23111310.694    23111308.468   121450790.965 4  94636989.658 3
        27.100          19.300
  22122797.905    22122796.773    22122793.502   116256165.926 7  90589237.697 6
        42.000          36.000
 10  1  1  1 15 30.0000000  0 11G14G32G 6G27G18G11G22G 3G26G 9G19
  20523984.101    20523983.584    20523980.625   107854298.229 7  84042324.341 7
        43.000          46.000
  24461621.204    24461620.170    24461620.103   128546670.333 2 100166234.831
        17.800           3.000
  23503607.946    23503607.883    23503606.827   123512322.819 4  96243379.539 3
        28.100          19.900
  24698594.976    24698594.601    24698592.615   129792000.285 3 101136632.572 1
        21.100           9.000
  23161460.648    23161460.274    23161456.424   121714341.677 5  94842355.479 3
        30.100          21.100
  23712638.876    23712638.490    23712635.614   124610835.881 3  97099370.834 2
        23.800          17.000
  20855015.630    20855015.476    20855010.650   109593918.323 7  85397876.729 7
        46.000          42.000
  23444429.515    23444429.031    23444427.158   123201315.242 4  96001024.924 2
        29.000          16.100
  20188529.182    20188529.001    20188526.670   106091476.111 7  82668693.889 7
        47.000          44.000
  23118794.393    23118794.235    23118792.157   121490118.786 4  94667634.711 3
        29.000          19.300
  22131260.737    22131259.509    22131256.520   116300637.922 7  90623891.187 6
        43.000          36.000
 10  1  1  1 16  0.0000000  0 11G14G32G 6G27G18G11G22G 3G26G 9G19
  20519486.077    20519485.711    20519482.926   107830662.372 7  84023906.797 7
        43.000          46.000
  24444899.092    24444898.557    24444898.291   128458792.679 3 100097758.701
        22.100
  23521342.523    23521342.101    23521341.103   123605519.673 4  96316000.471 2
        27.100          17.000
  24709170.757    24709170.133    24709168.631   129847576.347 3 101179938.636 1
        19.900           6.500
  23176957.168    23176956.350    23176952.635   121795774.564 4  94905809.684 3
        29.000          21.100
  23694540.447    23694540.490    23694537.003   124515730.109 4  97025262.474 2
        24.900          15.100
  20863307.088    20863306.903    20863302.166   109637489.776 7  85431828.515 7
        46.000          42.000
  23462476.350    23462475.820    23462473.801   123296151.746 5  96074923.500 2
        30.100          16.100
  20195567.665    20195567.572    20195565.179   106128463.906 7  82697515.550 7
        47.000          44.000
  23126404.756    23126404.706    23126402.619   121530111.130 4  94698797.588 3
        28.100          19.300
  22139822.351    22139821.231    22139818.066   116345629.623 7  90658949.645 6
        42.000          36.000
 10  1  1  1 16 30.0000000  0 11G14G32G 6G27G18G11G22G 3G26G 9G19
  20515090.297    20515089.917    20515087.194   107807562.424 7  84005906.847 7
        43.000          46.000
  24428192.889    24428192.810    24428192.352   128371008.061 3 100029355.099
        19.900
  23539110.226    23539109.995    23539109.005   123698888.702 4  96388755.552 3
        27.100          21.100
  24719825.480    24719824.805    24719822.155   129903562.465 3 101223564.196 2
        22.100          13.900
  23192478.608    23192477.808    23192474.851   121877341.374 4  94969368.234 3
        29.000          22.100
  23676488.779    23676488.318    23676484.983   124420863.713 4  96951340.616 2
        24.900          17.000
  20871652.073    20871651.777    20871647.128   109681343.121 7  85465999.958 7
        46.000          42.000
  23480559.823    23480558.901    23480557.549   123391180.694 4  96148972.027 2
        27.100          17.000
  20202727.502    20202727.429    20202724.946   106166088.913 7  82726833.745 7
        47.000          44.000
  23134140.319    23134139.788    23134137.756   121570760.350 4  94730472.314 3
        28.100          19.900
  22148481.643    22148480.374    22148476.936   116391133.082 7  90694406.871 6
        42.000          36.000
 10  1  1  1 17  0.0000000  0 11G14G32G 6G27G18G11G22G 3G26G 9G19
  20510797.142    20510796.612    20510793.713   107785000.429 7  83988326.079 7
        43.000          46.000
  24411507.164    24411506.762    24411505.878   128283319.158 3  99961026.055
        22.100
  23556910.499    23556910.254    23556909.104   123792428.830 4  96461643.969 3
        28.100          21.100
  24730556.641    24730556.395    24730554.257   129959959.192 3 101267509.701 2
        19.900          12.600
  23208026.006    23208025.402    23208022.544   121959043.539 4  95033032.241 3
        29.000          23.000
  23658481.685    23658481.607    23658478.945   124326241.190 4  96877608.808 1
        24.900          11.000
  20880051.053    20880050.768    20880046.044   109725479.852 7  85500392.219 7
        46.000          42.000
  23498679.305    23498678.613    23498677.568   123486401.303 4  96223169.882 3
        28.100          21.100
  20210008.691    20210008.541    20210006.027   106204351.204 7  82756648.521 7
        47.000          44.000
  23142000.553    23142000.307    23141998.251   121612066.950 4  94762659.277 3
        28.100          19.900
  22157237.780    22157236.698    22157233.274   116437148.657 7  90730263.154 5
        42.000          35.100
 10  1  1  1 17 30.0000000  0 11G14G32G 6G27G18G11G22G 3G26G 9G19
  20506606.552    20506606.083    20506603.190   107762979.298 7  83971166.763 7
        43.000          46.000
  24394839.810    24394839.033    24394838.463   128195729.299 3  99892774.261 2
        19.300          15.100
  23574743.383    23574742.978    23574741.733   123886140.229 4  96534665.841 3
        27.100          19.300
  24741366.417    24741366.488    24741364.650   130016767.699 3 101311776.044 2
        21.100          17.800
  23223598.352    23223598.195    23223595.813   122040883.253 4  95096803.446 3
        28.100          22.100
  23640523.454    23640522.928    23640520.140   124231867.437 3  96804070.859 2
        23.000          17.000
  20888504.254    20888503.927    20888499.341   109769902.099 7  85535006.962 7
        45.000          42.000
  23516835.841    23516835.309    23516833.925   123581813.407 4  96297516.948 2
        28.100          17.800
  20217411.035    20217411.014    20217408.616   106243251.781 7  82786960.667 7
        47.000          44.000
  23149986.676    23149985.867    23149983.665   121654032.190 4  94795359.474 2
        27.100          17.800
  22166092.291    22166091.003    22166087.180   116483677.103 7  90766519.074 5
        43.000          35.100
 10  1  1  1 18  0.0000000  0 11G14G32G 6G27G18G11G22G 3G26G 9G19
  20502518.928    20502518.462    20502515.674   107741499.123 7  83954428.977 7
        43.000          46.000
  24378189.478    24378189.718    24378189.587   128108239.092 3  99824600.142 2
        19.300          16.100
  23592607.958    23592607.677    23592606.407   123980020.254 4  96607819.088 3
        25.900          19.300
  24752255.190    24752254.951    24752252.691   130073986.412 3 101356362.039 2
        21.100          15.100
  23239199.088    23239198.136    23239194.958   122122859.749 4  95160681.230 3
        29.000          19.300
  23622612.744    23622612.197    23622608.683   124137745.191 4  96730728.852 2
        24.900          13.900
  20897011.566    20897011.428    20897006.749   109814609.163 7  85569843.639 7
        46.000          42.000
  23535027.369    23535027.012    23535026.136   123677413.878 4  96372010.798 3
        28.100          19.300
  20224934.490    20224934.410    20224932.247   106282788.584 7  82817768.571 7
        47.000          44.000
  23158097.186    23158096.894    23158094.933   121696654.644 4  94828571.789 3
        27.100          19.300
  22175043.469    22175042.006    22175038.891   116530716.777 7  90803173.361 5
        42.000          35.100
 10  1  1  1 18 30.0000000  0 11G14G32G 6G27G18G11G22G 3G26G 9G19
  20498534.440    20498533.910    20498530.928   107720559.506 7  83938112.395 7
        43.000          46.000
  24361559.947    24361559.779    24361559.590   128020848.503 2  99756503.618 2
        12.600          17.000
  23610503.596    23610503.513    23610502.346   124074065.278 4  96681100.922 2
        24.900          15.100
  24763221.656    24763221.032    24763218.869   130131612.766 3 101401265.700 1
        22.100          11.000
  23254824.169    23254823.469    23254820.802   122204971.773 4  95224664.625 3
        28.100          22.100
  23604750.294    23604749.410    23604746.219   124043876.075 3  96657584.115 2
        23.000          17.000
  20905573.190    20905572.891    20905568.224   109859599.804 7  85604901.287 7
        46.000          42.000
  23553253.863    23553253.784    23553253.493   123773199.118 4  96446648.666 2
        27.100          15.100
  20232578.847    20232578.701    20232576.424   106322959.018 7  82849070.210 7
        47.000          44.000
  23166332.982    23166332.859    23166329.887   121739931.891 4  94862294.303 3
        28.100          19.300
  22184091.329    22184089.991    22184087.113   116578265.125 7  90840224.011 6
        42.000          36.000
 10  1  1  1 19  0.0000000  0 11G14G32G 6G27G18G11G22G 3G26G 9G19
  20494651.804    20494651.312    20494648.287   107700156.231 7  83922213.747 7
        43.000          46.000
  24344948.756    24344948.186    24344947.542   127933553.767 3  99688481.800 2
        21.100          12.600
  23628429.807    23628430.008    23628429.056   124168268.193 4  96754505.785 3
        28.100          19.300
  24774263.476    24774262.875    24774261.591   130189640.990 3 101446482.528 1
        19.300           6.500
  23270473.736    23270473.526    23270471.262   122287214.271 4  95288749.688 3
        27.100          21.100
  23586935.086    23586934.613    23586931.536   123950258.106 4  96584635.098 3
        24.900          19.300
  20914187.607    20914187.469    20914182.778   109904869.301 7  85640176.222 7
        46.000          42.000
  23571515.380    23571514.871    23571514.429   123869161.770 4  96521424.763 2
        25.900          13.900
  20240342.463    20240342.249    20240339.864   106363756.867 7  82880860.752 7
        47.000          44.000
  23174691.965    23174691.370    23174688.575   121783858.490 4  94896522.840 2
        27.100          16.100
  22193235.105    22193233.875    22193230.814   116626316.145 7  90877666.356 5
        42.000          35.100
 10  1  1  1 19 30.0000000  0 11G14G32G 6G27G18G11G22G 3G26G 9G19
  20490872.490    20490872.022    20490869.194   107680296.906 7  83906738.956 7
        43.000          46.000
  24328357.014    24328356.595    24328355.929   127846363.020 3  99620540.966 2
        23.000          13.900
  23646387.099    23646386.894    23646386.273   124262633.945 4  96828037.578 2
        25.900          17.800
  24785383.474    24785383.421    24785381.590   130248076.871 3 101492017.012 2
        22.100          13.900
  23286150.939    23286150.479    23286147.261   122369594.253 4  95352941.869 3
        29.000          21.100
  23569170.268    23569170.286    23569166.263   123856901.735 4  96511889.884 1
        27.100           9.000
  20922856.743    20922856.448    20922851.639   109950424.608 7  85675673.872 7
        46.000          42.000
  23589811.307    23589811.072    23589810.382   123965306.709 4  96596342.901 2
        28.100          17.000
  20248226.329    20248226.134    20248223.816   106405187.446 7  82913144.327 7
        47.000          43.000
  23183174.844    23183174.785    23183172.475   121828440.566 4  94931262.127 3
        27.100          19.300
  22202476.017    22202474.629    22202471.096   116674875.350 7  90915504.683 5
        42.000          35.100
 10  1  1  1 20  0.0000000  0 11G14G32G 6G27G18G11G22G 3G26G 9G19
  20487195.993    20487195.540    20487192.744   107660976.987 7  83891684.479 7
        43.000          47.000
  24311784.811    24311783.945    24311783.378   127759272.471 4  99552678.269 1
        25.900          11.000
  23664374.582    23664373.946    23664373.651   124357155.161 4  96901690.468 2
        24.900          17.000
  24796580.835    24796580.199    24796578.096   130306914.424 3 101537864.434 3
        22.100          19.300
  23301852.466    23301852.133    23301849.007   122452106.717 4  95417237.295 3
        28.100          19.300
  23551453.926    23551453.576    23551450.618   123763804.180 4  96439346.311 2
        25.900          13.900
  20931578.859    20931578.608    20931573.971   109996260.587 7  85711390.223 7
        45.000          42.000
  23608140.622    23608140.292    23608139.702   124061626.513 4  96671397.268 3
        27.100          22.100
  20256229.502    20256229.377    20256227.014   106447244.512 7  82945916.071 7
        47.000          43.000
  23191782.483    23191782.022    23191780.294   121873671.869 4  94966507.309 2
        25.900          17.000
  22211811.805    22211810.583    22211807.529   116723936.664 7  90953734.271 5
        42.000          35.100
 10  1  1  1 20 30.0000000  0 11G14G32G 6G27G18G11G22G 3G26G 9G19
  20483622.794    20483622.454    20483619.569   107642199.986 7  83877053.054 7
        43.000          46.000
  24295231.591    24295231.125    24295230.379   127672285.906 3  99484896.573 1
        23.000           6.500
  23682391.171    23682390.638    23682389.638   124451832.664 4  96975465.149 2
        25.900          15.100
  24807852.920    24807852.722    24807850.870   130366155.132 3 101584025.992 2
        22.100          15.100
  23317579.636    23317579.359    23317576.143   122534754.501 4  95481638.165 3
        29.000          19.300
  23533788.338    23533787.987    23533784.582   123670971.302 4  96367009.017 2
        25.900          17.000
  20940355.001    20940354.777    20940350.216   110042380.095 7  85747327.507 7
        45.000          42.000
  23626502.951    23626502.641    23626502.399   124158121.831 4  96746588.391 3
        24.900          22.100
  20264352.231    20264352.138    20264349.643   106489929.064 7  82979176.766 7
        47.000          43.000
  23200513.651    23200513.439    23200511.663   121919554.283 4  95002259.841 3
        27.100          19.300
  22221243.755    22221242.518    22221239.218   116773501.379 7  90992356.116 5
        42.000          35.100
 10  1  1  1 21  0.0000000  0 11G14G32G 6G27G18G11G22G 3G26G 9G19
  20480151.691    20480151.387    20480148.464   107623959.234 7  83862839.487 7
        43.000          46.000
  24278697.571    24278696.754    24278696.371   127585397.508 3  99417191.347 1
        23.000           9.000
  23700435.788    23700435.293    23700433.780   124546656.965 4  97049354.204 3
        27.100          19.300
  24819201.197    24819200.903    24819199.120   130425790.553 3 101630495.159 2
        23.000          15.100
  23333331.157    23333330.845    23333327.692   122617530.401 4  95546138.862 2
        28.100          17.800
  23516172.657    23516172.187    23516169.332   123578399.250 4  96294874.958 3
        24.900          19.300
  20949183.869    20949183.598    20949179.074   110088775.608 7  85783479.854 7
        45.000          42.000
  23644897.122    23644896.535    23644896.151   124254782.770 4  96821908.563 3
        24.900          21.100
  20272592.679    20272592.508    20272590.029   106533232.584 7  83012919.774 7
        47.000          43.000
  23209366.988    23209366.708    23209364.260   121966079.585 4  95038513.333 3
        27.100          19.900
  22230770.072    22230768.631    22230765.240   116823561.054 6  91031363.652 5
        41.000          35.100
 10  1  1  1 21 30.0000000  0 11G14G32G 6G27G18G11G22G 3G26G 9G19
  20476783.084    20476782.629    20476779.636   107606255.968 7  83849044.736 7
        43.000          47.000
  24262182.134    24262180.809    24262180.729   127498608.933 3  99349563.927 1
        19.300           6.500
  23718507.130    23718507.053    23718505.182   124641626.476 4  97123356.428 2
        25.900          17.000
  24830624.571    24830624.199    24830622.266   130485820.160 3 101677271.514 1
        22.100           9.000
  23349107.040    23349107.058    23349104.086   122700434.835 4  95610739.720 3
        28.100          19.300
  23498606.913    23498606.534    23498603.471   123486091.479 4  96222946.859 3
        25.900          19.300
  20958065.051    20958064.904    20958060.418   110135447.957 7  85819847.923 7
        45.000          42.000
  23663322.477    23663321.787    23663321.136   124351607.528 4  96897356.419 2
        28.100          17.000
  20280950.650    20280950.409    20280948.036   106577154.031 7  83047144.285 7
        47.000          43.000
  23218342.477    23218342.335    23218339.340   122013247.276 4  95075267.371 2
        25.900          13.900
  22240389.784    22240388.524    22240385.168   116874114.949 7  91070756.287 5
        42.000          34.000
 10  1  1  1 22  0.0000000  0 11G14G32G 6G27G18G11G22G 3G26G 9G19
  20473518.463    20473517.907    20473514.847   107589099.442 7  83835676.020 7
        43.000          47.000
  24245687.619    24245686.892    24245685.796   127411929.997 3  99282021.966 1
        22.100          11.000
  23736608.722    23736608.105    23736606.596   124736747.630 4  97197476.824 2
        25.900          17.000
  24842124.112    24842123.761    24842121.767   130546251.433 2 101724360.814 2
        16.100          12.600
  23364910.137    23364909.441    23364906.566   122783476.311 4  95675447.366 2
        27.100          17.800
  23481093.015    23481092.974    23481090.571   123394059.631 3  96151233.750 3
        23.000          19.900
  20967000.985    20967000.756    20966996.201   110182405.861 7  85856438.501 7
        45.000          42.000
  23681779.851    23681779.598    23681778.175   124448602.525 5  96972936.940 2
        30.100          16.100
  20289427.340    20289427.280    20289424.960   106621700.546 7  83081855.861 7
        47.000          43.000
  23227442.158    23227441.689    23227438.991   122061064.924 4  95112527.894 2
        24.900          17.000
  22250105.456    22250104.225    22250100.572   116925170.329 7  91110539.690 5
        42.000          34.000
 10  1  1  1 22 30.0000000  0 11G14G32G 6G27G18G11G22G 3G26G 9G19
  20470356.216    20470355.792    20470352.796   107572482.798 7  83822727.989 7
        43.000          47.000
  24229212.222    24229211.721    24229210.652   127325354.478 2  99214560.573 2
        17.000          15.100
  23754736.632    23754736.235    23754735.095   124832010.644 4  97271707.736 2
        24.900          17.000
  24853698.179    24853698.173    24853696.449   130607075.776 3 101771756.405 1
        19.300           9.000
  23380736.785    23380736.099    23380733.095   122866647.572 4  95740256.124 2
        25.900          16.100
  23463632.449    23463632.190    23463629.171   123302299.293 4  96079732.223 3
        27.100          19.900
  20975989.775    20975989.482    20975984.917   110229641.681 7  85893245.631 7
        45.000          42.000
  23700269.328    23700268.379    23700266.161   124545757.965 4  97048642.495 2
        29.000          16.100
  20298021.641    20298021.476    20298019.134   106666863.347 7  83117047.658 7
        47.000          43.000
  23236663.562    23236663.082    23236661.180   122109524.138 4  95150288.320 2
        27.100          17.800
  22259914.561    22259913.254    22259909.966   116976718.563 6  91150707.137 5
        41.000          34.000
 10  1  1  1 23  0.0000000  0 11G14G32G 6G27G18G11G22G 3G26G 9G19
  20467295.822    20467295.364    20467292.478   107556400.723 7  83810196.507 7
        43.000          47.000
  24212755.703    24212754.540    24212754.341   127238877.777 3  99147176.197 2
        21.100          13.900
  23772890.297    23772890.031    23772887.879   124927408.083 4  97346043.386 2
        25.900          17.000
  24865345.273    24865345.715    24865344.795   130668286.429 3 101819453.049 1
        19.300           9.000
  23396587.899    23396587.288    23396583.571   122949942.774 4  95805161.466 2
        28.100          16.100
  23446221.885    23446221.950    23446218.967   123210807.916 4  96008440.247 3
        27.100          22.100
  20985030.154    20985030.006    20985025.351   110277149.849 7  85930264.989 7
        46.000          42.000
  23718785.342    23718784.883    23718783.272   124643065.708 4  97124466.702 2
        25.900          17.000
  20306731.641    20306731.497    20306729.129   106712634.765 7  83152713.702 7
        47.000          43.000
  23246006.192    23246005.730    23246003.522   122158617.930 4  95188543.238 2
        25.900          17.800
  22269816.362    22269815.115    22269811.457   117028752.185 6  91191252.810 5
        41.000          34.000
 10  1  1  1 23 30.0000000  0 11G14G32G 6G27G18G11G22G 3G26G 9G19
  20464339.520    20464339.052    20464336.235   107540865.556 7  83798091.188 7
        43.000          47.000
  24196321.412    24196320.947    24196319.570   127152512.981 3  99079879.022 2
        22.100          15.100
  23791070.859    23791070.641    23791069.041   125022949.216 4  97420491.044 2
        28.100          17.000
  24877070.788    24877070.149    24877068.255   130729893.889 3 101867458.858 2
        19.300          13.900
  23412463.850    23412463.644    23412460.356   123033373.690 4  95870172.589 2
        27.100          15.100
  23428865.430    23428865.318    23428862.599   123119600.095 4  95937369.245 3
        24.900          21.100
  20994125.009    20994124.733    20994119.930   110324942.199 7  85967505.786 6
        46.000          41.000
  23737332.331    23737332.318    23737330.828   124740535.307 3  97200417.011 2
        23.800          13.900
  20315559.559    20315559.409    20315556.920   106759025.241 7  83188862.129 7
        47.000          43.000
  23255470.781    23255470.545    23255468.312   122208357.246 3  95227301.129 3
        23.800          19.300
  22279812.111    22279811.015    22279807.731   117081281.886 6  91232185.042 5
        41.000          34.000
 10  1  1  1 24  0.0000000  0 11G14G32G 6G27G18G11G22G 3G26G 9G19
  20461484.735    20461484.231    20461481.408   107525863.202 7  83786401.045 7
        43.000          47.000
  24179905.302    24179904.947    24179903.703   127066246.440 3  99012658.447 2
        22.100          17.000
  23809275.899    23809275.713    23809273.934   125118617.418 4  97495037.703 2
        25.900          15.100
  24888865.068    24888864.647    24888863.838   130791882.374 3 101915761.560 1
        19.900           9.000
  23428363.559    23428362.866    23428359.988   123116925.869 4  95935278.161 3
        27.100          19.900
  23411561.842    23411561.471    23411557.974   123028664.143 4  95866510.102 3
        25.900          19.300
  21003270.716    21003270.506    21003265.769   110373003.809 7  86004956.394 6
        46.000          41.000
  23755908.079    23755907.602    23755906.684   124838149.632 4  97276480.089 2
        24.900          13.900
  20324502.026    20324501.854    20324499.432   106806018.568 7  83225480.311 7
        47.000          43.000
  23265056.157    23265055.615    23265052.586   122258726.174 4  95266549.659 2
        27.100          13.900
  22289899.882    22289898.529    22289895.339   117134291.674 6  91273491.365 5
        41.000          34.000
 10  1  1  1 24 30.0000000  0 11G14G32G 6G27G18G11G22G 3G26G 9G19
  20458732.802    20458732.386    20458729.539   107511402.184 7  83775132.725 7
        43.000          47.000
  24163510.288    24163509.503    24163508.739   126980087.812 3  98945521.888 2
        23.000          17.800
  23827506.721    23827506.191    23827504.881   125214418.632 3  97569688.002 3
        23.000          19.300
  24900736.889    24900736.278    24900734.914   130854258.940 3 101964366.717
        19.900           3.000
  23444287.632    23444287.123    23444283.865   123200607.439 4  96000484.562 3
        27.100          19.900
  23394309.902    23394310.022    23394306.819   122938011.706 4  95795871.855 2
        24.900          17.000
  21012469.427    21012469.119    21012464.343   110421343.060 7  86042623.350 6
        45.000          41.000
  23774512.830    23774512.083    23774511.273   124935914.550 4  97352660.529 2
        27.100          17.000
  20333560.282    20333560.277    20333557.924   106853621.268 7  83262573.331 7
        47.000          43.000
  23274761.889    23274761.606    23274758.465   122309731.539 4  95306294.106 2
        27.100          13.900
  22300079.590    22300078.638    22300075.130   117187788.416 6  91315177.131 5
        41.000          34.000
 10  1  1  1 25  0.0000000  0 11G14G32G 6G27G18G11G22G 3G26G 9G19
  20456083.466    20456083.070    20456080.147   107497479.698 7  83764284.039 7
        43.000          47.000
  24147135.254    24147134.206    24147133.810   126894034.734 4  98878467.591 2
        24.900          17.800
  23845759.767    23845759.921    23845759.951   125310347.215 3  97644437.548 3
        22.100          19.300
  24912679.296    24912678.556    24912679.296   130917019.173 3 102013270.787
        21.100           3.000
  23460236.133    23460235.523    23460231.943   123284414.960 4  96065789.104 3
        27.100          19.300
  23377114.080    23377113.974    23377110.335   122847642.206 4  95725454.058 2
        28.100          16.100
  21021720.391    21021720.022    21021715.310   110469956.855 7  86080504.233 6
        45.000          41.000
  23793144.548    23793143.737    23793142.934   125033824.496 4  97428954.002 2
        27.100          17.000
  20342733.985    20342733.841    20342731.529   106901828.246 7  83300137.213 7
        47.000          43.000
  23284587.677    23284587.452    23284585.117   122361368.882 4  95346531.006 2
        24.900          12.600
  22310351.838    22310350.711    22310347.445   117241767.144 6  91357238.461 5
        41.000          34.000
 10  1  1  1 25 30.0000000  0 11G14G32G 6G27G18G11G22G 3G26G 9G19
  20453537.335    20453536.939    20453534.042   107484100.025 7  83753858.326 7
        43.000          47.000
  24130780.407    24130779.691    24130779.319   126808092.126 4  98811499.385 2
        24.900          17.000
  23864039.553    23864039.154    23864039.181   125406405.010 4  97719287.754 3
        24.900          22.100
  24924695.487    24924694.972    24924693.238   130980165.306 3 102062475.584 2
        22.100          13.900
  23476207.890    23476207.715    23476204.350   123368352.284 4  96131194.820 2
        27.100          17.000
  23359972.269    23359971.975    23359968.741   122757562.054 4  95655261.740 2
        27.100          17.000
  21031024.018    21031023.778    21031019.067   110518848.608 7  86118601.708 6
        45.000          41.000
  23811803.945    23811803.515    23811802.608   125131880.935 4  97505361.615 3
        25.900          19.300
  20352022.977    20352022.774    20352020.447   106950641.676 7  83338173.661 7
        47.000          43.000
  23294534.977    23294534.719    23294532.933   122413640.952 4  95387262.489 2
        25.900          17.800
  22320715.672    22320714.478    22320711.116   117296230.007 6  91399677.044 5
        41.000          34.000
 10  1  1  1 26  0.0000000  0 11G14G32G 6G27G18G11G22G 3G26G 9G19
  20451093.006    20451092.493    20451089.547   107471253.921 7  83743848.380 7
        43.000          47.000
  24114445.547    24114445.029    24114444.041   126722251.637 4  98744610.769 2
        25.900          13.900
  23882340.610    23882340.689    23882340.287   125502580.086 4  97794229.349 3
        24.900          21.100
  24936782.683    24936782.595    24936780.704   131043686.579 3 102111972.669 1
        22.100          11.000
  23492203.035    23492202.887    23492199.974   123452409.803 4  96196694.172 3
        25.900          19.300
  23342884.516    23342884.503    23342880.972   122667764.979 5  95585290.005 2
        30.100          17.800
  21040378.929    21040378.688    21040374.066   110568008.904 7  86156908.436 6
        45.000          41.000
  23830488.780    23830488.427    23830487.436   125230071.744 4  97581873.894 2
        24.900          17.000
  20361424.871    20361424.881    20361422.538   107000050.389 7  83376673.959 7
        47.000          43.000
  23304601.415    23304600.875    23304598.860   122466536.776 4  95428480.026 2
        27.100          17.800
  22331169.701    22331168.251    22331164.953   117351166.070 6  91442484.363 5
        41.000          34.000
 10  1  1  1 26 30.0000000  0 11G14G32G 6G27G18G11G22G 3G26G 9G19
  20448750.792    20448750.336    20448747.516   107458946.246 7  83734257.988 7
        43.000          47.000
  24098130.552    24098129.960    24098129.261   126636518.696 4  98677805.909 1
        24.900          11.000
  23900665.590    23900665.305    23900664.494   125598874.780 3  97869264.160 3
        23.800          19.300
  24948941.774    24948941.942    24948940.069   131107585.982 2 102161764.419 1
        17.000          11.000
  23508222.604    23508222.117    23508219.166   123536591.439 4  96262290.248 2
        25.900          17.800
  23325852.473    23325852.098    23325847.825   122578258.519 5  95515544.703 2
        30.100          17.000
  21049785.727    21049785.492    21049780.771   110617441.931 7  86195427.681 6
        45.000          41.000
  23849200.500    23849199.779    23849198.815   125328399.556 3  97658492.948 2
        23.800          17.000
  20370940.922    20370940.793    20370938.374   107050056.659 7  83415639.889 7
        47.000          43.000
  23314786.130    23314785.621    23314783.609   122520059.315 4  95470185.899 2
        25.900          17.000
  22341714.310    22341713.002    22341709.949   117406578.216 6  91485662.647 5
        41.000          34.000
 10  1  1  1 27  0.0000000  0 11G14G32G 6G27G18G11G22G 3G26G 9G19
  20446511.177    20446510.780    20446507.986   107447177.460 7  83725087.512 7
        43.000          47.000
  24081836.298    24081835.812    24081835.424   126550894.790 3  98611086.038 2
        21.100          17.000
  23919012.240    23919012.236    23919010.553   125695287.260 3  97944390.745 1
        21.100          11.000
  24961173.956    24961173.692    24961171.505   131171862.675 2 102211850.149
        16.100           3.000
  23524266.493    23524265.884    23524262.587   123620897.970 4  96327983.633 2
        24.900          16.100
  23308875.714    23308875.036    23308871.607   122489045.643 4  95446028.187 3
        28.100          19.300
  21059244.314    21059244.184    21059239.626   110667148.396 7  86234159.993 6
        45.000          41.000
  23867936.590    23867936.062    23867935.337   125426862.025 4  97735216.941 2
        24.900          16.100
  20380570.140    20380570.073    20380567.781   107100659.329 7  83455070.543 7
        47.000          43.000
  23325089.820    23325089.678    23325086.936   122574207.483 4  95512379.285 2
        24.900          17.000
  22352348.853    22352347.853    22352344.715   117462465.339 6  91529211.042 5
        41.000          34.000
 10  1  1  1 27 30.0000000  0 11G14G32G 6G27G18G11G22G 3G26G 9G19
  20444373.964    20444373.458    20444370.522   107435945.563 7  83716335.391 7
        43.000          47.000
  24065563.803    24065563.214    24065562.665   126465378.675 3  98544450.088
        21.100
  23937379.945    23937379.624    23937379.220   125791812.664 3  98019605.355 1
        21.100           6.500
  24973476.476    24973475.833    24973474.527   131236512.891 3 102262226.952 1
        19.900          11.000
  23540331.945    23540331.794    23540328.473   123705326.736 4  96393772.265 2
        25.900          17.000
  23291954.703    23291954.103    23291950.962   122400126.775 4  95376740.814 3
        25.900          21.100
  21068754.669    21068754.432    21068749.843   110717125.084 7  86273102.871 6
        45.000          41.000
  23886699.088    23886697.897    23886696.393   125525453.856 3  97812041.747 2
        23.800          13.900
  20390312.236    20390312.147    20390309.818   107151854.046 7  83494962.539 7
        47.000          43.000
  23335511.759    23335511.773    23335509.278   122628977.535 4  95555057.243 2
        24.900          17.800
  22363073.434    22363072.320    22363069.294   117518823.119 6  91573126.185 5
        41.000          34.000
 10  1  1  1 28  0.0000000  0 11G14G32G 6G27G18G11G22G 3G26G 9G19
  20442338.967    20442338.453    20442335.542   107425251.861 7  83708002.643 7
        43.000          47.000
  24049310.817    24049310.632    24049309.653   126379972.499 3  98477899.846
        19.300
  23955770.169    23955769.891    23955768.667   125888449.892 4  98094907.093 1
        25.900           6.500
  24985849.750    24985849.496    24985847.889   131301536.500 2 102312894.696
        17.000
  23556422.181    23556421.662    23556418.084   123789878.596 4  96459656.833 2
        25.900          17.000
  23275091.175    23275090.961    23275087.375   122311506.250 4  95307685.875 3
        29.000          23.000
  21078316.518    21078316.318    21078311.819   110767373.574 7  86312257.542 6
        45.000          41.000
  23905484.311    23905483.545    23905482.677   125624174.149 3  97888966.643 1
        23.800          11.000
  20400166.957    20400166.724    20400164.292   107203640.293 7  83535315.464 7
        47.000          42.000
  23346053.248    23346052.845    23346050.830   122684369.077 4  95598219.503 2
        24.900          17.800
  22373888.463    22373887.190    22373883.260   117575651.407 6  91617407.961 5
        41.000          33.000
 10  1  1  1 28 30.0000000  0 11G14G32G 6G27G18G11G22G 3G26G 9G19
  20440406.263    20440405.834    20440402.934   107415095.747 7  83700088.792 7
        43.000          47.000
  24033079.367    24033079.169    24033078.543   126294676.453 3  98411435.417
        19.300           3.000
  23974180.100    23974179.846    23974178.278   125985195.912 4  98170293.626 2
        24.900          12.600
  24998294.787    24998294.073    24998291.725   131366930.933 2 102363851.391 1
        16.100          11.000
  23572535.233    23572534.607    23572531.181   123874553.103 4  96525636.948 2
        24.900          13.900
  23258283.327    23258283.501    23258280.931   122223186.199 4  95238865.083 3
        29.000          23.000
  21087930.008    21087929.837    21087925.305   110817892.804 7  86351623.178 6
        45.000          41.000
  23924293.748    23924293.295    23924292.593   125723019.359 4  97965988.891 2
        24.900          13.900
  20410133.347    20410133.290    20410130.852   107256015.097 7  83576127.002 7
        47.000          42.000
  23356710.885    23356710.810    23356709.521   122740380.013 3  95641864.375 3
        23.800          19.300
  22384791.205    22384789.777    22384786.304   117632947.385 6  91662054.168 5
        41.000          33.000
 10  1  1  1 29  0.0000000  0 11G14G32G 6G27G18G11G22G 3G26G 9G19
  20438576.357    20438575.845    20438572.862   107405478.521 7  83692594.856 7
        43.000          47.000
  24016870.098    24016869.994    24016868.933   126209492.555 3  98345058.393 2
        21.100          12.600
  23992611.280    23992610.921    23992609.250   126082049.333 3  98245763.821 2
        23.800          16.100
  25010809.192    25010808.690    25010807.125   131432695.927 3 102415096.816
        19.900           3.000
  23588671.539    23588671.082    23588667.710   123959350.690 3  96591712.984 2
        23.800          16.100
  23241534.725    23241534.537    23241530.817   122135169.945 4  95170280.996 2
        28.100          16.100
  21097595.316    21097595.128    21097590.593   110868683.545 7  86391200.384 6
        45.000          41.000
  23943126.385    23943126.361    23943125.872   125821988.467 4  98043107.652 2
        27.100          16.100
  20420212.005    20420211.900    20420209.448   107308977.819 7  83617396.663 7
        47.000          42.000
  23367487.092    23367486.893    23367484.524   122797009.228 4  95685991.025 2
        24.900          15.100
  22395783.080    22395781.618    22395778.505   117690710.374 6  91707064.275 5
        40.000          34.000
 10  1  1  1 29 30.0000000  0 11G14G32G 6G27G18G11G22G 3G26G 9G19
  20436847.141    20436846.604    20436843.588   107396391.128 7  83685513.776 7
        43.000          47.000
  24000679.685    24000679.482    24000678.538   126124412.875 3  98278762.563 2
        23.800          17.800
  24011059.690    24011059.325    24011058.639   126178999.093 3  98321309.052 3
        19.900          19.900
  25023392.143    25023391.827    25023390.515   131498821.091 3 102466622.937
        22.100           3.000
  23604829.735    23604829.046    23604825.840   124044262.351 4  96657877.925 2
        24.900          13.900
  23224842.956    23224842.418    23224838.861   122047451.927 5  95101929.289 3
        30.100          19.300
  21107310.331    21107310.193    21107305.584   110919736.652 7  86430982.028 6
        45.000          41.000
  23961981.502    23961980.958    23961979.852   125921069.743 4  98120313.843 2
        24.900          15.100
  20430400.401    20430400.185    20430397.730   107362517.402 7  83659115.824 7
        47.000          42.000
  23378379.155    23378378.790    23378376.059   122854246.230 3  95730591.293 2
        23.800          12.600
  22406861.290    22406860.185    22406857.294   117748929.656 6  91752429.952 5
        40.000          34.000
 10  1  1  1 30  0.0000000  0 11G14G32G 6G27G18G11G22G 3G26G 9G19
  20435221.306    20435220.758    20435217.743   107387847.400 7  83678856.331 7
        43.000          47.000
  23984513.089    23984512.267    23984511.348   126039452.420 4  98212559.632 3
        28.100          19.300
  24029529.727    24029529.023    24029527.820   126276056.620 3  98396938.241 2
        22.100          15.100
  25036046.356    25036045.903    25036045.127   131565318.683 3 102518439.281
        19.300
  23621012.875    23621011.968    23621008.838   124129301.855 4  96724142.452 2
        25.900          17.000
  23208210.609    23208210.228    23208206.867   121960048.608 4  95033822.807 3
        29.000          23.000
  21117078.078    21117077.828    21117073.154   110971065.919 7  86470978.865 6
        45.000          40.000
  23980859.240    23980858.505    23980858.245   126020274.436 3  98197616.198 1
        23.000          11.000
  20440700.523    20440700.374    20440697.979   107416645.676 7  83701293.704 7
        47.000          42.000
  23389389.363    23389388.985    23389386.560   122912103.566 3  95775674.955 2
        23.800          13.900
  22418029.671    22418028.313    22418025.391   117807617.637 6  91798160.830 5
        40.000          34.000
 10  1  1  1 30 30.0000000  0 11G14G32G 6G27G18G11G22G 3G26G 9G19
  20433696.457    20433696.013    20433692.976   107379834.944 7  83672612.867 7
        43.000          47.000
  23968366.646    23968365.672    23968364.085   125954599.461 4  98146440.453 3
        28.100          19.300
  24048016.482    24048016.254    24048014.455   126373206.783 3  98472639.665 1
        23.000           6.500
  25048768.937    25048768.440    25048767.055   131632174.679 2 102570534.875
        17.000
  23637216.070    23637215.830    23637213.077   124214456.295 4  96790496.555 2
        24.900          17.000
  23191636.463    23191636.126    23191632.784   121872950.490 5  94965954.175 3
        30.100          19.900
  21126895.998    21126895.720    21126890.824   111022658.426 7  86511180.820 6
        45.000          40.000
  23999757.982    23999757.428    23999756.828   126119587.808 3  98275003.237 2
        22.100          12.600
  20451110.189    20451109.984    20451107.447   107471348.045 7  83743918.931 7
        47.000          42.000
  23400514.842    23400514.526    23400511.871   122970567.100 4  95821230.948 2
        25.900          15.100
  22429284.292    22429282.794    22429279.545   117866759.393 6  91844245.308 5
        40.000          34.000
 10  1  1  1 31  0.0000000  0 11G14G32G 6G27G18G11G22G 3G26G 9G19
  20432273.979    20432273.605    20432270.774   107372361.399 7  83666789.331 7
        43.000          47.000
  23952241.656    23952240.414    23952239.652   125869862.252 4  98080411.489 3
        28.100          19.300
  24066521.725    24066521.623    24066520.310   126470454.655 3  98548417.243
        23.800
  25061560.061    25061559.644    25061558.128   131699395.050 2 102622914.397
        15.100
  23653443.594    23653443.462    23653440.448   124299732.581 4  96856945.594 1
        24.900          11.000
  23175122.566    23175121.882    23175117.697   121786167.328 5  94898330.914 3
        30.100          19.300
  21136764.685    21136764.641    21136759.989   111074521.224 7  86551593.394 6
        45.000          40.000
  24018678.525    24018677.979    24018677.611   126219014.621 3  98352478.688
        23.800           3.000
  20461629.571    20461629.515    20461627.129   107526629.732 7  83786995.577 7
        47.000          42.000
  23411756.422    23411755.932    23411753.351   123029642.251 4  95867263.518 2
        24.900          16.100
  22440625.720    22440624.538    22440621.050   117926360.924 6  91890688.043 5
        40.000          34.000
 10  1  1  1 31 30.0000000  0 11G14G32G 6G27G18G11G22G 3G26G 9G19
  20430952.262    20430951.833    20430948.939   107365414.847 7  83661376.441 7
        43.000          47.000
  23936136.566    23936135.452    23936133.948   125785230.265 4  98014464.534 3
        25.900          21.100
  24085043.740    24085043.362    24085041.370   126567786.406 4  98624260.178 2
        24.900          12.600
  25074418.255    25074417.843    25074416.767   131766966.516 3 102675567.482 2
        19.300          12.600
  23669692.943    23669692.292    23669688.845   124385119.368 3  96923480.735 1
        23.800           6.500
  23158665.414    23158665.406    23158661.738   121699690.365 4  94830946.280 2
        29.000          17.800
  21146683.308    21146683.111    21146678.368   111126642.755 7  86592207.575 6
        45.000          40.000
  24037617.921    24037617.338    24037616.528   126318540.583 4  98430031.375 2
        24.900          12.600
  20472256.891    20472256.797    20472254.549   107582477.094 7  83830513.004 7
        47.000          42.000
  23423111.693    23423111.270    23423108.942   123089315.683 4  95913762.322 2
        24.900          15.100
  22452052.400    22452051.242    22452047.791   117986408.729 6  91937478.524 5
        40.000          34.000
 10  1  1  1 32  0.0000000  0 11G14G32G 6G27G18G11G22G 3G26G 9G19
  20429732.321    20429731.835    20429728.858   107359003.044 7  83656380.238 7
        43.000          47.000
  23920051.915    23920050.864    23920050.940   125700711.921 3  97948606.145 3
        22.100          19.300
  24103581.111    24103581.153    24103579.913   126665207.140 3  98700172.460 2
        22.100          12.600
  25087344.990    25087344.568    25087342.546   131834895.070 3 102728498.796
        19.300           3.000
  23685964.108    23685963.013    23685959.833   124470623.834 3  96990107.583 2
        23.800          12.600
  23142270.642    23142270.009    23142266.359   121613530.173 4  94763808.449 3
        29.000          21.100
  21156652.277    21156652.059    21156647.494   111179030.330 7  86633029.062 6
        45.000          40.000
  24056576.745    24056576.157    24056576.745   126418170.880 4  98507665.375 2
        24.900          16.100
  20482993.237    20482993.024    20482990.604   107638895.666 7  83874475.530 7
        47.000          42.000
  23434582.524    23434581.963    23434579.424   123149593.196 4  95960731.809 2
        24.900          13.900
  22463565.217    22463564.056    22463560.746   118046908.120 6  91984620.899 5
        40.000          34.000
 10  1  1  1 32 30.0000000  0 11G14G32G 6G27G18G11G22G 3G26G 9G19
  20428614.170    20428613.717    20428610.743   107353127.548 7  83651801.937 7
        43.000          47.000
  23903990.753    23903990.187    23903989.380   125616309.979 3  97882838.490 2
        22.100          13.900
  24122137.768    24122137.389    24122136.218   126762716.445 3  98776153.699 3
        21.100          19.300
  25100339.047    25100338.770    25100337.521   131903180.891 2 102781708.494
        17.800
  23702257.066    23702256.646    23702253.421   124556247.584 4  97056827.374 2
        24.900          12.600
  23125935.915    23125935.391    23125932.392   121527691.292 5  94696921.024 3
        30.100          23.000
  21166672.333    21166672.030    21166667.419   111231685.436 7  86674059.022 6
        45.000          40.000
  24075555.408    24075554.872    24075553.850   126517904.740 3  98585380.035 2
        23.000          16.100
  20493837.933    20493837.701    20493835.376   107695885.058 7  83918882.852 7
        47.000          42.000
  23446167.850    23446167.006    23446164.718   123210474.920 4  96008172.111 2
        24.900          15.100
  22475163.832    22475162.511    22475159.185   118107859.257 6  92032115.288 5
        40.000          33.000
 10  1  1  1 33  0.0000000  0 11G14G32G 6G27G18G11G22G 3G26G 9G19
  20427596.958    20427596.553    20427593.534   107347782.097 7  83647636.658 7
        43.000          47.000
  23887950.951    23887950.286    23887949.208   125532019.440 3  97817157.586 2
        23.800          12.600
  24140708.393    24140707.718    24140707.317   126860305.745 3  98852197.289 2
        22.100          13.900
  25113399.718    25113399.450    25113398.820   131971816.381 2 102835190.725
        17.000
  23718572.912    23718572.257    23718568.620   124641984.223 4  97123635.127 2
        25.900          17.000
  23109660.376    23109660.288    23109658.064   121442170.238 4  94630281.242 3
        28.100          21.100
  21176742.150    21176741.783    21176736.947   111284601.734 7  86715292.503 6
        45.000          40.000
  24094552.058    24094551.607    24094550.975   126617733.431 3  98663168.599 2
        22.100          16.100
  20504789.643    20504789.523    20504787.130   107753437.207 7  83963728.685 6
        47.000          41.000
  23457866.039    23457865.507    23457864.201   123271953.035 4  96056077.139 3
        24.900          19.300
  22486846.831    22486845.605    22486842.366   118169254.131 6  92079955.436 5
        40.000          33.000
 10  1  1  1 33 30.0000000  0 11G14G32G 6G27G18G11G22G 3G26G 9G19
  20426681.873    20426681.389    20426678.499   107342973.247 7  83643889.511 7
        43.000          47.000
  23871934.099    23871933.411    23871931.774   125447847.132 4  97751568.814 2
        25.900          12.600
  24159294.457    24159294.155    24159292.896   126957978.667 3  98928306.039 1
        22.100           6.500
  25126529.029    25126528.677    25126527.755   132040806.111 3 102888948.937
        19.900
  23734910.205    23734909.724    23734906.209   124727839.816 4  97190535.583 2
        24.900          12.600
  23093448.745    23093448.849    23093445.871   121356975.829 4  94563896.004 3
        29.000          23.000
  21186862.304    21186862.130    21186857.491   111337785.104 7  86756734.094 6
        45.000          40.000
  24113567.839    24113567.114    24113566.922   126717660.655 3  98741033.936 2
        21.100          12.600
  20515849.413    20515849.226    20515846.669   107811555.927 7  84009016.009 6
        47.000          41.000
  23469679.673    23469679.415    23469677.263   123334031.262 4  96104449.778 2
        24.900          17.800
  22498614.998    22498613.667    22498610.619   118231096.480 6  92128144.263 5
        40.000          32.000
 10  1  1  1 34  0.0000000  0 11G14G32G 6G27G18G11G22G 3G26G 9G19
  20425868.167    20425867.756    20425864.899   107338697.666 7  83640557.897 7
        43.000          47.000
  23855938.411    23855937.928    23855936.478   125363791.086 4  97686070.636 1
        28.100          11.000
  24177895.749    24177895.928    24177894.421   127055730.223 3  99004476.130 1
        23.000           6.500
  25139723.258    25139722.729    25139722.191   132110145.342 3 102942979.531
        22.100
  23751270.268    23751269.668    23751266.266   124813811.060 3  97257526.157 2
        23.800          12.600
  23077299.026    23077298.770    23077296.426   121272107.991 4  94497765.231 3
        29.000          23.800
  21197033.245    21197032.982    21197028.245   111391232.563 7  86798381.471 6
        45.000          40.000
  24132601.519    24132600.966    24132600.228   126817680.998 4  98818971.873 1
        24.900           9.000
  20527015.899    20527015.700    20527013.301   107870236.242 7  84054740.932 6
        46.000          41.000
  23481606.216    23481605.993    23481603.250   123396705.215 4  96153286.643 3
        24.900          19.300
  22510467.725    22510466.270    22510462.810   118293381.918 6  92176678.365 5
        40.000          32.000
 10  1  1  1 34 30.0000000  0 11G14G32G 6G27G18G11G22G 3G26G 9G19
  20425155.097    20425154.612    20425151.726   107334950.020 7  83637637.663 7
        43.000          47.000
  23839964.502    23839963.921    23839962.243   125279847.366 4  97620659.970 2
        28.100          13.900
  24196510.753    24196510.569    24196509.587   127153552.968 3  99080701.640 1
        22.100           6.500
  25152984.040    25152983.476    25152983.027   132179827.364 3 102997277.240
        23.000
  23767650.729    23767650.403    23767647.081   124899892.977 3  97324602.962 2
        22.100          15.100
  23061211.670    23061211.395    23061208.320   121187564.734 5  94431887.384 3
        31.000          23.800
  21207252.981    21207252.819    21207248.109   111444938.863 7  86840230.537 6
        45.000          40.000
  24151650.611    24151650.217    24151649.687   126917787.442 4  98896976.936 1
        25.900          11.000
  20538287.938    20538287.708    20538285.261   107929470.888 7  84100897.804 6
        47.000          41.000
  23493644.375    23493644.011    23493641.374   123459968.007 4  96202582.311 2
        24.900          13.900
  22522403.099    22522401.805    22522398.596   118356103.534 6  92225552.336 5
        40.000          33.000
 10  1  1  1 35  0.0000000  0 11G14G32G 6G27G18G11G22G 3G26G 9G19
  20424542.774    20424542.348    20424539.513   107331732.895 7  83635130.821 7
        43.000          47.000
  23824011.993    23824011.443    23824010.765   125196019.500 4  97555339.576 3
        25.900          21.100
  24215139.437    24215138.580    24215138.103   127251446.559 3  99156982.380 1
        19.300           6.500
  25166308.587    25166308.126    25166307.464   132249853.274 2 103051842.876
        15.100
  23784052.871    23784052.777    23784049.519   124986087.493 3  97391767.508 2
        23.800          13.900
  23045186.288    23045185.885    23045182.878   121103351.413 5  94366266.635 4
        31.000          24.900
  21217522.641    21217522.404    21217517.830   111498906.328 7  86882283.110 6
        45.000          40.000
  24170716.563    24170715.909    24170714.824   127017979.315 3  98975048.532 1
        23.800          11.000
  20549665.444    20549665.327    20549662.690   107989260.298 7  84147486.958 6
        46.000          41.000
  23505794.972    23505794.459    23505792.310   123523820.473 3  96252337.483 1
        23.000           9.000
  22534421.811    22534420.585    22534417.621   118419261.738 6  92274766.511 5
        40.000          33.000
 10  1  1  1 35 30.0000000  0 11G14G32G 6G27G18G11G22G 3G26G 9G19
  20424032.234    20424031.736    20424028.792   107329049.333 7  83633039.738 7
        43.000          47.000
  23808083.143    23808082.590    23808081.986   125112311.583 3  97490112.693 3
        23.800          22.100
  24233782.042    24233781.369    24233780.740   127349412.437 2  99233319.423 3
        17.800          19.300
  25179700.361    25179700.161    25179698.880   132320224.742 2 103106677.801
        17.000
  23800478.156    23800477.258    23800473.977   125072398.304 3  97459022.679 2
        23.000          13.900
  23029224.723    23029224.416    23029221.048   121019473.620 5  94300907.318 3
        30.100          22.100
  21227842.378    21227842.249    21227837.675   111553137.760 7  86924541.370 6
        45.000          40.000
  24189798.923    24189798.558    24189797.318   127118257.511 4  99053187.376 1
        24.900           9.000
  20561148.786    20561148.568    20561146.033   108049605.383 7  84194509.105 6
        46.000          41.000
  23518057.954    23518057.566    23518056.297   123588263.640 3  96302552.959 2
        23.000          13.900
  22546524.178    22546522.661    22546519.487   118482857.814 6  92324321.878 5
        40.000          33.000
 10  1  1  1 36  0.0000000  0 11G14G32G 6G27G18G11G22G 3G26G 9G19
  20423621.591    20423621.137    20423618.064   107326891.391 7  83631358.233 7
        43.000          47.000
  23792174.716    23792174.262    23792174.416   125028716.649 3  97424973.865 3
        23.800          23.000
  24252435.854    24252435.773    24252435.199   127447440.380 3  99309704.783 3
        21.100          19.300
  25193155.881    25193154.530    25193153.498   132390932.207 1 103161774.523
         6.500
  23816923.044    23816922.425    23816919.202   125158816.793 3  97526361.721 2
        23.000          13.900
  23013326.783    23013326.254    23013322.498   120935926.443 5  94235805.632 3
        31.000          22.100
  21238211.084    21238210.911    21238206.250   111607625.247 7  86966999.155 6
        45.000          39.000
  24208896.339    24208895.503    24208893.967   127218611.785 3  99131385.502 2
        22.100          13.900
  20572735.629    20572735.574    20572733.180   108110496.138 7  84241956.450 6
        46.000          41.000
  23530432.493    23530431.934    23530429.781   123653287.610 4  96353220.971 2
        25.900          15.100
  22558706.977    22558705.742    22558702.498   118546881.992 6  92374210.839 5
        39.000          32.000
 10  1  1  1 36 30.0000000  0 11G14G32G 6G27G18G11G22G 3G26G 9G19
  20423312.604    20423312.108    20423309.084   107325267.512 7  83630092.880 7
        43.000          47.000
  23776290.841    23776290.238    23776289.497   124945244.240 4  97359930.498 3
        25.900          21.100
  24271102.999    24271102.803    24271102.228   127545536.076 3  99386142.971 3
        23.000          19.300
  25206675.365    25206674.855    25206672.726   132461982.585 2 103217138.435
        13.900
  23833389.387    23833389.392    23833385.766   125245351.432 3  97593791.316 1
        23.000          11.000
  22997492.877    22997492.577    22997489.417   120852721.161 5  94170970.368 3
        31.000          23.000
  21248629.991    21248629.870    21248625.257   111662376.980 7  87009662.844 6
        45.000          40.000
  24228007.937    24228007.661    24228007.372   127319048.372 3  99209647.736 2
        21.100          17.000
  20584428.065    20584427.876    20584425.318   108171939.014 7  84289834.020 6
        46.000          41.000
  23542917.184    23542916.967    23542914.786   123718899.126 4  96404346.849 2
        24.900          17.800
  22570973.134    22570971.953    22570968.441   118611340.729 6  92424438.407 5
        39.000          33.000
 10  1  1  1 37  0.0000000  0 11G14G32G 6G27G18G11G22G 3G26G 9G19
  20423103.679    20423103.160    20423100.207   107324169.494 7  83629237.291 8
        43.000          48.000
  23760428.652    23760427.890    23760427.843   124861887.574 3  97294977.284 3
        23.800          23.000
  24289780.676    24289780.891    24289779.922   127643690.127 3  99462626.637 2
        23.000          16.100
  25220259.535    25220259.341    25220256.495   132533366.589 1 103272762.318 1
         9.000           6.500
  23849877.267    23849876.844    23849873.252   125331994.229 3  97661305.169 1
        22.100          11.000
  22981724.130    22981723.755    22981719.817   120769852.814 5  94106397.619 3
        31.000          21.100
  21259097.860    21259097.685    21259093.010   111717385.134 7  87052526.345 6
        45.000          40.000
  24247133.683    24247133.354    24247132.166   127419556.816 3  99287965.965 1
        21.100           6.500
  20596223.121    20596223.129    20596220.652   108233923.915 7  84338133.945 6
        46.000          41.000
  23555512.423    23555511.908    23555510.405   123785088.379 3  96455922.877 1
        22.100          11.000
  22583320.146    22583318.797    22583315.620   118676224.190 6  92474996.944 5
        39.000          33.000
 10  1  1  1 37 30.0000000  0 11G14G32G 6G27G18G11G22G 3G26G 9G19
  20422994.316    20422993.883    20422991.007   107323595.584 7  83628790.096 8
        43.000          48.000
  23744589.410    23744588.422    23744586.979   124778645.948 4  97230113.754 3
        27.100          22.100
  24308469.659    24308469.421    24308468.361   127741898.078 3  99539152.316 2
        23.800          13.900
  25233906.899    25233906.170    25233904.112   132605080.730 2 103328643.485 1
        13.900           9.000
  23866384.902    23866384.404    23866381.993   125418743.498 3  97728901.996 2
        23.000          12.600
  22966018.758    22966018.572    22966015.356   120687322.517 5  94042088.312 3
        31.000          23.000
  21269614.183    21269613.944    21269609.258   111772648.210 7  87095588.485 6
        45.000          39.000
  24266272.271    24266272.226    24266271.995   127520132.772 3  99366336.821 1
        23.000           9.000
  20608120.887    20608120.803    20608118.531   108296447.162 7  84386853.359 6
        46.000          41.000
  23568217.470    23568217.064    23568214.406   123851851.664 3  96507946.219 1
        23.000           9.000
  22595747.250    22595745.919    22595742.460   118741528.772 6  92525883.613 5
        39.000          32.000
 10  1  1  1 38  0.0000000  0 11G14G32G 6G27G18G11G22G 3G26G 9G19
  20422985.871    20422985.437    20422982.542   107323551.295 7  83628755.588 8
        43.000          48.000
  23728771.555    23728770.789    23728769.438   124695525.919 4  97165344.962 3
        24.900          19.300
  24327168.570    24327168.434    24327167.516   127840163.393 3  99615722.670 1
        23.000           9.000
  25247616.121    25247616.528    25247614.144   132677129.110 1 103384785.057 1
         9.000           6.500
  23882913.663    23882913.568    23882910.865   125505604.548 3  97796585.897 2
        23.800          13.900
  22950379.088    22950378.936    22950375.892   120605138.502 5  93978048.820 3
        31.000          23.000
  21280179.655    21280179.492    21280174.711   111828170.845 7  87138852.878 6
        45.000          39.000
  24285426.106    24285425.277    24285424.703   127620779.598 3  99444762.939 1
        23.800           6.500
  20620121.595    20620121.551    20620119.286   108359511.828 7  84435994.662 6
        46.000          41.000
  23581031.950    23581031.408    23581029.657   123919192.653 3  96560419.724 1
        19.900           9.000
  22608255.010    22608253.889    22608250.565   118807258.061 6  92577101.221 5
        39.000          32.000
 10  1  1  1 38 30.0000000  0 11G14G32G 6G27G18G11G22G 3G26G 9G19
  20423077.007    20423076.557    20423073.796   107324030.669 7  83629129.137 8
        43.000          48.000
  23712977.064    23712976.027    23712974.747   124612522.846 4  97100667.311 3
        25.900          19.900
  24345877.407    24345877.159    24345876.103   127938478.377 2  99692331.789
        17.800
  25261388.900    25261388.578    25261387.080   132749504.465 2 103441181.437 2
        12.600          12.600
  23899463.515    23899463.012    23899460.193   125592571.557 3  97864352.389 1
        23.000           9.000
  22934805.985    22934805.694    22934802.288   120523297.959 5  93914276.984 3
        31.000          23.000
  21290793.572    21290793.297    21290788.747   111883947.502 7  87182315.209 6
        45.000          39.000
  24304590.619    24304590.036    24304589.554   127721489.005 3  99523237.789 1
        23.800           6.500
  20632224.156    20632223.939    20632221.813   108423110.301 7  84485551.916 6
        46.000          41.000
  23593954.820    23593954.408    23593952.346   123987103.633 3  96613337.388 2
        22.100          12.600
  22620842.272    22620841.079    22620837.991   118873404.370 6  92628643.792 5
        39.000          33.000
 10  1  1  1 39  0.0000000  0 11G14G32G 6G27G18G11G22G 3G26G 9G19
  20423270.251    20423269.700    20423266.920   107325045.634 7  83629920.024 8
        43.000          48.000
  23697206.568    23697205.727    23697203.982   124529649.906 4  97036091.054 2
        28.100          15.100
  24364597.372    24364597.032    24364596.053   128036852.752 2  99768987.213
        17.000
  25275225.237    25275225.435    25275224.463   132822217.270 2 103497840.771 2
        16.100          15.100
  23916034.742    23916034.340    23916032.108   125679656.720 3  97932210.940 1
        19.300           9.000
  22919299.994    22919299.414    22919296.514   120441816.019 4  93850784.568 3
        28.100          23.000
  21301458.309    21301457.993    21301453.339   111939990.387 7  87225984.992 6
        44.000          39.000
  24323768.157    24323767.738    24323767.281   127822271.354 3  99601769.535
        19.900
  20644429.910    20644429.847    20644427.479   108487252.247 7  84535532.657 6
        46.000          41.000
  23606988.513    23606988.438    23606985.949   124055594.753 3  96666707.063 2
        23.800          17.800
  22633510.441    22633509.286    22633506.270   118939977.814 6  92680519.192 5
        39.000          32.000
 10  1  1  1 39 30.0000000  0 10G14G32G 6G18G11G22G 3G26G 9G19
  20423561.842    20423561.414    20423558.566   107326578.600 7  83631114.548 8
        43.000          48.000
  23681457.537    23681456.807    23681455.170   124446890.874 5  96971603.511 2
        30.100          12.600
  24383323.726    24383324.097    24383323.756   128135266.949 2  99845673.573
        17.000           3.000
  23932625.414    23932625.022    23932623.108   125766842.600 3  98000147.970
        19.300           3.000
  22903860.268    22903860.014    22903856.613   120360678.186 5  93787560.311 3
        31.000          22.100
  21312170.167    21312169.831    21312165.169   111996281.922 7  87269848.525 6
        44.000          39.000
  24342956.101    24342955.943    24342955.370   127923106.845 3  99680342.595
        22.100
  20656735.592    20656735.472    20656733.016   108551918.309 7  84585921.800 6
        46.000          40.000
  23620128.663    23620128.127    23620126.066   124124646.732 4  96720513.788 1
        24.900          11.000
  22646256.941    22646255.648    22646252.572   119006959.048 6  92732712.346 5
        39.000          32.000
 10  1  1  1 40  0.0000000  0 10G14G32G 6G18G11G22G 3G26G 9G19
  20423952.629    20423952.186    20423949.203   107328631.702 7  83632714.377 7
        43.000          47.000
  23665731.711    23665730.748    23665729.137   124364248.988 5  96907207.246 2
        30.100          13.900
  24402059.523    24402059.892    24402059.120   128233721.173 2  99922391.137 1
        17.800           9.000
  23949236.206    23949235.912    23949233.579   125854131.586 3  98068165.344
        22.100
  22888486.954    22888486.618    22888482.685   120279889.522 5  93724608.094 3
        33.000          23.800
  21322929.837    21322929.603    21322925.009   112052824.507 7  87313907.682 6
        44.000          39.000
  24362154.545    24362154.452    24362153.831   128023995.157 3  99758956.865 2
        22.100          12.600
  20669140.956    20669140.784    20669138.289   108617108.725 7  84636719.532 6
        46.000          40.000
  23633375.668    23633375.059    23633373.405   124194259.929 3  96774757.882 1
        23.000           9.000
  22659080.531    22659079.417    22659076.129   119074348.491 6  92785223.591 5
        39.000          31.000
 10  1  1  1 40 30.0000000  0 10G14G32G 6G18G11G22G 3G26G 9G19
  20424444.968    20424444.556    20424441.515   107331218.629 7  83634730.170 8
        43.000          48.000
  23650030.359    23650029.679    23650028.128   124281739.102 4  96842913.846 2
        28.100          13.900
  24420804.913    24420804.782    24420804.194   128332226.563 3  99999148.583 1
        21.100           9.000
  23965869.137    23965869.169    23965866.571   125941537.152 3  98136273.606
        21.100           3.000
  22873183.298    22873182.893    22873178.863   120199466.957 5  93661941.162 3
        33.000          23.000
  21333739.425    21333739.399    21333734.976   112109631.381 7  87358172.778 6
        44.000          39.000
  24381365.223    24381365.259    24381364.360   128124947.708 3  99837621.166 2
        22.100          12.600
  20681648.464    20681648.227    20681645.530   108682834.932 7  84687934.767 6
        46.000          40.000
  23646732.165    23646731.293    23646728.734   124264446.289 3  96829448.558 2
        23.800          15.100
  22671984.389    22671983.294    22671979.802   119142157.950 6  92838062.116 5
        39.000          31.000
 10  1  1  1 41  0.0000000  0 10G14G32G 6G18G11G22G 3G26G 9G19
  20425036.645    20425036.201    20425033.278   107334327.911 7  83637152.994 8
        43.000          48.000
  23634352.806    23634351.794    23634350.931   124199351.192 4  96778715.490 3
        28.100          19.300
  24439557.257    24439557.534    24439556.566   128430770.291 3 100075935.921 2
        23.000          17.000
  23982523.215    23982522.171    23982518.707   126029047.728 3  98204463.618
        22.100           3.000
  22857947.248    22857946.929    22857943.568   120119401.623 5  93599552.595 4
        32.000          24.900
  21344598.033    21344597.746    21344593.055   112166691.415 7  87402635.141 6
        44.000          39.000
  24400586.224    24400585.625    24400584.832   128225951.032 3  99916325.010 2
        23.800          16.100
  20694255.169    20694254.931    20694252.349   108749083.554 7  84739557.071 6
        46.000          40.000
  23660193.668    23660193.824    23660191.595   124335192.562 3  96884575.519 2
        23.800          17.800
  22684965.442    22684964.219    22684960.909   119210374.217 6  92891217.639 5
        38.000          31.000
 10  1  1  1 41 30.0000000  0 10G14G32G 6G18G11G22G 3G26G 9G19
  20425726.341    20425725.884    20425722.981   107337952.285 7  83639977.185 8
        43.000          48.000
  23618697.018    23618695.739    23618695.098   124117079.227 4  96714607.495 3
        25.900          19.900
  24458315.641    24458315.164    24458314.341   128529342.618 3 100152745.507 2
        19.900          16.100
  23999193.200    23999192.749    23999190.083   126116656.120 3  98272729.877 1
        22.100           9.000
  22842778.465    22842778.040    22842774.340   120039689.438 5  93537439.218 3
        32.000          23.800
  21355502.776    21355502.689    21355497.990   112223997.563 7  87447289.286 6
        44.000          39.000
  24419813.708    24419813.450    24419812.441   128326995.737 4  99995061.147 2
        24.900          13.900
  20706959.227    20706959.103    20706956.663   108815845.237 7  84791579.165 6
        46.000          40.000
  23673761.716    23673761.197    23673758.792   124406489.331 3  96940131.401 1
        22.100          11.000
  22698022.214    22698020.945    22698017.449   119278988.245 6  92944683.109 5
        38.000          31.000
 10  1  1  1 42  0.0000000  0 10G14G32G 6G18G11G22G 3G26G 9G19
  20426515.465    20426514.967    20426512.165   107342099.501 7  83643208.787 8
        43.000          48.000
  23603063.493    23603063.061    23603062.770   124034932.282 4  96650596.918 3
        24.900          19.300
  24477079.666    24477079.548    24477078.030   128627949.660 3 100229582.162 2
        19.300          12.600
  24015885.229    24015884.785    24015881.955   126204370.772 3  98341078.930 1
        19.900           9.000
  22827678.794    22827678.590    22827675.291   119960341.455 5  93475609.634 4
        32.000          25.900
  21366456.376    21366456.079    21366451.298   112281557.775 7  87492141.401 6
        44.000          39.000
  24439050.826    24439050.740    24439049.897   128428087.627 3 100073834.031
        23.000
  20719762.270    20719762.164    20719759.775   108883126.067 7  84844005.790 6
        46.000          40.000
  23687434.990    23687434.403    23687433.150   124478342.724 4  96996121.070
        24.900           3.000
  22711155.558    22711154.516    22711151.568   119348005.884 6  92998463.074 5
        38.000          32.000
 10  1  1  1 42 30.0000000  0 10G14G32G 6G18G11G22G 3G26G 9G19
  20427403.224    20427402.709    20427399.842   107346764.245 7  83646843.659 8
        43.000          48.000
  23587454.691    23587454.320    23587453.531   123952906.576 4  96586680.797 3
        25.900          22.100
  24495849.153    24495848.946    24495847.278   128726583.959 3 100306440.063
        19.900           3.000
  24032595.618    24032595.246    24032593.640   126292186.579 3  98409506.821
        23.000           3.000
  22812648.008    22812647.741    22812644.590   119881355.676 5  93414062.296 4
        33.000          24.900
  21377456.986    21377456.883    21377452.040   112339367.234 7  87537187.730 6
        44.000          38.000
  24458295.404    24458295.033    24458295.196   128529219.530 3 100152638.106 1
        23.000           6.500
  20732662.775    20732662.660    20732660.387   108950918.856 7  84896831.345 6
        46.000          40.000
  23701212.685    23701212.268    23701210.804   124550745.928 3  97052539.208
        22.100
  22724365.009    22724364.007    22724361.042   119417420.407 6  93052552.303 5
        38.000          32.000
 10  1  1  1 43  0.0000000  0 10G14G32G 6G18G11G22G 3G26G 9G19
  20428392.041    20428391.615    20428388.791   107351960.931 7  83650893.031 8
        43.000          48.000
  23571873.058    23571872.035    23571870.647   123871017.733 4  96522871.313 3
        28.100          23.800
  24514626.182    24514626.170    24514624.578   128825258.452 2 100383329.270
        17.000           3.000
  24049328.159    24049327.939    24049326.237   126380118.107 3  98478024.935
        21.100
  22797689.343    22797689.477    22797685.940   119802749.417 5  93352810.665 3
        33.000          23.000
  21388507.748    21388507.676    21388503.072   112397440.192 7  87582439.385 6
        44.000          38.000
  24477550.738    24477550.107    24477550.119   128630403.399 3 100231482.704
        19.900
  20745663.400    20745663.085    20745660.600   109019235.744 7  84950065.285 6
        45.000          40.000
  23715097.048    23715096.925    23715095.136   124623711.219 2  97109395.256 1
        17.800           9.000
  22737652.262    22737650.975    22737647.794   119487244.129 6  93106960.370 5
        38.000          32.000
 10  1  1  1 43 30.0000000  0 10G14G32G 6G18G11G22G 3G26G 9G19
  20429477.725    20429477.409    20429474.683   107357667.563 7  83655339.763 8
        43.000          48.000
  23556312.303    23556311.243    23556310.464   123789244.945 5  96459152.285 4
        30.100          25.900
  24533406.340    24533405.864    24533404.937   128923948.951 2 100460230.960
        17.800
  24066078.911    24066078.657    24066076.426   126468143.485 3  98546616.110 1
        19.300           6.500
  22782799.809    22782799.511    22782796.624   119724503.543 5  93291839.855 4
        32.000          27.100
  21399604.644    21399604.395    21399599.921   112455754.700 7  87627879.262 6
        44.000          38.000
  24496810.633    24496810.455    24496809.536   128731615.151 3 100310349.009
        21.100
  20758758.706    20758758.491    20758756.064   109088052.786 7  85003688.959 6
        45.000          40.000
  23729084.659    23729084.398    23729081.990   124697214.698 3  97166670.695
        22.100           3.000
  22751012.241    22751010.989    22751008.098   119557453.365 6  93161668.850 5
        37.000          32.000
 10  1  1  1 44  0.0000000  0 11G14G32G 6G31G18G11G22G 3G26G 9G19
  20430662.888    20430662.371    20430659.419   107363893.825 7  83660191.399 8
        43.000          48.000
  23540774.693    23540774.137    23540773.275   123707599.364 4  96395532.384 3
        29.000          23.800
  24552191.049    24552190.422    24552190.080   129022663.316 3 100537151.276
        19.300
  24496657.284    24496657.409    24496653.734   128730844.570 3 100309760.179 2
        22.100          16.100
  24082849.890    24082848.996    24082846.661   126556272.341 3  98615287.901
        19.300           3.000
  22767981.256    22767981.233    22767977.497   119646631.107 5  93231160.037 3
        33.000          23.000
  21410749.764    21410749.462    21410744.684   112514320.850 7  87673515.227 6
        44.000          38.000
  24516077.743    24516076.691    24516076.671   128832863.025 2 100389243.453 1
        13.900           9.000
  20771950.589    20771950.448    20771948.204   109157377.710 7  85057708.379 6
        45.000          40.000
  23743175.666    23743175.197    23743173.229   124771264.124 3  97224371.551 2
        23.000          12.600
  22764447.507    22764446.486    22764443.614   119628056.113 6  93216683.966 5
        38.000          32.000
 10  1  1  1 44 30.0000000  0 11G14G32G 6G31G18G11G22G 3G26G 9G19
  20431945.695    20431945.214    20431942.188   107370635.062 7  83665444.319 8
        43.000          48.000
  23525261.655    23525261.314    23525260.081   123626077.929 4  96332009.172 3
        29.000          19.300
  24570979.173    24570978.766    24570978.268   129121394.996 3 100614085.040
        19.300           3.000
  24475859.210    24475859.574    24475856.363   128621552.040 3 100224597.243 3
        21.100          19.300
  24099639.140    24099638.724    24099635.936   126644500.985 3  98684037.451 1
        21.100           6.500
  22753233.688    22753233.519    22753230.055   119569130.609 5  93170770.027 4
        33.000          24.900
  21421941.242    21421941.119    21421936.618   112573134.251 7  87719343.853 6
        44.000          38.000
  24535349.686    24535349.365    24535348.197   128934140.098 2 100468160.633
        17.800
  20785238.181    20785237.954    20785235.643   109227204.096 7  85112118.550 6
        45.000          39.000
  23757369.500    23757369.215    23757367.127   124845853.586 3  97282493.194 1
        22.100           9.000
  22777956.881    22777955.584    22777952.328   119699045.942 6  93272000.700 5
        38.000          32.000
 10  1  1  1 45  0.0000000  0 11G14G32G 6G31G18G11G22G 3G26G 9G19
  20433325.863    20433325.407    20433322.509   107377888.396 7  83671096.272 8
        43.000          48.000
  23509771.960    23509771.451    23509770.416   123544679.034 4  96268581.475 3
        28.100          19.900
  24589769.592    24589769.477    24589768.284   129220139.351 3 100691028.689
        19.900
  24455067.430    24455067.318    24455064.338   128512288.325 3 100139456.748 2
        21.100          13.900
  24116447.548    24116446.533    24116444.682   126732826.124 3  98752862.231
        19.900           3.000
  22738556.867    22738556.413    22738553.076   119492002.124 5  93110669.931 4
        34.000          25.900
  21433179.939    21433179.701    21433174.924   112632192.258 7  87765363.073 6
        44.000          38.000
  24554627.060    24554626.486    24554626.219   129035441.555 3 100547096.832
        19.300
  20798620.097    20798620.030    20798617.624   109297527.148 7  85166915.733 6
        45.000          39.000
  23771665.301    23771664.706    23771663.337   124920978.027 3  97341031.740
        22.100           3.000
  22791538.667    22791537.263    22791534.012   119770418.168 6  93327615.406 5
        38.000          31.000
 10  1  1  1 45 30.0000000  0 11G14G32G 6G31G18G11G22G 3G26G 9G19
  20434804.681    20434804.112    20434801.231   107385658.760 7  83677151.103 8
        43.000          48.000
  23494306.831    23494306.246    23494305.636   123463409.155 4  96205254.337 3
        28.100          22.100
  24608563.911    24608563.221    24608562.385   129318899.836 3 100767984.938
        19.900
  24434283.346    24434282.553    24434279.160   128403062.312 3 100054345.615 2
        21.100          12.600
  24133274.086    24133273.751    24133271.837   126821253.401 3  98821766.594
        21.100
  22723952.288    22723951.800    22723948.088   119415254.190 5  93050866.360 4
        34.000          24.900
  21444465.668    21444465.392    21444460.919   112691500.022 7  87811576.917 6
        44.000          38.000
  24573909.494    24573908.887    24573908.502   129136770.523 3 100626054.474
        22.100           3.000
  20812097.593    20812097.265    20812094.791   109368349.863 7  85222102.264 6
        45.000          39.000
  23786063.982    23786063.737    23786061.865   124996640.555 3  97399989.533
        21.100           3.000
  22805193.835    22805192.435    22805188.856   119842176.190 6  93383530.736 5
        38.000          31.000
 10  1  1  1 46  0.0000000  0 11G14G32G 6G31G18G11G22G 3G26G 9G19
  20436380.870    20436380.381    20436377.528   107393942.329 7  83683605.838 8
        44.000          48.000
  23478866.170    23478865.451    23478863.917   123382265.815 5  96142025.814 3
        30.100          19.900
  24627359.028    24627358.448    24627357.573   129417670.213 3 100844948.855
        19.300
  24413504.521    24413504.385    24413501.276   128293873.795 3  99969263.667 1
        22.100          11.000
  24150118.819    24150118.674    24150116.877   126909779.165 2  98890747.699 1
        17.800           6.500
  22709419.849    22709419.377    22709415.860   119338885.963 5  92991358.637 4
        33.000          24.900
  21455798.311    21455798.141    21455793.645   112751053.940 7  87857982.569 6
        44.000          38.000
  24593194.920    24593194.512    24593194.553   129238121.176 3 100705028.997
        21.100
  20825668.539    20825668.345    20825665.970   109439666.595 7  85277673.741 6
        45.000          39.000
  23800562.157    23800561.769    23800560.677   125072835.632 3  97459362.330 1
        21.100          11.000
  22818920.829    22818919.765    22818916.562   119914314.269 6  93439742.216 5
        38.000          31.000
 10  1  1  1 46 30.0000000  0 11G14G32G 6G31G18G11G22G 3G26G 9G19
  20438054.731    20438054.296    20438051.514   107402739.388 7  83690460.693 8
        43.000          48.000
  23463449.231    23463448.834    23463447.288   123301250.856 5  96078897.296 3
        30.100          19.300
  24646156.017    24646155.545    24646154.555   129516449.626 2 100921919.843
        17.800           3.000
  24392734.656    24392734.629    24392731.475   128184726.905 3  99884214.198 2
        23.000          17.800
  24166984.015    24166983.770    24166981.434   126998404.031 2  98959806.002 1
        15.100           6.500
  22694960.418    22694959.915    22694956.280   119262900.757 5  92932149.407 4
        33.000          24.900
  21467178.099    21467177.872    21467173.264   112810854.588 7  87904580.475 6
        44.000          38.000
  24612486.045    24612485.243    24612484.900   129339491.968 3 100784019.235
        23.000
  20839333.274    20839333.135    20839330.681   109511475.598 7  85333628.811 6
        45.000          39.000
  23815163.977    23815163.624    23815161.388   125149561.574 3  97519148.781 1
        23.000          11.000
  22832720.513    22832719.354    22832716.275   119986831.101 6  93496248.817 5
        37.000          30.100
 10  1  1  1 47  0.0000000  0 10G14G32G31G18G11G22G 3G26G 9G19
  20439826.961    20439826.282    20439823.324   107412050.493 7  83697716.104 8
        43.000          48.000
  23448056.935    23448056.176    23448055.735   123220366.177 5  96015870.314 3
        30.100          22.100
  24371973.533    24371973.493    24371970.032   128075625.913 4  99799200.452 3
        25.900          19.300
  24183868.014    24183867.910    24183865.518   127087128.832 3  99028942.177
        19.300
  22680574.524    22680574.077    22680570.357   119187302.602 5  92873241.768 4
        34.000          24.900
  21478605.290    21478604.903    21478600.190   112870902.880 7  87951371.349 6
        44.000          38.000
  24631779.544    24631779.012    24631778.968   129440881.447 3 100863024.043
        22.100
  20853091.339    20853091.310    20853088.796   109583775.471 7  85389966.380 6
        45.000          39.000
  23829863.301    23829863.566    23829862.079   125226817.229 1  97579347.981 1
        11.000          11.000
  22846591.926    22846590.688    22846587.298   120059725.506 6  93553049.647 5
        37.000          30.100
 10  1  1  1 47 30.0000000  0 10G14G32G31G18G11G22G 3G26G 9G19
  20441695.301    20441694.831    20441691.860   107421869.780 7  83705367.498 8
        43.000          48.000
  23432689.637    23432688.516    23432687.699   123139607.536 5  95952941.549 3
        30.100          23.000
  24351219.936    24351220.149    24351217.493   127966569.138 3  99714221.173 3
        23.000          19.900
  24200770.169    24200769.843    24200767.508   127175948.629 3  99098152.393 1
        19.900           6.500
  22666260.935    22666260.956    22666257.722   119112088.824 5  92814633.636 4
        33.000          25.900
  21490077.897    21490077.682    21490073.086   112931193.489 7  87998351.043 6
        44.000          38.000
  24651075.594    24651075.149    24651074.610   129542282.400 3 100942037.762 2
        21.100          13.900
  20866941.567    20866941.395    20866939.021   109656558.554 7  85446680.471 6
        45.000          39.000
  23844665.135    23844664.965    23844663.302   125304594.988 3  97639954.012 1
        19.300           9.000
  22860533.471    22860532.281    22860529.021   120132989.728 6  93610138.645 4
        36.000          29.000
 10  1  1  1 48  0.0000000  0 10G14G32G31G18G11G22G 3G26G 9G19
  20443661.787    20443661.295    20443658.400   107432204.175 7  83713420.278 8
        43.000          48.000
  23417347.509    23417346.764    23417345.525   123058983.467 4  95890117.651 3
        29.000          22.100
  24330476.894    24330477.609    24330474.955   127857567.394 3  99629284.802 3
        23.000          19.300
  24217690.211    24217690.654    24217688.115   127264870.048 2  99167441.781
        17.000
  22652023.677    22652023.463    22652020.151   119037269.552 5  92756332.928 4
        34.000          25.900
  21501598.429    21501598.152    21501593.467   112991733.831 7  88045525.333 6
        44.000          38.000
  24670374.978    24670374.098    24670373.563   129643699.680 2 101021064.218
        17.000
  20880884.656    20880884.595    20880882.051   109729829.983 7  85503775.086 6
        45.000          39.000
  23859566.653    23859566.355    23859564.037   125382899.931 3  97700970.849 1
        23.800           6.500
  22874546.910    22874545.869    22874542.445   120206629.200 6  93667520.038 5
        38.000          30.100
 10  1  1  1 48 30.0000000  0 10G14G32G31G18G11G22G 3G26G 9G19
  20445725.521    20445725.019    20445721.996   107443048.561 7  83721870.451 8
        44.000          48.000
  23402030.223    23402029.243    23402028.082   122978490.081 4  95827395.569 3
        29.000          22.100
  24309745.836    24309745.625    24309742.402   127748619.180 3  99544390.117 2
        23.000          16.100
  24234630.193    24234630.015    24234628.156   127353888.470 2  99236806.774
        12.600
  22637860.732    22637860.356    22637857.184   118962842.624 5  92698337.928 4
        34.000          24.900
  21513165.397    21513165.168    21513160.377   113052518.557 7  88092890.057 6
        44.000          38.000
  24689674.854    24689674.575    24689673.823   129745125.744 3 101100097.490
        19.900           3.000
  20894919.354    20894919.240    20894916.830   109803582.725 7  85561244.755 6
        45.000          39.000
  23874566.635    23874566.265    23874563.694   125461724.951 3  97762392.966 2
        23.000          13.900
  22888629.684    22888628.705    22888625.729   120280636.813 6  93725188.279 5
        37.000          31.000
 10  1  1  1 49  0.0000000  0 10G14G32G31G18G11G22G 3G26G 9G19
  20447885.851    20447885.262    20447882.216   107454400.783 7  83730716.344 8
        44.000          48.000
  23386736.797    23386736.568    23386735.215   122898127.184 5  95764775.172 3
        30.100          23.000
  24289024.649    24289024.558    24289020.796   127639726.597 3  99459538.749 1
        23.000           6.500
  24251588.975    24251587.753    24251586.657   127443002.522 2  99306246.295
        15.100
  22623772.742    22623772.515    22623769.145   118888809.456 5  92640649.748 4
        34.000          27.100
  21524778.632    21524778.414    21524773.669   113113546.309 7  88140444.155 6
        44.000          37.000
  24708976.866    24708976.507    24708976.350   129846557.404 2 101179135.173 1
        13.900           6.500
  20909044.931    20909044.750    20909042.245   109877812.833 7  85619086.400 6
        45.000          39.000
  23889664.398    23889663.892    23889662.367   125541066.434 3  97824217.485 2
        23.000          13.900
  22902782.811    22902781.248    22902778.045   120355009.249 6  93783140.808 5
        36.000          30.100
 10  1  1  1 49 30.0000000  0 10G14G32G31G18G11G22G 3G26G 9G19
  20450141.398    20450140.970    20450138.096   107466255.313 7  83739953.646 8
        44.000          48.000
  23371469.043    23371468.334    23371466.049   122817890.615 5  95702253.199 3
        30.100          19.900
  24268311.780    24268312.616    24268309.811   127530888.103 3  99374729.547 2
        23.000          16.100
  24268563.874    24268563.094    24268562.205   127532206.904 3  99375756.167
        19.300
  22609759.397    22609759.050    22609755.654   118815167.623 5  92583266.510 4
        35.100          27.100
  21536437.303    21536437.008    21536431.945   113174811.940 7  88188183.599 6
        44.000          37.000
  24728278.680    24728277.520    24728277.263   129947987.536 2 101258171.600
        12.600
  20923259.833    20923259.739    20923257.248   109952513.012 7  85677294.330 6
        45.000          39.000
  23904859.621    23904859.053    23904857.155   125620916.920 3  97886438.650 1
        22.100           9.000
  22917003.351    22917002.015    22916999.068   120429739.043 6  93841371.804 5
        36.000          31.000
 10  1  1  1 50  0.0000000  0 10G14G32G31G18G11G22G 3G26G 9G19
  20452493.659    20452493.242    20452490.294   107478616.163 7  83749585.481 8
        44.000          48.000
  23356225.314    23356224.818    23356222.707   122737785.754 5  95639833.844 3
        31.000          19.900
  24247612.611    24247613.616    24247609.894   127422111.089 4  99289968.266 2
        24.900          17.000
  24285557.710    24285557.079    24285555.550   127621505.472 3  99445339.484
        19.300
  22595821.312    22595820.932    22595817.819   118741924.366 5  92526193.839 4
        34.000          25.900
  21548141.393    21548141.250    21548136.405   113236319.566 7  88236111.623 6
        43.000          37.000
  24747579.777    24747579.372    24747578.754   130049417.775 2 101337208.128
        16.100           3.000
  20937564.448    20937564.458    20937562.103   110027685.136 7  85735870.014 6
        44.000          38.000
  23920152.504    23920151.937    23920149.836   125701278.485 3  97949058.055
        22.100           3.000
  22931292.518    22931291.230    22931287.835   120504828.297 6  93899882.895 5
        37.000          31.000
 10  1  1  1 50 30.0000000  0 10G14G32G31G18G11G22G 3G26G 9G19
  20454942.172    20454941.641    20454938.606   107491482.244 7  83759610.998 8
        44.000          48.000
  23341006.977    23341006.320    23341005.037   122657813.159 5  95577517.553 3
        30.100          23.000
  24226925.425    24226925.579    24226922.021   127313398.978 3  99205257.514 2
        23.800          15.100
  24302567.549    24302566.744    24302565.298   127710897.996 2  99514995.989
        15.100
  22581960.296    22581959.878    22581956.596   118669081.868 5  92469433.467 4
        35.100          27.100
  21559891.922    21559891.655    21559886.924   113298068.609 7  88284227.759 6
        43.000          37.000
  24766880.875    24766880.724    24766880.187   130150845.680 2 101416242.854
        15.100
  20951958.541    20951958.485    20951956.128   110103326.429 7  85794811.285 6
        44.000          38.000
  23935540.337    23935540.190    23935538.619   125782148.123 3  98012073.364
        19.300
  22945649.163    22945647.833    22945644.794   120580274.262 6  93958671.952 5
        37.000          30.100
 10  1  1  1 51  0.0000000  0 10G14G32G31G18G11G22G 3G26G 9G19
  20457485.367    20457485.029    20457482.162   107504848.593 7  83770026.338 8
        44.000          48.000
  23325812.408    23325811.840    23325811.451   122577969.736 4  95515301.937 3
        29.000          23.800
  24206250.134    24206250.426    24206247.392   127204750.796 3  99120596.601 2
        22.100          16.100
  24319595.669    24319595.394    24319593.320   127800380.179 2  99584722.331
        17.000
  22568174.724    22568174.264    22568170.886   118596638.526 5  92412984.135 4
        35.100          27.100
  21571687.270    21571687.168    21571682.438   113360054.810 7  88332528.695 6
        43.000          36.000
  24786180.387    24786179.415    24786179.685   130252264.594 2 101495270.619
        15.100
  20966440.860    20966440.569    20966438.378   110179430.224 7  85854112.938 6
        44.000          38.000
  23951025.336    23951024.945    23951023.063   125863519.153 3  98075479.364
        22.100           3.000
  22960072.728    22960071.584    22960068.254   120656070.579 6  94017733.995 5
        37.000          30.100
 10  1  1  1 51 30.0000000  0 10G14G32G31G18G11G22G 3G26G 9G19
  20460125.465    20460124.908    20460121.961   107518720.720 7  83780835.791 7
        44.000          47.000
  23310644.841    23310644.087    23310644.022   122498262.522 4  95453192.453 3
        29.000          23.000
  24185590.178    24185589.802    24185586.607   127096176.097 3  99035992.962 2
        23.000          16.100
  24336641.289    24336641.191    24336639.471   127889958.094 2  99654523.260
        17.000
  22554466.721    22554466.464    22554462.902   118524603.114 5  92356852.651 4
        35.100          27.100
  21583529.295    21583529.002    21583524.415   113422284.237 7  88381019.159 6
        43.000          37.000
  24805478.447    24805478.059    24805477.813   130353678.004 2 101574294.028
        15.100           3.000
  20981011.477    20981011.307    20981008.992   110255999.965 7  85913777.668 6
        44.000          38.000
  23966606.254    23966605.690    23966603.754   125945395.348 3  98139279.003 1
        23.000           6.500
  22974564.031    22974562.617    22974558.961   120732220.945 6  94077071.923 4
        36.000          29.000
 10  1  1  1 52  0.0000000  0  9G14G32G31G18G11G22G26G 9G19
  20462861.318    20462860.831    20462857.761   107533097.753 7  83792038.681 7
        44.000          47.000
  23295503.543    23295502.608    23295501.673   122418692.077 4  95391189.568 3
        29.000          23.000
  24164944.709    24164944.014    24164940.641   126987677.822 4  98951448.847 3
        25.900          19.300
  24353706.454    24353705.781    24353704.348   127979631.090 2  99724398.303
        16.100
  22540836.593    22540836.511    22540833.080   118452977.929 5  92301040.824 4
        34.000          27.100
  21595417.132    21595416.973    21595412.312   113484756.099 7  88429698.527 6
        43.000          37.000
  20995670.420    20995670.254    20995667.822   110333033.151 7  85973803.532 6
        44.000          38.000
  23982281.067    23982281.213    23982279.754   126027773.926 3  98203470.091 1
        19.300           6.500
  22989121.810    22989120.268    22989116.854   120808722.699 6  94136683.663 4
        36.000          29.000
 10  1  1  1 52 30.0000000  0  9G14G32G31G18G11G22G26G 9G19
  20465691.215    20465690.749    20465687.705   107547969.597 7  83803627.135 7
        44.000          47.000
  23280386.271    23280385.584    23280384.209   122339250.199 5  95329286.819 3
        31.000          23.800
  24144310.596    24144310.419    24144306.978   126879250.038 4  98866959.677 3
        27.100          21.100
  24370786.498    24370786.241    24370784.884   128069389.975 3  99794340.275
        19.300
  22527283.747    22527283.733    22527280.125   118381756.414 6  92245543.562 4
        36.000          27.100
  21607349.670    21607349.328    21607344.674   113547460.923 7  88478559.433 6
        42.000          37.000
  21010415.367    21010415.138    21010412.639   110410517.975 7  86034181.317 6
        44.000          37.000
  23998051.113    23998051.076    23998049.805   126110643.239 3  98268043.585
        21.100
  23003743.364    23003742.135    23003740.021   120885564.404 5  94196560.291 5
        35.100          30.100
 10  1  1  1 53  0.0000000  0  9G14G32G31G18G11G22G26G 9G19
  20468617.976    20468617.541    20468614.520   107563350.018 7  83815611.880 7
        44.000          47.000
  23265296.794    23265296.206    23265294.237   122259952.358 5  95267496.293 3
        32.000          23.000
  24123693.748    24123693.753    24123690.730   126770910.517 4  98782539.283 2
        25.900          17.800
  24387886.688    24387885.909    24387884.691   128159248.798 2  99864360.139
        17.800
  22513811.015    22513810.640    22513806.742   118310955.387 6  92190373.929 4
        36.000          27.100
  21619328.735    21619328.482    21619324.132   113610412.763 7  88527612.810 6
        42.000          37.000
  21025248.411    21025248.247    21025245.683   110488466.406 7  86094920.353 6
        43.000          37.000
  24013916.123    24013915.907    24013914.790   126194015.161 3  98333008.743
        21.100           3.000
  23018433.186    23018431.768    23018429.288   120962757.983 5  94256711.102 5
        35.100          30.100
 10  1  1  1 53 30.0000000  0  9G14G32G31G18G11G22G26G 9G19
  20471639.426    20471638.946    20471635.883   107579227.559 7  83827983.995 7
        44.000          47.000
  23250231.419    23250231.330    23250230.213   122180788.754 5  95205810.406 3
        31.000          23.800
  24103093.710    24103093.359    24103089.790   126662652.144 4  98698182.110 2
        28.100          17.800
  24405003.420    24405002.554    24405001.142   128249196.610 2  99934449.345
        17.000
  22500416.629    22500416.146    22500412.784   118240567.012 6  92135525.855 4
        36.000          28.100
  21631353.266    21631353.054    21631348.494   113673600.978 7  88576850.379 6
        43.000          37.000
  21040167.042    21040166.997    21040164.566   110566865.214 7  86156010.337 6
        44.000          37.000
  24029874.787    24029874.459    24029872.993   126277876.438 2  98398355.217 1
        16.100           9.000
  23033187.327    23033186.255    23033182.906   121040290.274 6  94317125.878 4
        37.000          29.000
 10  1  1  1 54  0.0000000  0  9G14G32G31G18G11G22G26G 9G19
  20474755.125    20474754.719    20474751.681   107595601.449 7  83840742.875 7
        44.000          47.000
  23235192.818    23235192.346    23235191.542   122101759.965 5  95144229.564 3
        30.100          23.800
  24082508.314    24082508.232    24082505.051   126554478.171 4  98613890.702 3
        24.900          19.300
  24422136.223    24422135.075    24422133.469   128339233.160 2 100004607.653
        12.600
  22487100.915    22487100.508    22487097.084   118170593.381 6  92081000.951 4
        36.000          27.100
  21643422.447    21643422.261    21643417.743   113737025.070 7  88626271.745 6
        43.000          37.000
  21055170.951    21055170.906    21055168.657   110645711.641 7  86217449.110 6
        44.000          37.000
  24045925.321    24045925.275    24045923.242   126362224.438 2  98464080.918 1
        13.900           6.500
  23048005.312    23048003.970    23048000.865   121118159.162 5  94377802.923 4
        35.100          29.000
 10  1  1  1 54 30.0000000  0  9G14G32G31G18G11G22G26G 9G19
  20477965.450    20477965.013    20477961.996   107612471.678 7  83853888.513 7
        44.000          47.000
  23220180.860    23220180.132    23220178.844   122022868.067 5  95082755.381 3
        32.000          23.800
  24061939.551    24061939.706    24061936.796   126446392.492 3  98529668.110 3
        23.000          21.100
  24439285.930    24439285.409    24439283.339   128429358.931 2 100074835.492
        12.600
  22473864.923    22473864.545    22473860.929   118101038.274 6  92026802.179 4
        36.000          27.100
  21655536.872    21655536.636    21655531.986   113800685.891 7  88675877.580 6
        43.000          37.000
  21070260.136    21070259.807    21070257.572   110725004.142 7  86279235.476 6
        44.000          37.000
  24062068.418    24062068.232    24062066.551   126447057.421 2  98530184.517
        12.600
  23062887.025    23062885.987    23062882.514   121196362.652 6  94438740.685 4
        37.000          29.000
 10  1  1  1 55  0.0000000  0  9G14G32G31G18G11G22G26G 9G19
  20481269.522    20481268.970    20481265.988   107629834.017 7  83867417.612 7
        44.000          47.000
  23205193.583    23205192.777    23205191.807   121944110.438 5  95021385.824 4
        32.000          25.900
  24041388.889    24041388.861    24041385.402   126338395.304 4  98445514.484 3
        24.900          21.100
  24456453.082    24456452.662    24456450.871   128519570.391 3 100145130.106
        19.300
  22460708.528    22460708.222    22460704.798   118031900.437 6  91972928.543 4
        36.000          28.100
  21667695.591    21667695.245    21667690.528   113864579.612 7  88725664.888 6
        43.000          37.000
  21085432.698    21085432.562    21085430.085   110804736.896 7  86341364.893 6
        44.000          37.000
  24078302.786    24078302.896    24078299.777   126532369.118 1  98596661.142 1
         9.000           9.000
  23077831.730    23077830.235    23077826.245   121274895.216 6  94499934.886 4
        36.000          27.100
 10  1  1  1 55 30.0000000  0  9G14G32G31G18G11G22G26G 9G19
  20484667.616    20484667.167    20484664.219   107647691.837 7  83881332.797 7
        44.000          47.000
  23190233.023    23190232.239    23190231.103   121865492.297 5  94960124.969 4
        32.000          25.900
  24020855.502    24020855.649    24020853.081   126230494.108 3  98361435.643 3
        23.800          21.100
  24473636.828    24473636.535    24473634.791   128609871.179 2 100215494.343
        16.100
  22447632.615    22447632.362    22447628.735   117963186.793 6  91919385.440 4
        36.000          27.100
  21679899.093    21679898.796    21679894.143   113928709.974 7  88775636.599 6
        43.000          36.000
  21100689.348    21100689.177    21100686.798   110884911.361 7  86403838.504 6
        43.000          37.000
  24094628.295    24094628.450    24094625.910   126618161.023 2  98663511.951 1
        13.900           6.500
  23092838.397    23092836.960    23092833.968   121353758.374 5  94561386.682 4
        35.100          28.100
 10  1  1  1 56  0.0000000  0  9G14G32G31G18G11G22G26G 9G19
  20488160.277    20488159.675    20488156.585   107666044.622 7  83895633.674 7
        44.000          47.000
  23175299.576    23175298.754    23175297.220   121787014.911 5  94898973.791 4
        32.000          25.900
  24000341.376    24000341.630    24000338.959   126122692.473 4  98277434.402 2
        25.900          17.000
  24490838.400    24490837.338    24490836.440   128700261.721 2 100285928.528
        15.100
  22434638.240    22434637.978    22434634.359   117894900.046 6  91866174.993 4
        36.000          27.100
  21692147.498    21692147.405    21692142.737   113993077.315 7  88825792.963 6
        43.000          36.000
  21116029.461    21116029.431    21116027.215   110965525.341 7  86466654.594 6
        43.000          37.000
  24111044.877    24111044.915    24111043.037   126704431.172 3  98730735.462 1
        19.300           9.000
  23107908.181    23107906.800    23107903.724   121432950.231 5  94623094.607 4
        35.100          29.000
 10  1  1  1 56 30.0000000  0  9G14G32G31G18G11G22G26G 9G19
  20491745.252    20491744.818    20491741.681   107684884.422 7  83910314.038 7
        44.000          47.000
  23160391.543    23160390.765    23160388.506   121708671.946 5  94837927.357 3
        32.000          22.100
  23979845.868    23979846.336    23979843.120   126014986.598 4  98193507.764 2
        27.100          17.800
  24508053.686    24508053.271    24508051.803   128790734.942 2 100356427.119
        12.600
  22421724.182    22421723.839    22421720.113   117827035.615 6  91813293.633 4
        36.000          28.100
  21704440.144    21704439.910    21704435.155   114057674.204 7  88876128.206 6
        43.000          36.000
  21131451.731    21131451.536    21131449.147   111046569.169 7  86529805.625 6
        43.000          37.000
  24127550.639    24127550.084    24127549.454   126791169.606 3  98798323.865 2
        19.300          12.600
  23123038.869    23123037.454    23123033.924   121512461.024 6  94685051.053 4
        36.000          28.100
 10  1  1  1 57  0.0000000  0  8G14G32G31G18G11G22G26G19
  20495423.178    20495422.610    20495419.522   107704211.364 7  83925373.998 7
        44.000          47.000
  23145508.736    23145508.285    23145506.196   121630465.443 5  94776987.235 3
        32.000          21.100
  23959370.745    23959370.479    23959366.097   125907381.087 4  98109659.311 2
        29.000          17.000
  24525285.189    24525285.228    24525283.565   128881291.420 2 100426990.544
        12.600
  22408890.769    22408890.456    22408886.321   117759597.095 6  91760744.136 4
        36.000          27.100
  21716776.044    21716775.943    21716771.447   114122501.235 7  88926642.774 6
        43.000          36.000
  21146955.412    21146955.298    21146952.853   111128041.444 7  86593290.515 6
        43.000          37.000
  23138229.689    23138228.169    23138225.259   121592289.442 5  94747255.000 4
        35.100          29.000
 10  1  1  1 57 30.0000000  0  8G14G32G31G18G11G22G26G19
  20499193.256    20499192.821    20499189.788   107724024.063 7  83940812.464 7
        44.000          47.000
  23130652.827    23130652.376    23130650.572   121552395.713 5  94716153.693 3
        33.000          23.800
  23938913.780    23938913.047    23938909.191   125799878.459 4  98025891.024 3
        29.000          19.300
  24542534.106    24542533.682    24542532.155   128971930.212   100497618.164
         3.000
  22396139.448    22396138.842    22396134.905   117692586.292 6  91708527.921 4
        37.000          27.100
  21729156.146    21729155.908    21729151.048   114187557.674 7  88977336.100 6
        43.000          36.000
  21162539.979    21162539.865    21162537.349   111209938.812 7  86657106.647 6
        43.000          37.000
  23153479.744    23153478.593    23153475.349   121672432.401 5  94809704.046 4
        35.100          28.100
 10  1  1  1 58  0.0000000  0  8G14G32G31G18G11G22G26G19
  20503057.534    20503057.243    20503054.204   107744331.727 7  83956636.623 7
        44.000          47.000
  23115825.099    23115824.215    23115822.423   121474473.856 5  94655435.379 3
        34.000          23.000
  23918477.699    23918477.723    23918474.569   125692492.225 4  97942213.487 3
        28.100          21.100
  24559799.614    24559798.999    24559797.399   129062661.558 2 100568317.888
        13.900
  22383470.967    22383470.778    22383467.130   117626015.844 6  91656654.840 4
        37.000          28.100
  21741581.178    21741581.114    21741576.491   114252853.582 7  89028216.031 6
        42.000          36.000
  21178206.845    21178206.653    21178204.308   111292268.844 7  86721259.918 6
        42.000          36.000
  23168791.940    23168790.634    23168787.725   121752897.526 5  94872404.122 4
        35.100          28.100
 10  1  1  1 58 30.0000000  0  8G14G32G31G18G11G22G26G19
  20507014.618    20507014.007    20507010.941   107765124.380 7  83972838.694 7
        44.000          47.000
  23101023.442    23101022.557    23101020.979   121396691.774 5  94594825.971 3
        33.000          23.800
  23898063.912    23898064.181    23898060.624   125585216.620 4  97858622.111 3
        28.100          19.900
  24577081.819    24577081.152    24577079.520   129153475.726 2 100639082.162
        12.600
  22370885.551    22370885.431    22370882.122   117559879.407 6  91605119.942 4
        37.000          29.000
  21754050.564    21754050.358    21754045.698   114318379.514 7  89079275.194 6
        42.000          36.000
  21193954.065    21193953.908    21193951.454   111375020.176 7  86785741.472 6
        43.000          37.000
  23184163.073    23184161.681    23184158.791   121833673.392 5  94935346.337 4
        35.100          29.000
 10  1  1  1 59  0.0000000  0  7G14G32G31G11G22G26G19
  20511063.816    20511063.383    20511060.320   107786403.820 7  83989420.077 7
        44.000          47.000
  23086248.725    23086248.205    23086246.629   121319052.854 5  94534328.144 3
        32.000          23.000
  23877672.243    23877671.925    23877668.522   125478057.724 4  97775121.675 3
        27.100          19.300
  22358383.543    22358383.368    22358380.683   117494181.653 6  91553926.907 5
        36.000          30.100
  21766563.708    21766563.640    21766559.063   114384137.649 7  89130515.297 5
        42.000          35.100
  21209781.085    21209781.024    21209778.579   111458192.516 7  86850551.090 6
        42.000          36.000
  23199593.999    23199592.556    23199589.218   121914759.879 5  94998530.608 4
        35.100          28.100
 10  1  1  1 59 30.0000000  0  7G14G32G31G11G22G26G19
  20515203.643    20515203.134    20515200.041   107808158.422 7  84006371.721 7
        44.000          47.000
  23071500.126    23071499.650    23071498.262   121241547.393 5  94473934.288 4
        33.000          25.900
  23857300.867    23857300.763    23857298.215   125371007.979 4  97691706.332 3
        27.100          23.800
  22345963.984    22345963.619    22345960.479   117428914.151 6  91503069.117 4
        36.000          29.000
  21779119.269    21779118.991    21779114.455   114450117.041 6  89181927.808 5
        41.000          35.100
  21225685.605    21225685.626    21225683.328   111541772.719 7  86915678.522 6
        42.000          36.000
  23215080.033    23215079.081    23215076.114   121996144.045 5  95061946.824 4
        35.100          28.100
                            4 18
RINEX FILE SPLICE                                           COMMENT
teqc  2009Mar23     WCDA Operator       20100102 00:08:43UTCCOMMENT
teqc  2009Mar23     WCDA Operator       20100101 03:07:04UTCCOMMENT
teqc  2009Mar23     WCDA Operator       20100101 03:07:03UTCCOMMENT
teqc  2009Mar23     WCDA Operator       20100101 03:07:03UTCCOMMENT
CONTACT gps@pgc.nrcan.gc.ca FOR ADDITIONAL INFORMATION      COMMENT
    P1 =    P1  TurboRogue; =    Y1  Benchmark              COMMENT
    L1 = L1(CA)                                             COMMENT
    P2 =    P2  TurboRogue; =    Y2  Benchmark              COMMENT
    L2 = L2(P2) TurboRogue; = L2(Y2) Benchmark              COMMENT
 SNR is mapped to RINEX snr flag value [0-9]                COMMENT
  L1 & L2: min(max(int(snr_dBHz/6), 0), 9)                  COMMENT
teqc windowed: start @ 2010 Jan  1 02:00:00.000             COMMENT
teqc windowed:  end  @ 2010 Jan  1 02:59:59.000             COMMENT
teqc windowed: start @ 2010 Jan  1 02:00:00.000             COMMENT
teqc windowed:  end  @ 2010 Jan  1 02:59:59.000             COMMENT
teqc windowed: start @ 2010 Jan  1 02:00:00.000             COMMENT
teqc windowed:  end  @ 2010 Jan  1 02:59:59.000             COMMENT
 10  1  1  2  0  0.0000000  0  7G14G32G31G11G22G26G19
  20519437.096    20519436.575    20519433.566   107830405.646 7  84023707.219 7
        44.000          47.000
  23056780.368    23056779.659    23056778.472   121164194.779 5  94413659.569 4
        32.000          24.900
  23836955.968    23836955.594    23836951.830   125264089.633 4  97608393.355 3
        28.100          21.100
  22333630.264    22333629.947    22333626.482   117364098.361 6  91452563.313 4
        38.000          29.000
  21791720.268    21791720.138    21791715.724   114516336.128 7  89233527.094 5
        42.000          35.100
  21241671.279    21241671.103    21241668.803   111625776.716 7  86981136.182 6
        42.000          36.000
  23230626.675    23230625.845    23230622.255   122077841.960 5  95125607.533 4
        34.000          27.100
 10  1  1  2  0 30.0000000  0  7G14G32G31G11G22G26G19
  20523761.963    20523761.495    20523758.486   107853133.248 7  84041417.040 7
        45.000          47.000
  23042087.842    23042087.384    23042085.708   121086984.745 5  94353495.897 4
        34.000          24.900
  23816632.590    23816632.710    23816629.773   125157294.709 4  97525176.549 3
        28.100          23.000
  22321379.872    22321379.711    22321376.561   117299725.199 6  91402402.410 4
        37.000          29.000
  21804364.824    21804364.606    21804360.091   114582783.100 6  89285303.954 6
        41.000          36.000
  21257734.787    21257734.637    21257732.313   111710190.744 7  87046913.351 6
        42.000          36.000
  23246230.364    23246229.221    23246226.213   122159839.487 5  95189501.685 4
        34.000          29.000
 10  1  1  2  1  0.0000000  0  7G14G32G31G11G22G26G19
  20528178.485    20528177.953    20528174.852   107876341.499 7  84059501.392 7
        44.000          47.000
  23027423.055    23027422.290    23027420.984   121009919.298 5  94293444.918 4
        34.000          28.100
  23796333.904    23796334.533    23796331.274   125050627.216 4  97442059.042 3
        29.000          21.100
  22309214.953    22309214.792    22309211.507   117235798.046 6  91352589.048 5
        37.000          30.100
  21817053.369    21817052.917    21817047.987   114649459.007 7  89337259.205 5
        42.000          35.100
  21273875.816    21273875.780    21273873.435   111795013.259 7  87113008.818 5
        42.000          35.100
  23261891.663    23261890.111    23261887.085   122242135.411 5  95253628.339 4
        33.000          29.000
