     2.10           OBSERVATION DATA    G (GPS)             RINEX VERSION / TYPE
teqc  2005Sep1                          20080101 01:04:38UTCPGM / RUN BY / DATE
Linux 2.4.20-8|Pentium IV|gcc|Linux|486/DX+                 COMMENT
ALGO CACS-ACP   883160   ALGONQUIN PARK  ONT  CANADA        MARKER NAME
40104M002                                                   MARKER NUMBER
-Unknown-           GEOD. SURVEY, NATURAL RESOURCES CANADA  OBSERVER / AGENCY
2048                AOA BENCHMARK ACT   3.3.32.2N           REC # / TYPE / VERS
386                 AOAD/M_T        NONE                    ANT # / TYPE
   918129.4000 -4346071.2000  4561977.8000                  APPROX POSITION XYZ
        0.1000        0.0000        0.0000                  ANTENNA: DELTA H/E/N
     1     1                                                WAVELENGTH FACT L1/2
     7    L1    L2    C1    P2    P1    S1    S2            # / TYPES OF OBSERV
    30.0000                                                 INTERVAL
L1 PHASE CENTRE  .110m ABOVE ARP                            COMMENT
L2 PHASE CENTRE  .128m ABOVE ARP                            COMMENT
where ARP is the Antenna Reference Point for HI measurement COMMENT
    P1 =    P1  TurboRogue; =    Y1  Benchmark              COMMENT
    L1 = L1(CA)                                             COMMENT
    P2 =    P2  TurboRogue; =    Y2  Benchmark              COMMENT
    L2 = L2(P2) TurboRogue; = L2(Y2) Benchmark              COMMENT
 SNR is mapped to RINEX snr flag value [0-9]                COMMENT
  L1 & L2: min(max(int(snr_dBHz/6), 0), 9)                  COMMENT
  2008     1     1     0     0    0.0000000     GPS         TIME OF FIRST OBS
                                                            END OF HEADER
 08  1  1  0  0  0.0000000  0  9G 6G21G18G24G 8G 7G15G10G26
 -10642172.895 5  -8292597.948 4  22766278.398    22766276.230    22766277.724
        31.800          28.800
 -21746103.689 7 -16945010.027 7  20888849.290    20888844.890    20888848.234
        45.700          42.500
  -6098863.810 6  -4752359.105 5  22541758.674    22541754.460    22541757.729
        36.700          31.000
 -21139142.281 7 -16472051.013 7  20539614.566    20539612.212    20539613.624
        45.500          44.800
  -3389410.675 3  -2641096.238 2  24283531.979    24283529.116    24283531.225
        22.600          16.100
 -12604683.317 5  -9821826.050 5  22563685.837    22563683.143    22563684.641
        34.500          30.800
 -22549893.151 7 -17571335.799 8  20390163.324    20390159.914    20390162.967
        47.600          50.700
  -7713338.170 5  -6010382.281 4  23119487.137    23119484.383    23119485.916
        30.100          26.500
 -24088428.402 7 -18770194.883 7  19903186.371    19903183.324    19903185.846
        47.000          46.300
 08  1  1  0  0 30.0000000  0  9G 6G21G18G24G 8G 7G15G10G26
 -10558735.059 5  -8227581.467 4  22782156.070    22782154.026    22782155.275
        31.600          28.800
 -21803022.852 7 -16989362.621 7  20878017.975    20878013.514    20878016.829
        45.700          42.700
  -6170817.917 6  -4808427.234 5  22528066.212    22528062.249    22528065.179
        36.400          31.500
 -21112064.175 7 -16450951.191 7  20544767.275    20544765.078    20544766.413
        45.600          44.600
  -3358790.892 3  -2617236.657 2  24289359.100    24289355.851    24289357.757
        19.900          17.000
 -12538787.091 5  -9770478.352 5  22576225.430    22576222.804    22576224.218
        34.600          30.400
 -22558921.830 7 -17578371.129 8  20388445.285    20388441.761    20388444.886
        47.600          50.600
  -7625884.087 4  -5942236.260 4  23136128.780    23136126.221    23136127.725
        28.400          26.500
 -24074756.544 7 -18759541.482 7  19905788.165    19905784.998    19905787.587
        46.900          46.200
 08  1  1  0  1  0.0000000  0  9G 6G21G18G24G 8G 7G15G10G26
 -10475008.892 5  -8162340.335 4  22798088.386    22798086.375    22798087.575
        30.400          28.100
 -21859560.421 7 -17033417.869 7  20867259.126    20867254.721    20867258.063
        45.700          42.600
  -6242605.453 5  -4864365.550 5  22514405.297    22514401.570    22514404.128
        35.400          32.100
 -21084550.135 7 -16429511.679 7  20550002.989    20550000.806    20550002.114
        45.500          44.600
  -3327610.697 3  -2592940.402 2  24295293.016    24295289.722    24295291.616
        23.000          17.000
 -12472513.787 5  -9718836.828 5  22588836.603    22588834.100    22588835.412
        34.000          31.000
 -22567397.070 7 -17584975.204 8  20386832.468    20386828.914    20386832.079
        47.700          50.600
  -7538331.216 4  -5874013.250 4  23152789.973    23152786.997    23152788.783
        29.700          27.100
 -24060406.900 7 -18748359.934 7  19908518.767    19908515.629    19908518.224
        47.100          46.200
 08  1  1  0  1 30.0000000  0  9G 6G21G18G24G 8G 7G15G10G26
 -10390997.307 5  -8096876.786 4  22814075.473    22814073.261    22814074.726
        30.400          27.600
 -21915714.252 7 -17077174.099 7  20856573.579    20856568.992    20856572.468
        45.900          42.700
  -6314225.745 6  -4920173.547 5  22500776.897    22500772.390    22500775.847
        36.600          31.600
 -21056599.698 7 -16407732.113 7  20555321.845    20555319.499    20555320.871
        45.400          44.400
  -3295871.084 3  -2568208.238 2  24301332.480    24301329.096    24301331.445
        22.100          15.100
 -12405865.856 5  -9666903.394 5  22601519.290    22601516.870    22601518.191
        34.000          30.800
 -22575319.207 7 -17591148.290 8  20385324.896    20385321.431    20385324.528
        47.600          50.600
  -7450681.203 4  -5805714.539 4  23169469.204    23169466.350    23169468.116
        29.200          26.500
 -24045380.881 7 -18736651.343 7  19911378.155    19911375.031    19911377.540
        46.800          46.300
 08  1  1  0  2  0.0000000  0  9G 6G21G18G24G 8G 7G15G10G26
 -10306703.157 5  -8031193.060 4  22830116.531    22830113.943    22830115.424
        31.500          26.500
 -21971482.516 7 -17120629.888 7  20845961.259    20845956.714    20845960.214
        46.000          42.900
  -6385678.373 6  -4975850.922 5  22487179.582    22487175.252    22487178.603
        36.600          31.300
 -21028213.097 7 -16385612.682 7  20560723.420    20560721.294    20560722.617
        45.300          44.400
  -3263572.967 3  -2543040.872 2  24307478.722    24307474.930    24307477.632
        21.100          12.600
 -12338845.744 5  -9614679.948 5  22614273.007    22614270.520    22614271.857
        34.500          31.100
 -22582688.560 7 -17596890.640 8  20383922.589    20383919.096    20383922.187
        47.600          50.700
  -7362934.436 4  -5737340.459 4  23186166.628    23186163.860    23186165.430
        28.800          26.500
 -24029679.560 7 -18724416.544 7  19914366.072    19914362.899    19914365.426
        46.800          46.200
 08  1  1  0  2 30.0000000  0  9G 6G21G18G24G 8G 7G15G10G26
 -10222129.187 5  -7965291.277 4  22846210.301    22846207.720    22846209.602
        32.100          27.900
 -22026862.441 7 -17163783.075 7  20835422.962    20835418.238    20835421.834
        46.000          42.800
  -6456962.868 6  -5031397.260 5  22473614.784    22473610.724    22473613.826
        37.600          32.300
 -20999390.549 7 -16363153.556 7  20566208.226    20566206.052    20566207.339
        45.200          44.400
  -3230717.393 3  -2517439.110 2  24313730.699    24313727.827    24313729.865
        22.100          16.100
 -12271456.029 5  -9562168.495 5  22627096.530    22627094.435    22627095.540
        34.300          31.600
 -22589505.590 7 -17602202.603 8  20382625.343    20382621.868    20382624.943
        47.700          50.700
  -7275091.703 4  -5668891.595 4  23202882.288    23202879.585    23202881.447
        29.000          27.100
 -24013304.416 7 -18711656.686 7  19917482.087    19917478.964    19917481.477
        46.800          46.200
 08  1  1  0  3  0.0000000  0  9G 6G21G18G24G 8G 7G15G10G26
 -10137278.214 5  -7899173.650 4  22862356.483    22862354.531    22862355.729
        31.000          28.400
 -22081852.771 7 -17206632.685 7  20824958.504    20824953.905    20824957.424
        45.700          42.800
  -6528078.680 6  -5086812.171 5  22460082.031    22460077.516    22460081.006
        37.700          31.800
 -20970131.886 7 -16340354.600 7  20571776.202    20571773.750    20571775.202
        45.300          44.300
  -3197305.247 3  -2491403.669 1  24320089.085    24320085.293    24320088.044
        23.400          11.000
 -12203699.026 5  -9509370.860 5  22639990.424    22639987.974    22639989.210
        33.900          31.300
 -22595770.499 7 -17607084.347 8  20381433.145    20381429.706    20381432.762
        47.500          50.800
  -7187154.173 4  -5600368.852 4  23219616.296    23219613.927    23219615.334
        29.500          26.200
 -23996256.615 7 -18698372.681 7  19920726.050    19920723.095    19920725.540
        46.700          46.100
 08  1  1  0  3 30.0000000  0  9G 6G21G18G24G 8G 7G15G10G26
 -10052153.097 5  -7832842.424 4  22878555.212    22878553.309    22878554.399
        30.400          28.400
 -22136451.347 7 -17249177.034 7  20814568.632    20814564.178    20814567.562
        45.900          42.900
  -6599025.486 6  -5142095.387 5  22446580.728    22446576.666    22446579.775
        36.600          31.800
 -20940436.945 7 -16317215.681 7  20577426.840    20577424.485    20577426.017
        45.600          44.300
  -3163337.672 3  -2464935.419 1  24326552.706    24326549.637    24326551.842
        22.100          11.000
 -12135577.405 5  -9456289.100 5  22652953.129    22652951.378    22652952.047
        33.400          31.100
 -22601483.673 7 -17611536.163 8  20380346.011    20380342.547    20380345.556
        47.600          50.800
  -7099122.439 4  -5531772.714 4  23236368.597    23236365.828    23236367.407
        28.600          26.800
 -23978537.595 7 -18684565.649 7  19924097.998    19924094.968    19924097.378
        46.800          46.200
 08  1  1  0  4  0.0000000  0  9G 6G21G18G24G 8G 7G15G10G26
  -9966756.642 4  -7766299.771 4  22894805.987    22894803.839    22894805.237
        28.800          28.100
 -22190655.517 7 -17291414.045 7  20804253.792    20804249.458    20804252.800
        45.900          43.100
  -6669802.446 6  -5197246.253 5  22433112.655    22433108.711    22433111.684
        37.300          32.700
 -20910305.723 7 -16293736.809 7  20583160.533    20583158.352    20583159.695
        45.400          44.400
  -3128815.747 3  -2438035.215 1  24333121.753    24333118.912    24333121.100
        21.600           9.000
 -12067093.555 5  -9402925.076 5  22665985.886    22665983.329    22665984.641
        34.000          30.600
 -22606645.876 7 -17615558.656 8  20379363.743    20379360.201    20379363.299
        47.800          50.800
  -7010997.635 4  -5463104.056 4  23253138.054    23253135.241    23253136.825
        28.800          26.800
 -23960148.710 7 -18670236.645 7  19927597.245    19927594.235    19927596.639
        46.600          46.300
 08  1  1  0  4 30.0000000  0  9G 6G21G18G24G 8G 7G15G10G26
  -9881091.822 4  -7699547.993 4  22911107.233    22911105.210    22911106.364
        29.000          27.600
 -22244463.321 7 -17333342.205 7  20794014.763    20794010.159    20794013.629
        45.800          43.100
  -6740409.210 6  -5252264.489 5  22419676.189    22419672.614    22419675.347
        37.200          32.700
 -20879738.410 7 -16269918.127 7  20588977.249    20588975.147    20588976.422
        45.200          44.400
  -3093740.330 3  -2410703.717 2  24339796.681    24339793.051    24339795.785
        23.000          16.100
 -11998250.088 5  -9349280.846 5  22679085.911    22679084.029    22679084.629
        32.100          30.800
 -22611257.453 7 -17619152.089 8  20378486.177    20378482.587    20378485.789
        47.800          50.700
  -6922780.400 4  -5394363.376 4  23269925.298    23269922.431    23269924.182
        29.000          26.200
 -23941091.191 7 -18655386.626 7  19931223.736    19931220.699    19931223.124
        46.600          46.100
 08  1  1  0  5  0.0000000  0  9G 6G21G18G24G 8G 7G15G10G26
  -9795161.238 5  -7632589.110 4  22927459.560    22927457.536    22927458.779
        30.200          26.500
 -22297872.831 7 -17374960.000 7  20783851.262    20783846.616    20783850.125
        45.700          43.100
  -6810845.336 6  -5307149.770 5  22406273.092    22406268.656    22406272.046
        37.500          32.100
 -20848735.068 7 -16245759.687 7  20594877.238    20594874.879    20594876.266
        45.200          44.400
  -3058112.691 3  -2382941.915 2  24346575.970    24346572.937    24346575.124
        19.900          15.100
 -11929049.558 5  -9295358.376 5  22692254.754    22692252.657    22692253.593
        32.400          31.500
 -22615318.461 7 -17622316.506 8  20377713.316    20377709.767    20377712.976
        47.700          50.700
  -6834471.926 4  -5325551.603 4  23286729.909    23286726.925    23286728.766
        28.600          26.200
 -23921366.504 7 -18640016.736 7  19934977.196    19934974.128    19934976.623
        46.600          46.100
 08  1  1  0  5 30.0000000  0  9G 6G21G18G24G 8G 7G15G10G26
  -9708967.806 4  -7565425.409 4  22943861.429    22943859.612    22943860.772
        29.200          28.400
 -22350881.646 7 -17416265.570 7  20773763.924    20773759.383    20773762.842
        45.900          43.200
  -6881110.585 6  -5361901.911 5  22392902.044    22392897.873    22392901.058
        37.700          32.800
 -20817295.653 7 -16221261.449 7  20600859.920    20600857.555    20600858.979
        45.100          44.100
  -3021933.866 3  -2354750.625 2  24353460.924    24353457.966    24353460.267
        21.100          12.600
 -11859494.365 5  -9241159.563 5  22705490.577    22705488.374    22705489.534
        33.100          30.400
 -22618829.969 7 -17625052.740 8  20377045.054    20377041.560    20377044.651
        47.800          50.700
  -6746072.506 4  -5256668.956 4  23303551.943    23303548.890    23303550.745
        27.600          26.200
 -23900976.064 7 -18624128.075 7  19938857.451    19938854.303    19938856.876
        46.800          46.100
 08  1  1  0  6  0.0000000  0  9G 6G21G18G24G 8G 7G15G10G26
  -9622514.561 4  -7498059.289 4  22960312.706    22960311.230    22960312.010
        28.100          28.400
 -22403487.783 7 -17457257.365 7  20763753.367    20763748.699    20763752.281
        45.900          43.200
  -6951203.966 6  -5416520.107 5  22379563.541    22379559.597    22379562.712
        37.900          32.800
 -20785420.120 7 -16196423.378 7  20606925.538    20606923.294    20606924.618
        45.100          44.000
  -2985204.764 3  -2326130.552 2  24360449.888    24360446.990    24360449.034
        19.300          15.100
 -11789587.155 5  -9186686.432 5  22718793.557    22718791.100    22718792.439
        32.700          30.100
 -22621792.412 7 -17627361.137 8  20376481.275    20376477.814    20376480.896
        47.700          50.700
  -6657583.235 4  -5187716.301 4  23320391.296    23320388.116    23320389.876
        29.000          26.800
 -23879921.395 7 -18607721.839 7  19942864.009    19942860.900    19942863.425
        46.700          46.200
 08  1  1  0  6 30.0000000  0  9G 6G21G18G24G 8G 7G15G10G26
  -9535804.153 4  -7430492.770 4  22976813.852    22976811.451    22976812.923
        29.200          27.100
 -22455689.181 7 -17497933.779 7  20753819.751    20753815.117    20753818.621
        45.800          43.400
  -7021125.140 6  -5471004.133 5  22366258.247    22366253.735    22366257.294
        38.400          32.400
 -20753108.727 7 -16171245.676 7  20613074.185    20613072.001    20613073.294
        45.000          44.100
  -2947926.666 3  -2297082.676 1  24367543.667    24367541.039    24367542.764
        18.600          11.000
 -11719330.549 5  -9131941.057 4  22732162.872    22732160.268    22732161.900
        33.200          29.200
 -22624206.152 7 -17629241.967 8  20376021.996    20376018.460    20376021.608
        47.700          50.600
  -6569005.053 4  -5118694.350 4  23337246.970    23337243.816    23337245.671
        28.600          25.900
 -23858203.988 7 -18590799.179 7  19946996.656    19946993.552    19946996.073
        46.600          46.100
 08  1  1  0  7  0.0000000  0  9G 6G21G18G24G 8G 7G15G10G26
  -9448839.590 5  -7362728.195 4  22993362.767    22993360.366    22993361.878
        30.100          26.500
 -22507483.722 7 -17538293.157 7  20743963.483    20743958.987    20743962.450
        45.900          43.600
  -7090873.781 6  -5525353.705 5  22352985.002    22352981.304    22352984.128
        37.500          33.000
 -20720361.432 7 -16145728.310 7  20619305.992    20619303.586    20619305.020
        45.100          44.000
  -2910100.768 3  -2267607.943 2  24374742.210    24374738.440    24374741.027
        19.900          12.600
 -11648726.973 5  -9076925.289 4  22745597.612    22745595.787    22745596.598
        31.600          29.000
 -22626071.556 8 -17630695.524 8  20375667.199    20375663.483    20375666.725
        48.000          50.500
  -6480338.612 4  -5049603.645 4  23354119.540    23354116.431    23354118.391
        28.400          27.100
 -23835825.183 7 -18573361.144 7  19951255.269    19951252.114    19951254.680
        46.600          46.100
 08  1  1  0  7 30.0000000  0  9G 6G21G18G24G 8G 7G15G10G26
  -9361623.706 5  -7294767.773 4  23009959.393    23009956.476    23009958.451
        30.100          26.500
 -22558869.388 7 -17578333.933 7  20734185.233    20734180.614    20734184.134
        45.900          43.700
  -7160449.554 6  -5579568.580 5  22339745.834    22339741.347    22339744.708
        37.800          33.200
 -20687178.555 7 -16119871.531 7  20625620.383    20625618.093    20625619.422
        45.100          44.000
  -2871728.008 3  -2237707.086 2  24382043.916    24382040.569    24382043.129
        19.300          15.100
 -11577779.061 5  -9021641.234 4  22759099.131    22759097.166    22759098.049
        32.600          29.900
 -22627389.558 8 -17631722.532 8  20375416.308    20375412.699    20375415.947
        48.100          50.600
  -6391585.079 4  -4980445.062 4  23371008.112    23371005.789    23371007.287
        27.600          26.200
 -23812786.828 7 -18555409.176 7  19955639.219    19955636.181    19955638.624
        46.600          46.100
 08  1  1  0  8  0.0000000  0  9G 6G21G18G24G 8G 7G15G10G26
  -9274159.223 4  -7226613.650 4  23026602.739    23026600.856    23026602.085
        29.000          26.200
 -22609843.744 7 -17618054.206 7  20724485.228    20724480.492    20724484.099
        45.800          43.700
  -7229851.856 6  -5633648.289 5  22326538.653    22326534.214    22326537.589
        37.700          32.100
 -20653560.218 7 -16093675.435 7  20632017.677    20632015.466    20632016.776
        45.100          44.100
  -2832810.062 3  -2207381.416 2  24389449.927    24389446.930    24389449.167
        20.500          15.100
 -11506489.493 5  -8966090.929 5  22772664.613    22772663.173    22772663.550
        31.300          30.100
 -22628160.740 8 -17632323.449 8  20375269.483    20375265.961    20375269.203
        48.100          50.600
  -6302744.836 4  -4911218.933 4  23387913.918    23387911.866    23387912.920
        27.400          26.200
 -23789090.178 7 -18536944.252 7  19960148.455    19960145.534    19960147.907
        46.600          46.000
 08  1  1  0  8 30.0000000  0  9G 6G21G18G24G 8G 7G15G10G26
  -9186449.185 4  -7158268.199 4  23043293.785    23043291.681    23043292.967
        27.900          26.800
 -22660405.415 7 -17657452.908 7  20714863.387    20714858.864    20714862.361
        45.700          43.600
  -7299080.024 6  -5687592.298 5  22313364.833    22313360.777    22313363.856
        38.000          33.100
 -20619506.528 7 -16067140.105 7  20638497.986    20638495.698    20638497.101
        45.200          43.900
  -2793347.997 3  -2176631.754 2  24396959.467    24396956.061    24396958.480
        22.100          17.000
 -11434860.768 5  -8910276.378 4  22786296.113    22786293.558    22786294.869
        32.800          29.700
 -22628385.576 8 -17632498.641 8  20375226.922    20375223.153    20375226.405
        48.000          50.500
  -6213818.790 4  -4841925.918 4  23404836.347    23404833.710    23404835.166
        27.600          26.200
 -23764736.818 7 -18517967.602 7  19964782.787    19964779.816    19964782.235
        46.600          46.100
 08  1  1  0  9  0.0000000  0  9G 6G21G18G24G 8G 7G15G10G26
  -9098496.264 4  -7089733.485 4  23060030.798    23060028.623    23060029.760
        29.500          27.100
 -22710551.937 7 -17696528.116 7  20705320.930    20705316.368    20705319.860
        45.900          43.700
  -7368133.419 6  -5741400.124 5  22300224.675    22300220.279    22300223.646
        38.400          33.100
 -20585017.131 7 -16040265.258 7  20645061.186    20645058.832    20645060.210
        45.100          43.900
  -2753342.786 3  -2145458.868 2  24404572.453    24404569.103    24404571.308
        21.100          13.900
 -11362895.501 5  -8854199.560 4  22799990.129    22799987.772    22799988.937
        31.500          28.800
 -22628064.755 8 -17632248.646 8  20375287.793    20375284.192    20375287.408
        48.000          50.600
  -6124807.803 4  -4772566.735 4  23421774.869    23421771.399    23421773.639
        27.600          25.600
 -23739728.533 7 -18498480.625 7  19969541.646    19969538.741    19969541.122
        46.600          46.000
 08  1  1  0  9 30.0000000  0  9G 6G21G18G24G 8G 7G15G10G26
  -9010303.540 4  -7021011.910 4  23076812.893    23076810.953    23076812.138
        29.500          27.400
 -22760281.068 7 -17735278.085 7  20695857.727    20695853.187    20695856.670
        45.800          43.800
  -7437011.416 6  -5795071.282 5  22287117.597    22287113.176    22287116.568
        38.500          33.100
 -20550092.689 7 -16013051.417 7  20651706.943    20651704.734    20651706.030
        45.000          43.900
  -2712795.975 3  -2113863.939 2  24412288.461    24412284.779    24412287.183
        22.600          13.900
 -11290596.360 5  -8797862.599 4  22813748.845    22813746.057    22813747.488
        32.800          29.200
 -22627198.773 7 -17631573.851 8  20375452.461    20375448.990    20375452.108
        47.800          50.600
  -6035712.927 4  -4703142.173 4  23438729.095    23438726.092    23438727.605
        26.500          24.900
 -23714066.840 7 -18478484.494 7  19974425.055    19974421.970    19974424.424
        46.600          46.000
 08  1  1  0 10  0.0000000  0  9G 6G21G18G24G 8G 7G15G10G26
  -8921873.731 4  -6952105.586 4  23093641.147    23093638.687    23093640.267
        29.500          25.900
 -22809590.882 7 -17773701.316 7  20686474.454    20686469.793    20686473.363
        45.800          43.800
  -7505714.383 6  -5848606.054 5  22274043.644    22274039.595    22274042.816
        38.900          34.000
 -20514733.281 7 -15985498.644 7  20658435.620    20658433.436    20658434.690
        45.000          43.800
  -2671708.770 3  -2081847.928 1  24420105.813    24420103.239    24420105.306
        21.100          11.000
 -11217965.954 5  -8741267.490 4  22827569.199    22827567.436    22827567.829
        31.000          29.700
 -22625788.369 7 -17630474.829 8  20375720.901    20375717.385    20375720.515
        47.800          50.700
  -5946534.694 4  -4633652.659 4  23455698.606    23455695.980    23455697.465
        27.100          25.300
 -23687753.469 7 -18457980.566 7  19979432.256    19979429.184    19979431.672
        46.600          45.800
 08  1  1  0 10 30.0000000  0  9G 6G21G18G24G 8G 7G15G10G26
  -8833209.871 4  -6883016.875 4  23110512.676    23110510.481    23110512.017
        28.100          24.600
 -22858479.079 7 -17811796.010 7  20677171.355    20677166.766    20677170.285
        45.900          44.000
  -7574241.270 6  -5902003.612 5  22261003.417    22260999.361    22261002.497
        38.600          33.600
 -20478938.897 7 -15957606.926 7  20665247.120    20665244.837    20665246.199
        45.300          43.700
  -2630082.623 3  -2049411.950 2  24428027.920    24428024.283    24428026.734
        19.900          15.100
 -11145006.840 5  -8684416.270 4  22841453.481    22841450.787    22841452.256
        33.200          29.200
 -22623834.343 7 -17628952.209 8  20376092.729    20376089.203    20376092.384
        47.700          50.600
  -5857273.834 4  -4564098.775 4  23472684.353    23472681.988    23472683.480
        27.100          25.300
 -23660790.175 7 -18436970.203 7  19984563.163    19984560.167    19984562.606
        46.500          45.700
 08  1  1  0 11  0.0000000  0  9G 6G21G18G24G 8G 7G15G10G26
  -8744314.662 4  -6813747.909 4  23127429.516    23127427.154    23127428.666
        26.800          25.600
 -22906943.852 7 -17849560.768 7  20667948.793    20667944.263    20667947.768
        46.000          44.200
  -7642591.387 6  -5955263.430 5  22247996.700    22247992.609    22247995.904
        39.100          33.600
 -20442709.813 7 -15929376.478 7  20672141.358    20672138.944    20672140.478
        45.400          43.500
  -2587918.674 3  -2016556.918 2  24436050.980    24436047.734    24436050.276
        21.600          16.100
 -11071721.755 5  -8627311.032 4  22855398.550    22855396.821    22855397.306
        30.800          29.500
 -22621337.367 7 -17627006.507 8  20376568.035    20376564.323    20376567.491
        47.600          50.500
  -5767931.110 4  -4494481.091 4  23489685.880    23489683.184    23489684.762
        27.600          24.200
 -23633178.392 7 -18415454.525 7  19989817.434    19989814.517    19989816.896
        46.700          45.800
 08  1  1  0 11 30.0000000  0  9G 6G21G18G24G 8G 7G15G10G26
  -8655191.192 4  -6744301.073 4  23144389.122    23144386.807    23144388.220
        27.600          26.800
 -22954983.341 7 -17886994.130 7  20658807.389    20658802.616    20658806.244
        45.900          44.300
  -7710764.448 6  -6008385.291 5  22235024.016    22235019.852    22235023.070
        39.000          33.800
 -20406046.280 7 -15900807.497 7  20679118.248    20679115.789    20679117.378
        45.300          43.400
  -2545218.263 3  -1983283.887 2  24444177.018    24444173.479    24444176.038
        21.600          17.000
 -10998113.297 5  -8569953.813 4  22869406.594    22869403.721    22869405.338
        32.800          28.100
 -22618298.290 7 -17624638.391 8  20377146.104    20377142.667    20377145.804
        47.700          50.600
  -5678507.730 4  -4424800.555 4  23506702.594    23506700.021    23506701.509
        26.500          24.600
 -23604920.133 7 -18393435.100 7  19995194.827    19995191.904    19995194.244
        46.500          45.700
 08  1  1  0 12  0.0000000  0  9G 6G21G18G24G 8G 7G15G10G26
  -8565842.206 4  -6674678.512 4  23161391.487    23161389.736    23161390.826
        28.600          26.200
 -23002595.312 7 -17924094.368 7  20649747.081    20649742.338    20649745.990
        46.100          44.200
  -7778759.990 6  -6061368.815 5  22222084.932    22222080.741    22222083.886
        38.900          33.800
 -20368948.565 7 -15871900.193 7  20686177.701    20686175.277    20686176.798
        45.100          43.400
  -2501982.916 3  -1949594.021 1  24452404.416    24452401.126    24452403.212
        18.600          11.000
 -10924184.113 5  -8512346.696 4  22883474.183    22883471.998    22883472.876
        31.000          28.100
 -22614717.549 7 -17621848.199 8  20377827.635    20377824.072    20377827.215
        47.800          50.500
  -5589004.186 4  -4355057.570 4  23523734.385    23523732.033    23523733.436
        26.800          26.200
 -23576016.954 7 -18370913.139 7  20000695.089    20000691.925    20000694.428
        46.700          45.500
 08  1  1  0 12 30.0000000  0  9G 6G21G18G24G 8G 7G15G10G26
  -8476270.584 4  -6604882.460 4  23178436.821    23178434.194    23178435.865
        29.000          25.900
 -23049777.726 7 -17960859.884 7  20640768.433    20640763.801    20640767.402
        46.000          44.300
  -7846577.447 6  -6114213.585 5  22209179.751    22209175.268    22209178.627
        38.900          34.400
 -20331416.797 7 -15842654.661 7  20693319.657    20693317.377    20693318.788
        45.100          43.300
  -2458213.933 3  -1915488.318 2  24460733.697    24460729.873    24460732.558
        20.500          15.100
 -10849936.881 5  -8454491.736 4  22897603.858    22897601.283    22897602.500
        31.600          29.900
 -22610595.895 7 -17618636.514 8  20378611.950    20378608.355    20378611.539
        47.700          50.500
  -5499421.082 4  -4285252.575 4  23540782.073    23540779.172    23540780.709
        27.100          24.600
 -23546470.750 7 -18347890.118 7  20006317.611    20006314.337    20006317.038
        46.800          45.500
 08  1  1  0 13  0.0000000  0  9G 6G21G18G24G 8G 7G15G10G26
  -8386479.318 4  -6534915.278 4  23195523.107    23195521.321    23195522.419
        27.600          26.200
 -23096528.570 7 -17997289.113 7  20631872.180    20631867.384    20631871.091
        46.000          44.500
  -7914216.444 6  -6166919.285 5  22196308.264    22196304.242    22196307.251
        38.700          34.100
 -20293451.031 7 -15813070.949 7  20700544.386    20700542.080    20700543.472
        45.000          43.400
  -2413912.592 3  -1880967.782 2  24469163.557    24469160.286    24469162.769
        20.500          12.600
 -10775374.262 5  -8396391.023 4  22911791.750    22911789.269    22911790.773
        31.600          27.900
 -22605934.455 7 -17615004.214 8  20379499.157    20379495.396    20379498.685
        47.800          50.600
  -5409759.344 4  -4215386.309 4  23557843.735    23557841.087    23557842.569
        27.600          25.600
 -23516283.272 7 -18324367.406 7  20012062.012    20012058.850    20012061.453
        46.800          45.500
 08  1  1  0 13 30.0000000  0  9G 6G21G18G24G 8G 7G15G10G26
  -8296471.306 4  -6464779.178 3  23212650.710    23212648.936    23212649.904
        27.100          23.800
 -23142845.799 7 -18033380.462 7  20623058.256    20623053.544    20623057.216
        45.900          44.500
  -7981676.362 6  -6219485.447 5  22183471.268    22183466.773    22183470.262
        39.200          34.100
 -20255051.658 7 -15783149.366 7  20707851.484    20707849.241    20707850.586
        45.100          43.200
  -2369080.429 3  -1846033.600 2  24477694.444    24477691.628    24477693.364
        19.900          17.000
 -10700498.932 5  -8338046.631 5  22926040.254    22926038.448    22926039.229
        32.000          30.200
 -22600733.770 7 -17610951.729 8  20380488.722    20380485.093    20380488.365
        47.900          50.500
  -5320019.835 4  -4145459.441 4  23574920.879    23574918.063    23574919.663
        26.500          24.200
 -23485456.237 7 -18300346.333 7  20017928.076    20017925.099    20017927.559
        46.600          45.500
 08  1  1  0 14  0.0000000  0  9G 6G21G18G24G 8G 7G15G10G26
  -8206249.331 4  -6394476.358 4  23229820.315    23229817.446    23229819.383
        28.400          24.600
 -23188727.560 7 -18069132.479 7  20614327.212    20614322.549    20614326.170
        45.900          44.700
  -8048956.395 6  -6271911.442 5  22170667.866    22170663.891    22170667.042
        39.300          34.000
 -20216219.198 7 -15752890.316 7  20715241.259    20715238.838    20715240.195
        45.100          43.400
  -2323718.973 3  -1810687.037 2  24486327.681    24486323.770    24486325.923
        21.100          16.100
 -10625313.633 5  -8279460.711 4  22940347.809    22940344.990    22940346.674
        31.800          27.600
 -22594994.653 7 -17606479.684 8  20381580.851    20381577.190    20381580.437
        47.900          50.600
  -5230203.179 4  -4075472.476 3  23592011.975    23592009.699    23592010.832
        25.900          23.400
 -23453991.540 7 -18275828.386 7  20023915.736    20023912.653    20023915.086
        46.600          45.500
 08  1  1  0 14 30.0000000  0  9G 6G21G18G24G 8G 7G15G10G26
  -8115816.303 4  -6324009.088 4  23247028.984    23247026.610    23247027.878
        28.400          24.900
 -23234171.819 7 -18104543.590 7  20605679.321    20605674.797    20605678.344
        45.800          44.800
  -8116056.399 6  -6324197.148 5  22157899.508    22157895.300    22157898.599
        39.800          34.500
 -20176953.814 7 -15722293.923 7  20722713.157    20722710.755    20722712.197
        45.300          43.300
  -2277829.851 3  -1774929.254 2  24495058.553    24495055.928    24495058.130
        23.400          17.000
 -10549821.042 5  -8220635.356 4  22954713.521    22954711.446    22954712.460
        30.800          28.600
 -22588718.399 7 -17601589.093 8  20382775.143    20382771.553    20382774.747
        47.900          50.500
  -5140310.323 4  -4005426.115 4  23609118.494    23609115.881    23609117.297
        26.200          24.200
 -23421891.170 7 -18250815.108 7  20030024.194    20030021.171    20030023.593
        46.600          45.500
 08  1  1  0 15  0.0000000  0 10G 6G21G 9G18G24G 8G 7G15G10G26
  -8025175.229 4  -6253379.706 4  23264276.988    23264275.235    23264276.448
        27.400          25.900
 -23279176.188 7 -18139611.930 7  20597115.274    20597110.805    20597114.255
        45.600          44.700
   -158062.747 3   -123165.391 3  24707874.832    24707874.311    24707875.127
        21.600          19.900
  -8182975.901 6  -6376342.205 5  22145165.122    22145160.745    22145164.133
        39.300          34.000
 -20137255.761 7 -15691360.386 7  20730267.451    20730264.999    20730266.533
        45.200          43.000
  -2231414.397 2  -1738761.345 2  24503891.823    24503888.839    24503890.657
        17.800          15.100
 -10474023.827 5  -8161572.599 4  22969137.246    22969134.969    22969135.941
        30.400          27.600
 -22581905.214 7 -17596280.115 8  20384071.609    20384068.066    20384071.180
        47.700          50.500
  -5050341.664 4  -3935320.694 3  23626239.389    23626236.179    23626238.050
        24.900          23.800
 -23389156.882 7 -18225307.868 7  20036253.355    20036250.313    20036252.723
        46.700          45.500
 08  1  1  0 15 30.0000000  0 10G 6G21G 9G18G24G 8G 7G15G10G26
  -7934328.973 4  -6182590.438 4  23281564.003    23281562.266    23281563.576
        26.200          25.300
 -23323738.857 7 -18174336.087 7  20588635.458    20588630.761    20588634.351
        45.500          44.800
   -276650.196 3   -215571.160 2  24685307.972    24685307.810    24685308.552
        20.500          17.800
  -8249713.780 6  -6428345.745 5  22132465.506    22132460.955    22132464.505
        39.800          34.000
 -20097125.281 7 -15660089.888 7  20737904.102    20737901.622    20737903.082
        45.100          43.000
  -2184474.017 3  -1702184.435 2  24512824.244    24512821.024    24512823.263
        20.500          15.100
 -10397924.596 5  -8102274.532 4  22983618.579    22983615.603    22983617.409
        31.500          26.500
 -22574556.232 7 -17590553.631 8  20385469.973    20385466.469    20385469.607
        47.700          50.400
  -4960298.200 4  -3865157.004 4  23643373.761    23643371.055    23643372.655
        25.900          24.200
 -23355790.636 7 -18199308.191 7  20042602.602    20042599.692    20042602.090
        46.400          45.500
 08  1  1  0 16  0.0000000  0 10G 6G21G 9G18G24G 8G 7G15G10G26
  -7843280.337 4  -6111643.483 4  23298890.261    23298888.726    23298889.583
        25.900          25.900
 -23367858.097 7 -18208714.716 7  20580239.802    20580235.083    20580238.732
        45.900          44.800
   -395268.631 3   -308001.089 2  24662737.223    24662735.399    24662736.028
        19.300          13.900
  -8316270.227 6  -6480207.907 5  22119800.172    22119795.772    22119799.047
        39.800          34.500
 -20056562.568 7 -15628482.590 7  20745622.628    20745620.517    20745621.824
        45.200          43.100
  -2137010.296 3  -1665199.710 2  24521855.900    24521853.332    24521855.309
        20.500          16.100
 -10321526.214 4  -8042743.341 4  22998156.506    22998154.699    22998155.281
        29.200          27.600
 -22566672.315 7 -17584410.315 8  20386970.281    20386966.721    20386969.821
        47.600          50.400
  -4870180.634 4  -3794935.562 3  23660522.358    23660519.807    23660521.377
        26.500          22.600
 -23321794.415 7 -18172817.625 7  20049071.811    20049068.931    20049071.319
        46.500          45.500
 08  1  1  0 16 30.0000000  0 10G 6G21G 9G18G24G 8G 7G15G10G26
  -7752032.294 4  -6040541.144 4  23316254.993    23316252.462    23316254.013
        27.900          25.300
 -23411531.635 7 -18242746.042 7  20571928.947    20571924.245    20571927.834
        45.700          44.900
   -513915.166 3   -400452.911 1  24640160.110    24640156.968    24640158.842
        18.600          11.000
  -8382644.514 6  -6531928.124 5  22107169.407    22107165.114    22107168.432
        39.900          34.500
 -20015568.013 7 -15596538.788 7  20753423.696    20753421.499    20753422.811
        44.900          43.000
  -2089024.915 3  -1627808.487 2  24530987.669    24530984.157    24530986.337
        22.600          13.900
 -10244831.245 4  -7982981.048 4  23012750.829    23012748.349    23012749.781
        29.200          27.100
 -22558254.460 7 -17577850.942 8  20388572.111    20388568.565    20388571.745
        47.800          50.300
  -4779989.871 4  -3724657.064 3  23677685.092    23677682.755    23677684.025
        26.800          23.800
 -23287170.037 7 -18145837.593 7  20055660.756    20055657.723    20055660.129
        46.400          45.400
 08  1  1  0 17  0.0000000  0 10G 6G21G 9G18G24G 8G 7G15G10G26
  -7660587.747 4  -5969285.677 3  23333655.996    23333653.431    23333655.109
        27.600          23.800
 -23454757.680 7 -18276428.677 7  20563703.094    20563698.595    20563702.125
        45.700          44.900
   -632586.780 3   -492924.305 2  24617576.617    24617574.817    24617575.507
        22.600          16.100
  -8448836.080 6  -6583505.962 5  22094573.456    22094569.476    22094572.521
        39.900          34.900
 -19974142.063 7 -15564258.836 7  20761306.766    20761304.589    20761305.891
        44.900          42.900
  -2040519.373 3  -1590011.996 2  24540217.295    24540214.737    24540217.057
        22.600          17.000
 -10167842.567 4  -7922989.895 4  23027400.878    23027399.664    23027399.738
        29.700          27.900
 -22549303.449 7 -17570876.129 8  20390275.437    20390271.884    20390275.103
        47.800          50.300
  -4689726.387 4  -3654321.901 3  23694861.493    23694859.163    23694860.527
        25.900          23.000
 -23251919.497 7 -18118369.635 7  20062368.628    20062365.615    20062368.052
        46.400          45.200
 08  1  1  0 17 30.0000000  0 10G 6G21G 9G18G24G 8G 7G15G10G26
  -7568949.665 4  -5897879.398 4  23351093.750    23351092.416    23351093.073
        27.400          24.900
 -23497534.237 7 -18309761.059 7  20555563.116    20555558.515    20555562.078
        45.700          45.000
   -751280.461 3   -585412.882 2  24594990.885    24594988.073    24594989.768
        22.100          16.100
  -8514844.332 6  -6634940.953 5  22082012.349    22082008.321    22082011.533
        39.800          34.600
 -19932284.890 7 -15531642.871 7  20769271.956    20769269.745    20769271.071
        45.100          42.700
  -1991495.335 3  -1551811.436 3  24549547.526    24549543.900    24549545.094
        19.300          19.900
 -10090562.802 5  -7862771.924 4  23042107.189    23042105.505    23042106.299
        30.600          27.600
 -22539820.279 7 -17563486.639 8  20392080.065    20392076.501    20392079.687
        47.800          50.400
  -4599390.966 4  -3583930.694 3  23712051.652    23712049.521    23712050.596
        26.500          22.600
 -23216044.724 7 -18090415.266 7  20069195.429    20069192.388    20069194.733
        46.400          45.200
 08  1  1  0 18  0.0000000  0 10G 6G21G 9G18G24G 8G 7G15G10G26
  -7477120.923 4  -5826324.547 4  23368567.936    23368566.269    23368567.580
        27.400          24.200
 -23539859.168 7 -18342741.526 7  20547509.029    20547504.456    20547507.891
        45.600          45.300
   -869993.287 2   -677916.378 2  24572399.652    24572398.006    24572398.908
        17.800          17.800
  -8580668.720 6  -6686232.675 5  22069486.464    22069482.470    22069485.490
        39.700          34.700
 -19889996.866 7 -15498691.175 7  20777318.959    20777316.822    20777318.191
        44.800          42.600
  -1941954.102 3  -1513207.877 2  24558973.623    24558971.231    24558973.271
        21.100          17.800
 -10012994.769 5  -7802329.316 4  23056868.310    23056866.010    23056867.178
        30.600          27.100
 -22529805.912 7 -17555683.231 8  20393985.631    20393982.185    20393985.283
        47.700          50.300
  -4508984.351 4  -3513484.002 3  23729255.616    23729253.179    23729254.598
        25.600          21.100
 -23179547.865 7 -18061976.153 7  20076140.562    20076137.502    20076139.919
        46.400          45.100
 08  1  1  0 18 30.0000000  0 10G 6G21G 9G18G24G 8G 7G15G10G26
  -7385104.366 4  -5754623.363 4  23386078.880    23386076.494    23386078.010
        25.900          25.600
 -23581730.810 7 -18375368.778 7  20539540.983    20539536.607    20539539.975
        45.500          45.400
   -988722.202 2   -770432.370 3  24549806.342    24549805.448    24549805.808
        17.000          19.300
  -8646308.775 6  -6737380.757 5  22056995.525    22056991.531    22056994.586
        39.700          34.800
 -19847278.684 7 -15465404.288 7  20785448.562    20785445.869    20785447.434
        44.900          42.700
  -1891897.738 3  -1474202.921 2  24568500.161    24568496.376    24568498.787
        22.100          15.100
  -9935141.110 5  -7741664.155 4  23071684.025    23071681.108    23071682.594
        30.600          27.600
 -22519261.275 7 -17547466.627 8  20395992.261    20395988.721    20395991.884
        47.600          50.100
  -4418507.262 4  -3442982.405 3  23746472.901    23746470.482    23746471.836
        26.200          23.400
 -23142430.975 7 -18033053.902 7  20083203.664    20083200.587    20083203.043
        46.500          45.100
 08  1  1  0 19  0.0000000  0 10G 6G21G 9G18G24G 8G 7G15G10G26
  -7292902.925 4  -5682778.123 4  23403623.406    23403622.576    23403622.718
        25.600          25.900
 -23623147.025 7 -18407641.156 7  20531659.731    20531655.334    20531658.671
        45.500          45.400
  -1107463.908 2   -862958.328 2  24527210.740    24527208.953    24527210.143
        17.800          13.900
  -8711764.102 6  -6788384.899 5  22044539.848    22044535.806    22044538.792
        39.700          35.100
 -19804130.786 7 -15431782.558 7  20793659.101    20793656.655    20793658.150
        44.900          42.600
  -1841327.585 3  -1434797.593 2  24578123.297    24578119.763    24578121.772
        20.500          16.100
  -9857004.701 4  -7680778.657 4  23086552.176    23086549.833    23086551.065
        29.900          26.500
 -22508187.314 7 -17538837.563 8  20398099.586    20398095.997    20398099.188
        47.700          50.100
  -4327960.328 4  -3372426.387 3  23763702.644    23763701.255    23763701.893
        25.300          22.600
 -23104696.008 7 -18003650.026 7  20090384.217    20090381.338    20090383.693
        46.600          45.100
 08  1  1  0 19 30.0000000  0 10G 6G21G 9G18G24G 8G 7G15G10G26
  -7200519.569 4  -5610791.135 4  23421204.264    23421201.702    23421203.260
        26.500          25.300
 -23664105.949 7 -18439557.198 7  20523865.412    20523861.065    20523864.374
        45.400          45.500
  -1226215.493 3   -955492.020 2  24504611.887    24504610.881    24504612.199
        19.300          13.900
  -8777034.041 6  -6839244.579 5  22032119.735    22032115.309    22032118.570
        40.200          34.900
 -19760553.192 7 -15397826.001 7  20801951.601    20801949.200    20801950.593
        44.700          42.400
  -1790245.504 3  -1394993.368 3  24587842.806    24587840.391    24587842.600
        19.900          18.600
  -9778588.153 4  -7619674.881 4  23101474.015    23101472.497    23101472.733
        29.200          27.600
 -22496585.192 7 -17529796.942 8  20400307.453    20400303.825    20400307.028
        47.800          50.200
  -4237344.496 4  -3301816.683 3  23780947.330    23780944.662    23780945.979
        24.200          22.600
 -23066345.196 7 -17973766.270 7  20097682.322    20097679.231    20097681.758
        46.400          45.000
 08  1  1  0 20  0.0000000  0 10G 6G21G 9G18G24G 8G 7G15G10G26
  -7107957.103 4  -5538664.583 4  23438817.590    23438816.705    23438817.062
        25.900          25.600
 -23704605.943 7 -18471115.638 7  20516158.669    20516154.183    20516157.641
        45.600          45.600
  -1344973.711 3  -1048030.924 2  24482014.420    24482011.754    24482013.249
        23.400          15.100
  -8842118.214 6  -6889959.507 5  22019734.341    22019730.231    22019733.378
        40.400          35.400
 -19716546.539 7 -15363535.122 7  20810325.463    20810323.331    20810324.639
        44.800          42.300
  -1738653.001 2  -1354791.397 2  24597662.684    24597658.071    24597660.796
        13.900          12.600
  -9699894.277 4  -7558355.001 4  23116449.182    23116446.836    23116447.836
        27.600          26.800
 -22484455.827 7 -17520345.486 8  20402615.672    20402611.975    20402615.219
        47.800          50.100
  -4146660.270 4  -3231153.694 3  23798203.625    23798201.540    23798202.711
        26.200          22.600
 -23027380.501 7 -17943404.171 7  20105097.156    20105094.000    20105096.500
        46.300          45.200
 08  1  1  0 20 30.0000000  0 10G 6G21G 9G18G24G 8G 7G15G10G26
  -7015218.560 4  -5466400.817 3  23456466.204    23456463.295    23456465.089
        25.300          20.500
 -23744644.834 7 -18502314.775 7  20508539.664    20508535.076    20508538.573
        45.500          45.600
  -1463735.744 3  -1140572.766 2  24459416.072    24459411.819    24459414.027
        23.800          17.000
  -8907015.537 6  -6940528.845 5  22007384.729    22007380.701    22007383.761
        40.500          35.800
 -19672111.076 7 -15328910.112 7  20818781.614    20818779.226    20818780.636
        44.900          42.500
  -1686551.981 2  -1314193.207 2  24607574.322    24607572.385    24607574.002
        17.800          17.000
  -9620925.947 4  -7496821.279 4  23131475.972    23131474.400    23131474.829
        27.900          27.400
 -22471800.175 7 -17510483.936 8  20405023.856    20405020.269    20405023.501
        47.700          50.000
  -4055908.459 4  -3160438.031 3  23815473.230    23815471.099    23815472.337
        25.300          22.100
 -22987804.009 7 -17912565.348 7  20112628.228    20112625.106    20112627.653
        46.500          44.900
 08  1  1  0 21  0.0000000  0 10G 6G21G 9G18G24G 8G 7G15G10G26
  -6922306.729 4  -5394001.993 3  23474146.451    23474144.010    23474145.562
        27.100          19.300
 -23784220.564 7 -18533153.004 7  20501008.526    20501004.016    20501007.509
        45.600          45.600
  -1582498.673 3  -1233115.335 3  24436815.362    24436812.399    24436813.984
        23.000          19.300
  -8971725.844 6  -6990952.444 5  21995070.689    21995066.754    21995069.747
        40.400          35.600
 -19627247.353 7 -15293951.386 7  20827318.910    20827316.527    20827318.026
        45.100          42.400
  -1633944.043 3  -1273200.015 2  24617587.053    24617583.398    24617586.209
        19.300          16.100
  -9541685.821 5  -7435075.734 4  23146555.576    23146553.561    23146554.444
        30.100          28.400
 -22458619.410 7 -17500213.205 8  20407532.005    20407528.455    20407531.646
        47.800          50.000
  -3965089.593 4  -3089670.113 3  23832756.201    23832753.066    23832755.145
        26.800          21.100
 -22947617.789 7 -17881251.408 7  20120275.324    20120272.261    20120274.772
        46.400          44.900
 08  1  1  0 21 30.0000000  0 10G 6G21G 9G18G24G 8G 7G15G10G26
  -6829224.663 4  -5321470.519 3  23491858.561    23491857.037    23491858.027
        25.600          21.100
 -23823331.337 7 -18563628.930 7  20493566.242    20493561.500    20493565.066
        45.400          45.600
  -1701259.103 4  -1325655.921 3  24414214.876    24414213.765    24414214.430
        24.900          22.600
  -9036248.551 6  -7041229.871 5  21982792.846    21982788.406    21982791.821
        41.300          35.600
 -19581955.916 7 -15258659.371 7  20835937.572    20835935.187    20835936.651
        44.900          42.100
  -1580830.988 3  -1231813.235 2  24627694.304    24627690.404    24627692.666
        19.900          17.000
  -9462176.703 5  -7373120.612 4  23161685.043    23161683.425    23161684.015
        30.200          27.100
 -22444914.530 7 -17489534.073 8  20410140.046    20410136.364    20410139.619
        47.800          49.900
  -3874204.756 4  -3018850.817 3  23850049.977    23850048.398    23850049.005
        24.900          23.400
 -22906824.244 7 -17849464.226 7  20128038.110    20128035.041    20128037.522
        46.200          44.900
 08  1  1  0 22  0.0000000  0 10G 6G21G 9G18G24G 8G 7G15G10G26
  -6735975.104 4  -5248808.548 3  23509604.346    23509601.771    23509603.223
        25.900          23.400
 -23861975.357 7 -18593741.154 7  20486212.265    20486207.833    20486211.245
        45.500          45.700
  -1820014.330 3  -1418192.426 3  24391616.146    24391615.266    24391616.010
        20.500          21.100
  -9100583.340 6  -7091360.868 5  21970549.946    21970545.959    21970549.049
        40.700          35.900
 -19536237.067 7 -15223034.309 7  20844637.623    20844635.249    20844636.660
        44.900          42.100
  -1527214.487 3  -1190034.096 2  24637895.090    24637893.232    24637895.700
        18.600          17.000
  -9382401.434 5  -7310958.076 4  23176866.335    23176864.361    23176864.993
        30.200          27.900
 -22430686.258 7 -17478447.106 8  20412847.466    20412843.891    20412847.162
        47.700          50.000
  -3783254.199 4  -2947980.298 3  23867358.543    23867355.315    23867357.185
        24.600          20.500
 -22865425.534 7 -17817205.491 7  20135916.051    20135913.008    20135915.483
        46.400          44.900
 08  1  1  0 22 30.0000000  0 10G 6G21G 9G18G24G 8G 7G15G10G26
  -6642561.075 4  -5176018.441 3  23527380.309    23527378.455    23527379.460
        27.100          23.800
 -23900150.627 7 -18623488.116 7  20478947.908    20478943.258    20478946.785
        45.600          45.900
  -1938761.053 3  -1510722.314 4  24369018.196    24369019.035    24369019.004
        20.500          24.200
  -9164729.584 6  -7141344.945 5  21958343.256    21958339.218    21958342.332
        40.600          35.900
 -19490091.196 7 -15187076.498 7  20853418.786    20853416.512    20853417.860
        44.600          42.300
  -1473096.151 3  -1147863.976 2  24648196.695    24648191.867    24648194.471
        20.500          12.600
  -9302362.741 4  -7248590.293 4  23192097.037    23192094.776    23192095.912
        28.800          26.500
 -22415936.502 7 -17466953.785 8  20415654.433    20415650.701    20415653.971
        47.600          49.900
  -3692238.863 4  -2877059.263 3  23884677.989    23884675.355    23884676.690
        25.300          23.000
 -22823423.482 7 -17784476.619 7  20143908.933    20143905.719    20143908.274
        46.400          44.900
 08  1  1  0 23  0.0000000  0 10G 6G21G 9G18G24G 8G 7G15G10G26
  -6548985.543 4  -5103102.457 4  23545186.877    23545184.978    23545186.030
        27.100          24.900
 -23937855.625 7 -18652868.634 7  20471772.781    20471768.259    20471771.737
        45.700          45.900
  -2057495.796 2  -1603242.844 3  24346424.662    24346424.219    24346424.449
        17.800          21.600
  -9228686.642 6  -7191181.600 6  21946172.597    21946168.634    21946171.639
        40.300          36.000
 -19443518.932 7 -15150786.433 7  20862281.085    20862278.951    20862280.241
        44.800          42.200
  -1418478.090 3  -1105304.465 3  24658587.757    24658585.010    24658586.792
        18.600          18.600
  -9222063.408 4  -7186019.402 4  23207378.083    23207375.848    23207376.792
        29.500          27.900
 -22400666.013 7 -17455054.702 8  20418560.319    20418556.625    20418559.892
        47.700          49.900
  -3601159.153 4  -2806088.130 3  23902009.197    23902006.889    23902008.332
        25.300          21.100
 -22780820.577 7 -17751279.545 7  20152015.758    20152012.808    20152015.270
        46.400          44.900
 08  1  1  0 23 30.0000000  0 10G 6G21G 9G18G24G 8G 7G15G10G26
  -6455251.212 4  -5030062.749 4  23563023.706    23563021.974    23563022.979
        26.200          24.600
 -23975088.148 7 -18681880.989 7  20464687.636    20464683.155    20464686.616
        45.500          46.000
  -2176215.503 2  -1695751.650 3  24323835.001    24323832.735    24323833.111
        17.800          21.100
  -9292453.832 6  -7240870.312 6  21934038.225    21934034.111    21934037.259
        40.300          36.300
 -19396520.869 7 -15114164.573 7  20871224.556    20871222.418    20871223.671
        44.900          42.200
  -1363362.302 3  -1062357.086 2  24669076.099    24669073.268    24669075.659
        18.600          12.600
  -9141506.275 4  -7123247.634 4  23222707.617    23222704.442    23222706.219
        28.400          24.900
 -22384875.974 7 -17442750.772 8  20421565.073    20421561.339    20421564.657
        47.600          49.800
  -3510016.098 4  -2735067.592 3  23919354.140    23919351.203    23919352.926
        24.900          22.600
 -22737619.131 7 -17717616.080 7  20160236.723    20160233.772    20160236.195
        46.400          44.900
 08  1  1  0 24  0.0000000  0 10G 6G21G 9G18G24G 8G 7G15G10G26
  -6361361.106 4  -4956901.665 3  23580890.805    23580888.794    23580890.118
        25.300          23.000
 -24011846.497 7 -18710523.858 7  20457692.824    20457688.322    20457691.721
        45.500          46.100
  -2294917.199 3  -1788246.443 3  24301245.869    24301244.343    24301244.980
        21.600          21.100
  -9356030.761 6  -7290410.767 6  21921939.892    21921935.848    21921938.963
        40.600          36.000
 -19349097.404 7 -15077211.237 7  20880249.056    20880246.894    20880248.108
        44.800          42.400
  -1307750.127 3  -1019022.955 2  24679660.296    24679656.042    24679658.404
        19.300          13.900
  -9060694.097 4  -7060277.125 4  23238085.264    23238083.119    23238083.792
        27.600          24.600
 -22368567.046 7 -17430042.513 8  20424668.532    20424664.777    20424668.023
        47.500          49.800
  -3418810.086 4  -2663998.010 3  23936709.402    23936707.062    23936708.248
        25.300          21.100
 -22693821.168 7 -17683487.794 7  20168571.289    20168568.248    20168570.706
        46.300          44.800
 08  1  1  0 24 30.0000000  0 10G 6G21G 9G18G24G 8G 7G15G10G26
  -6267318.199 3  -4883621.495 3  23598785.788    23598784.479    23598785.267
        19.900          23.000
 -24048128.777 7 -18738795.763 7  20450788.483    20450784.009    20450787.442
        45.600          46.300
  -2413597.913 3  -1880724.918 3  24278662.959    24278660.329    24278661.194
        23.400          21.100
  -9419416.807 6  -7339802.478 6  21909877.774    21909873.843    21909876.828
        40.900          36.300
 -19301248.967 7 -15039926.756 7  20889354.258    20889352.176    20889353.383
        44.800          42.300
  -1251643.476 2   -975303.481 1  24690335.030    24690332.826    24690334.580
        17.800          11.000
  -8979629.646 4  -6997110.039 3  23253511.437    23253508.557    23253510.175
        27.100          23.400
 -22351740.881 7 -17416931.210 8  20427870.284    20427866.744    20427869.877
        47.300          49.700
  -3327542.077 4  -2592880.120 3  23954077.589    23954074.927    23954076.579
        25.600          21.100
 -22649428.899 7 -17648896.413 7  20177018.750    20177015.801    20177018.233
        46.300          44.800
 08  1  1  0 25  0.0000000  0  9G 6G21G 9G18G24G 7G15G10G26
  -6173125.337 3  -4810224.510 3  23616710.491    23616708.638    23616709.843
        23.800          21.100
 -24083932.816 7 -18766695.015 7  20443975.190    20443970.727    20443974.149
        45.400          46.300
  -2532254.690 3  -1973184.745 2  24256083.754    24256080.148    24256081.569
        22.600          17.000
  -9482611.520 6  -7389045.108 6  21897852.417    21897848.290    21897851.452
        41.200          36.500
 -19252976.186 7 -15002311.617 7  20898540.178    20898538.144    20898539.370
        44.700          42.000
  -8898315.728 4  -6933748.571 4  23268984.440    23268982.696    23268983.274
        26.500          25.300
 -22334398.401 7 -17403417.588 8  20431170.462    20431166.946    20431170.082
        47.500          49.800
  -3236212.431 3  -2521714.206 3  23971456.763    23971454.549    23971455.709
        23.800          22.600
 -22604444.771 7 -17613843.847 7  20185579.021    20185575.988    20185578.419
        46.200          44.600
 08  1  1  0 25 30.0000000  0  9G 6G21G 9G18G24G 7G15G10G26
  -6078785.437 3  -4736712.900 3  23634662.855    23634660.846    23634661.952
        22.600          19.900
 -24119257.262 7 -18794220.556 7  20437253.192    20437248.693    20437252.122
        45.500          46.200
  -2650884.179 3  -2065623.290 2  24233508.049    24233505.629    24233506.337
        19.900          17.000
  -9545614.327 6  -7438138.194 6  21885863.454    21885859.256    21885862.479
        41.300          36.800
 -19204279.668 7 -14964366.283 7  20907806.932    20907804.774    20907806.055
        44.600          42.100
  -8816755.234 4  -6870194.970 3  23284504.936    23284502.866    23284503.884
        27.900          23.400
 -22316541.025 7 -17389502.745 8  20434568.534    20434565.082    20434568.230
        47.500          49.700
  -3144821.882 3  -2450500.838 3  23988847.493    23988844.902    23988846.564
        23.800          19.900
 -22558870.969 7 -17578331.790 7  20194251.363    20194248.364    20194250.816
        46.200          44.500
 08  1  1  0 26  0.0000000  0  9G 6G21G 9G18G24G 7G15G10G26
  -5984301.316 4  -4663088.929 3  23652643.292    23652640.901    23652642.184
        24.900          21.600
 -24154100.297 7 -18821370.972 7  20430622.774    20430618.292    20430621.760
        45.500          46.300
  -2769482.976 3  -2158037.940 3  24210939.307    24210937.203    24210937.837
        22.100          18.600
  -9608424.595 6  -7487081.256 6  21873911.200    21873906.822    21873910.205
        41.500          36.600
 -19155160.079 7 -14926091.285 6  20917154.182    20917151.900    20917153.264
        44.700          41.900
  -8734950.954 4  -6806451.396 4  23300072.245    23300070.180    23300071.277
        29.000          25.900
 -22298169.794 7 -17375187.500 8  20438064.567    20438060.982    20438064.145
        47.300          49.700
  -3053371.217 4  -2379240.623 3  24006251.300    24006248.046    24006249.722
        24.600          19.300
 -22512709.961 7 -17542362.170 7  20203035.540    20203032.471    20203034.919
        46.200          44.400
 08  1  1  0 26 30.0000000  0  9G 6G21G 9G18G24G 7G15G10G26
  -5889676.010 4  -4589354.950 3  23670649.127    23670647.771    23670648.739
        25.900          23.400
 -24188459.951 7 -18848144.727 7  20424084.326    20424079.773    20424083.285
        45.400          46.300
  -2888048.207 3  -2250426.361 3  24188376.109    24188375.247    24188375.554
        19.900          22.600
  -9671041.660 6  -7535873.772 6  21861995.627    21861991.202    21861994.530
        41.500          36.600
 -19105617.923 7 -14887487.012 7  20926581.505    20926579.402    20926580.710
        44.600          42.000
  -8652905.755 4  -6742520.086 4  23315684.531    23315682.409    23315683.452
        29.500          24.900
 -22279286.032 7 -17360472.873 8  20441657.952    20441654.446    20441657.548
        47.300          49.600
  -2961861.028 3  -2307934.012 2  24023663.503    24023661.270    24023662.569
        23.000          17.800
 -22465963.871 7 -17505936.644 7  20211930.943    20211927.957    20211930.337
        46.200          44.300
 08  1  1  0 27  0.0000000  0  9G 6G21G 9G18G24G 7G15G10G26
  -5794912.332 4  -4515513.149 3  23688682.370    23688680.385    23688681.777
        25.900          22.600
 -24222334.461 7 -18874540.448 7  20417638.209    20417633.680    20417637.217
        45.500          46.400
  -3006576.551 3  -2342786.072 3  24165820.523    24165819.753    24165820.264
        22.600          21.600
  -9733465.277 6  -7584515.545 6  21850116.449    21850112.304    21850115.530
        41.400          36.700
 -19055653.964 7 -14848554.065 6  20936089.617    20936087.255    20936088.571
        44.400          41.700
  -8570622.354 4  -6678403.175 4  23331343.336    23331341.139    23331342.014
        29.700          27.400
 -22259891.063 7 -17345359.908 8  20445348.848    20445345.227    20445348.357
        47.200          49.600
  -2870292.141 4  -2236581.668 3  24041089.195    24041086.649    24041088.335
        24.200          21.100
 -22418635.214 7 -17469057.171 7  20220937.333    20220934.295    20220936.757
        46.200          44.100
 08  1  1  0 27 30.0000000  0  9G 6G21G 9G18G24G 7G15G10G26
  -5700013.277 4  -4441565.858 3  23706741.310    23706739.587    23706740.340
        24.900          23.800
 -24255722.046 7 -18900556.750 7  20411284.907    20411280.286    20411283.801
        45.500          46.400
  -3125064.935 3  -2435114.614 4  24143272.600    24143272.415    24143272.520
        22.100          24.600
  -9795694.577 6  -7633005.904 6  21838274.592    21838270.636    21838273.679
        41.400          37.200
 -19005268.670 7 -14809292.811 6  20945677.592    20945675.312    20945676.595
        44.400          41.600
  -8488103.604 4  -6614102.867 4  23347045.684    23347043.701    23347044.531
        28.100          25.900
 -22239986.042 7 -17329849.499 8  20449136.543    20449133.009    20449136.141
        47.300          49.500
  -2778664.960 4  -2165183.905 3  24058525.677    24058522.842    24058524.404
        24.200          18.600
 -22370726.383 7 -17431725.611 7  20230054.027    20230051.093    20230053.519
        46.200          44.100
 08  1  1  0 28  0.0000000  0  9G 6G21G 9G18G24G 7G15G10G26
  -5604981.708 3  -4367515.322 3  23724824.550    23724823.272    23724823.982
        23.400          23.000
 -24288621.163 7 -18926192.423 7  20405024.288    20405019.844    20405023.260
        45.500          46.500
  -3243509.881 3  -2527409.336 3  24120733.820    24120732.607    24120733.505
        22.100          22.100
  -9857729.039 6  -7681344.440 6  21826469.846    21826465.831    21826468.868
        41.500          37.200
 -18954462.493 7 -14769703.599 6  20955345.636    20955343.482    20955344.714
        44.600          41.900
  -8405352.331 4  -6549621.402 4  23362792.459    23362791.070    23362791.423
        26.500          27.600
 -22219572.154 7 -17313942.571 8  20453021.096    20453017.642    20453020.757
        47.500          49.500
  -2686980.102 3  -2093741.207 3  24075971.681    24075969.986    24075970.740
        23.000          19.900
 -22322239.660 7 -17393943.749 7  20239280.875    20239277.831    20239280.290
        46.300          44.300
 08  1  1  0 28 30.0000000  0  9G 6G21G 9G18G24G 7G15G10G26
  -5509820.465 3  -4293363.754 3  23742933.395    23742931.969    23742932.992
        21.100          22.600
 -24321030.003 7 -18951446.066 7  20398857.076    20398852.575    20398856.059
        45.400          46.400
  -3361908.543 3  -2619667.983 3  24098202.694    24098202.029    24098202.737
        21.600          18.600
  -9919568.267 6  -7729530.851 6  21814702.131    21814698.215    21814701.165
        41.200          37.400
 -18903235.968 7 -14729786.839 6  20965093.887    20965091.593    20965092.921
        44.500          41.800
  -8322371.441 4  -6484961.005 4  23378583.356    23378581.180    23378581.986
        27.900          24.900
 -22198650.636 7 -17297640.088 8  20457002.459    20456998.833    20457002.039
        47.500          49.400
  -2595238.260 3  -2022254.106 3  24093430.665    24093428.007    24093429.213
        23.400          21.100
 -22273177.404 7 -17355713.415 7  20248617.052    20248614.033    20248616.532
        46.300          44.200
 08  1  1  0 29  0.0000000  0  9G 6G21G 9G18G24G 7G15G10G26
  -5414532.456 3  -4219113.406 3  23761066.427    23761064.705    23761065.467
        22.600          21.600
 -24352946.760 7 -18976316.267 7  20392783.647    20392778.956    20392782.548
        45.300          46.400
  -3480257.865 4  -2711888.231 3  24075681.544    24075681.041    24075681.808
        26.500          20.500
  -9981211.072 6  -7777564.195 6  21802972.234    21802967.810    21802971.080
        41.300          37.200
 -18851589.952 7 -14689543.200 6  20974921.459    20974919.472    20974920.727
        44.400          41.700
  -8239163.653 4  -6420123.810 4  23394417.640    23394415.539    23394416.555
        27.600          24.600
 -22177222.800 7 -17280943.066 8  20461080.149    20461076.397    20461079.715
        47.400          49.200
  -2503440.185 4  -1950723.175 3  24110899.821    24110896.373    24110898.454
        24.600          19.300
 -22223541.990 7 -17317036.470 7  20258062.412    20258059.297    20258061.802
        46.100          44.100
 08  1  1  0 29 30.0000000  0  9G 6G21G 9G18G24G 7G15G10G26
  -5319120.509 3  -4144766.463 3  23779223.273    23779220.794    23779222.065
        23.000          18.600
 -24384369.629 7 -19000801.621 7  20386804.095    20386799.349    20386803.000
        45.400          46.400
  -3598554.296 3  -2804067.242 3  24053170.676    24053169.771    24053170.540
        23.800          21.100
 -10042657.578 6  -7825444.585 6  21791279.143    21791275.005    21791278.208
        41.800          37.200
 -18799525.075 7 -14648973.169 6  20984829.444    20984827.081    20984828.398
        44.200          41.800
  -8155731.894 4  -6355112.028 4  23410294.024    23410291.857    23410292.969
        29.500          24.200
 -22155290.082 7 -17263852.635 8  20465253.713    20465250.044    20465253.334
        47.400          49.200
  -2411586.315 3  -1879148.764 3  24128377.470    24128375.870    24128376.874
        23.400          19.300
 -22173335.879 7 -17277914.828 7  20267616.182    20267613.165    20267615.634
        46.100          44.100
 08  1  1  0 30  0.0000000  0  9G 6G21G 9G18G24G 7G15G10G26
  -5223587.715 4  -4070325.325 3  23797402.313    23797399.820    23797401.419
        24.900          19.300
 -24415296.818 7 -19024900.732 7  20380918.705    20380914.114    20380917.695
        45.400          46.600
  -3716794.757 4  -2896202.652 3  24030670.561    24030669.864    24030670.138
        25.300          23.000
 -10103907.289 6  -7873171.629 6  21779623.657    21779619.533    21779622.732
        41.500          37.200
 -18747041.942 7 -14608077.236 6  20994816.401    20994814.310    20994815.555
        44.300          41.500
  -8072078.994 4  -6289927.965 3  23426212.653    23426210.542    23426211.549
        26.200          23.800
 -22132853.826 7 -17246369.832 8  20469522.960    20469519.547    20469522.624
        47.200          49.200
  -2319677.370 3  -1807531.442 2  24145867.834    24145865.898    24145866.851
        23.800          17.800
 -22122561.499 7 -17238350.373 7  20277278.251    20277275.292    20277277.713
        46.000          44.000
 08  1  1  0 30 30.0000000  0 10G 6G21G 9G18G24G22G 7G15G10G26
  -5127936.954 4  -3995792.263 2  23815604.454    23815601.547    23815603.477
        27.400          16.100
 -24445726.865 7 -19048612.459 7  20375128.168    20375123.468    20375127.071
        45.400          46.700
  -3834976.210 3  -2988292.052 3  24008180.892    24008180.467    24008180.462
        22.100          21.100
 -10164959.319 6  -7920744.634 6  21768006.040    21768001.752    21768004.973
        41.800          37.300
 -18694141.269 7 -14566855.950 6  21004883.121    21004881.065    21004882.227
        44.300          41.400
   -153831.682 4   -119868.897 2  24678894.883    24678890.117    24678894.084
        24.900          17.000
  -7988207.761 4  -6224573.775 4  23442173.101    23442170.422    23442171.819
        25.300          24.200
 -22109915.434 7 -17228495.755 8  20473887.992    20473884.581    20473887.651
        47.000          49.200
  -2227714.056 3  -1735871.767 3  24163367.917    24163365.696    24163366.989
        23.000          18.600
 -22071221.266 7 -17198345.000 7  20287048.035    20287045.059    20287047.390
        45.900          44.000
 08  1  1  0 31  0.0000000  0 10G 6G21G 9G18G24G22G 7G15G10G26
  -5032171.042 3  -3921169.455 2  23833827.675    23833825.555    23833826.556
        23.400          17.000
 -24475658.150 7 -19071935.538 7  20369432.572    20369427.725    20369431.432
        45.400          46.800
  -3953095.176 3  -3080332.737 3  23985704.531    23985702.693    23985702.848
        19.300          20.500
 -10225812.628 6  -7968162.790 6  21756425.977    21756421.821    21756425.016
        41.900          37.500
 -18640823.713 7 -14525309.818 6  21015029.260    21015027.028    21015028.335
        44.200          41.500
   -242512.589 4   -188970.913 2  24662019.315    24662014.461    24662018.823
        25.900          16.100
  -7904121.155 3  -6159051.801 4  23458173.472    23458172.235    23458172.401
        22.600          26.200
 -22086476.057 7 -17210231.303 8  20478348.539    20478344.943    20478348.060
        47.000          49.200
  -2135696.979 3  -1664170.190 2  24180878.676    24180875.727    24180877.532
        22.600          17.000
 -22019317.701 7 -17157900.666 7  20296924.898    20296921.961    20296924.339
        46.100          43.900
 08  1  1  0 31 30.0000000  0 10G 6G21G 9G18G24G22G 7G15G10G26
  -4936292.770 4  -3846459.167 3  23852072.517    23852070.312    23852071.904
        25.300          18.600
 -24505088.613 7 -19094868.368 7  20363832.023    20363827.341    20363830.898
        45.300          46.900
  -4071148.133 3  -3172322.043 3  23963240.142    23963238.286    23963238.832
        23.000          21.600
 -10286467.600 7  -8015426.398 6  21744883.777    21744879.515    21744882.732
        42.000          37.700
 -18587090.004 7 -14483439.411 6  21025254.579    21025252.161    21025253.609
        44.200          41.200
   -331143.425 4   -258033.922 2  24645153.600    24645148.311    24645152.839
        25.900          13.900
  -7819821.763 3  -6093364.017 4  23474214.930    23474213.824    23474213.641
        23.400          26.200
 -22062537.123 7 -17191577.587 8  20482903.807    20482900.444    20482903.395
        47.100          49.100
  -2043626.582 3  -1592427.044 2  24198398.744    24198395.954    24198397.638
        23.800          15.100
 -21966853.278 7 -17117019.293 7  20306908.744    20306905.528    20306908.109
        46.100          43.600
 08  1  1  0 32  0.0000000  0 10G 6G21G 9G18G24G22G 7G15G10G26
  -4840305.163 3  -3771663.590 3  23870338.935    23870336.563    23870337.821
        23.800          19.900
 -24534016.949 7 -19117409.930 7  20358327.114    20358322.521    20358326.032
        45.400          46.900
  -4189132.025 3  -3264257.510 3  23940789.273    23940786.653    23940787.502
        22.100          23.400
 -10346923.141 6  -8062534.604 6  21733379.143    21733375.109    21733378.213
        41.900          37.600
 -18532941.057 7 -14441245.438 6  21035558.744    21035556.414    21035557.789
        44.300          41.200
   -419723.956 4   -327057.722 2  24628297.297    24628292.532    24628296.531
        24.600          16.100
  -7735312.723 4  -6027512.856 4  23490297.612    23490295.343    23490296.463
        25.900          24.600
 -22038100.019 7 -17172535.681 8  20487553.945    20487550.664    20487553.599
        47.000          49.200
  -1951503.685 3  -1520642.995 3  24215928.752    24215927.243    24215928.253
        23.800          20.500
 -21913830.628 7 -17075702.945 7  20316998.582    20316995.417    20316997.974
        46.000          43.700
 08  1  1  0 32 30.0000000  0 10G 6G21G 9G18G24G22G 7G15G10G26
  -4744211.054 3  -3696785.126 3  23888624.489    23888622.627    23888623.653
        23.000          21.100
 -24562441.533 7 -19139558.957 7  20352918.056    20352913.486    20352917.029
        45.300          46.800
  -4307043.872 3  -3356136.797 4  23918350.827    23918349.064    23918349.243
        22.100          25.900
 -10407178.656 7  -8109486.947 6  21721912.934    21721909.000    21721911.991
        42.100          37.800
 -18478377.386 7 -14398728.303 6  21045941.827    21045939.558    21045940.880
        44.100          41.200
   -508253.680 3   -396041.925 2  24611451.016    24611445.506    24611450.282
        21.600          17.800
  -7650596.760 4  -5961500.457 3  23506418.011    23506415.992    23506416.991
        26.200          22.600
 -22013166.221 7 -17153106.748 8  20492298.655    20492295.406    20492298.359
        47.000          49.100
  -1859328.752 3  -1448818.436 3  24233470.466    24233467.232    24233468.878
        22.600          18.600
 -21860252.077 7 -17033953.423 7  20327194.161    20327191.107    20327193.609
        46.100          43.400
 08  1  1  0 33  0.0000000  0 10G 6G21G 9G18G24G22G 7G15G10G26
  -4648013.426 3  -3621825.968 3  23906930.054    23906928.548    23906929.548
        19.900          21.100
 -24590360.289 7 -19161313.837 7  20347605.181    20347600.661    20347604.189
        45.300          46.800
  -4424880.285 4  -3447957.323 4  23895927.238    23895925.260    23895925.835
        24.200          25.300
 -10467233.526 7  -8156282.945 6  21710484.898    21710480.871    21710484.014
        42.300          37.700
 -18423399.576 7 -14355888.466 6  21056403.409    21056401.530    21056402.659
        43.900          41.300
   -596732.278 3   -464986.259 3  24594613.496    24594608.991    24594612.994
        19.900          19.300
  -7565676.762 4  -5895329.044 3  23522578.218    23522575.785    23522577.073
        28.400          21.100
 -21987736.983 7 -17133291.756 8  20497137.895    20497134.402    20497137.489
        47.100          49.000
  -1767102.540 3  -1376953.894 3  24251019.247    24251017.449    24251018.558
        23.400          19.300
 -21806120.233 7 -16991772.764 7  20337495.261    20337492.098    20337494.663
        46.100          43.600
 08  1  1  0 33 30.0000000  0 10G 6G21G 9G18G24G22G 7G15G10G26
  -4551715.079 3  -3546788.333 3  23925254.646    23925253.434    23925253.870
        20.500          21.600
 -24617771.914 7 -19182673.545 7  20342389.055    20342384.385    20342388.022
        45.200          47.000
  -4542638.000 4  -3539716.550 3  23873519.442    23873516.550    23873517.723
        24.900          23.400
 -10527087.108 7  -8202922.095 6  21699095.444    21699091.038    21699094.390
        42.500          37.700
 -18368008.747 7 -14312726.799 6  21066944.286    21066941.940    21066943.300
        43.900          40.900
   -685159.247 2   -533890.352 3  24577786.413    24577781.474    24577785.953
        17.000          19.300
  -7480555.546 4  -5829000.812 3  23538776.121    23538773.228    23538774.984
        27.900          19.900
 -21961813.722 7 -17113091.810 8  20502070.886    20502067.493    20502070.511
        47.000          49.000
  -1674825.488 3  -1305049.739 3  24268580.576    24268577.396    24268578.716
        20.500          21.100
 -21751437.591 7 -16949162.912 7  20347900.963    20347897.856    20347900.421
        46.100          43.600
 08  1  1  0 34  0.0000000  0 10G 6G21G 9G18G24G22G 7G15G10G26
  -4455318.877 3  -3471674.431 3  23943598.100    23943597.016    23943597.525
        19.300          18.600
 -24644674.946 7 -19203636.948 7  20337269.569    20337264.963    20337268.488
        45.300          47.100
  -4660313.799 4  -3631411.945 3  23851126.761    23851122.977    23851125.086
        25.900          22.100
 -10586738.735 7  -8249403.872 6  21687744.006    21687739.717    21687743.040
        42.500          37.800
 -18312205.573 7 -14269243.813 6  21077563.378    21077560.930    21077562.330
        43.800          41.100
   -773533.867 2   -602753.645 3  24560968.971    24560964.456    24560968.448
        17.800          21.600
  -7395236.039 4  -5762518.106 3  23555011.855    23555009.349    23555010.198
        24.900          22.100
 -21935397.923 7 -17092508.069 8  20507097.613    20507094.235    20507097.240
        47.000          49.000
  -1582498.384 4  -1233106.606 2  24286148.238    24286145.857    24286147.553
        24.200          17.000
 -21696206.614 7 -16906125.788 7  20358411.005    20358407.986    20358410.420
        46.000          43.500
 08  1  1  0 34 30.0000000  0 10G 6G21G 9G18G24G22G 7G15G10G26
  -4358827.624 3  -3396486.467 3  23961960.752    23961958.551    23961960.110
        23.000          19.300
 -24671067.661 7 -19224202.700 7  20332247.347    20332242.637    20332246.161
        45.200          47.100
  -4777904.502 3  -3723041.053 3  23828747.924    23828746.181    23828747.135
        23.400          19.300
 -10646188.227 7  -8295728.140 6  21676430.958    21676426.899    21676430.091
        42.300          37.900
 -18255990.703 7 -14225440.039 6  21088260.574    21088258.405    21088259.615
        43.600          40.900
   -861855.894 2   -671575.950 3  24544161.886    24544157.630    24544161.653
        17.800          23.000
  -7309721.031 4  -5695883.074 3  23571284.334    23571282.499    23571283.475
        26.500          21.100
 -21908490.983 7 -17071541.620 8  20512217.924    20512214.392    20512217.476
        46.900          48.700
  -1490121.649 3  -1161124.792 2  24303728.007    24303724.827    24303726.459
        22.100          15.100
 -21640430.013 7 -16862663.500 7  20369024.874    20369021.894    20369024.353
        45.900          43.400
 08  1  1  0 35  0.0000000  0 10G 6G21G 9G18G24G22G 7G15G10G26
  -4262244.329 3  -3321226.741 3  23980339.696    23980337.749    23980338.634
        22.600          19.900
 -24696948.467 7 -19244369.561 7  20327322.486    20327317.644    20327321.312
        45.400          47.100
  -4895406.640 4  -3814601.141 3  23806387.622    23806386.310    23806387.584
        26.200          20.500
 -10705434.456 7  -8341894.027 6  21665156.955    21665152.657    21665156.031
        42.600          38.100
 -18199365.134 7 -14181316.241 6  21099035.798    21099033.901    21099035.036
        43.800          40.700
   -950124.894 3   -740356.927 3  24527365.370    24527360.108    24527364.822
        19.900          22.600
  -7224013.396 4  -5629097.922 4  23587594.542    23587592.915    23587593.280
        26.200          24.900
 -21881094.437 7 -17050193.660 8  20517431.210    20517427.743    20517430.878
        46.900          48.700
  -1397696.066 3  -1089104.897 3  24321314.349    24321312.922    24321313.792
        21.100          19.900
 -21584110.271 7 -16818777.985 7  20379742.257    20379739.181    20379741.625
        45.800          43.400
 08  1  1  0 35 30.0000000  0 10G 6G21G 9G18G24G22G 7G15G10G26
  -4165571.733 3  -3245897.512 3  23998735.925    23998734.257    23998735.147
        23.000          23.000
 -24722315.815 7 -19264136.330 7  20322495.086    20322490.357    20322494.039
        45.400          47.100
  -5012816.813 3  -3906089.538 4  23784045.364    23784044.309    23784044.806
        23.800          24.600
 -10764477.048 7  -8387901.238 6  21653921.652    21653917.266    21653920.689
        42.900          38.100
 -18142329.605 7 -14136872.983 6  21109889.615    21109887.341    21109888.593
        43.800          40.700
  -1038340.351 3   -809096.196 3  24510577.936    24510573.471    24510577.335
        21.600          19.300
  -7138116.026 4  -5562164.951 3  23603940.231    23603938.136    23603938.961
        24.200          23.800
 -21853209.679 7 -17028465.277 8  20522737.640    20522734.046    20522737.211
        47.000          48.600
  -1305221.898 3  -1017047.176 3  24338912.435    24338910.711    24338911.081
        22.600          19.300
 -21527249.993 7 -16774471.272 7  20390562.269    20390559.302    20390561.757
        45.800          43.300
 08  1  1  0 36  0.0000000  0 10G 6G21G 9G18G24G22G 7G15G10G26
  -4068812.895 4  -3170501.019 3  24017148.595    24017146.440    24017147.975
        24.600          19.900
 -24747168.182 7 -19283501.812 7  20317765.874    20317761.130    20317764.821
        45.400          47.100
  -5130131.927 4  -3997503.893 3  23761721.574    23761719.731    23761720.884
        25.600          22.100
 -10823315.634 7  -8433749.474 6  21642724.795    21642720.549    21642723.867
        42.700          38.100
 -18084884.824 7 -14092110.825 6  21120820.986    21120818.791    21120820.015
        43.900          40.400
  -1126501.677 4   -877793.312 3  24493801.999    24493796.881    24493801.236
        25.600          19.900
  -7052031.816 4  -5495086.395 4  23620321.796    23620319.756    23620320.397
        25.900          24.900
 -21824838.433 7 -17006357.810 8  20528136.379    20528132.893    20528135.974
        47.000          48.500
  -1212700.113 3   -944952.326 3  24356520.274    24356517.597    24356518.562
        23.800          19.300
 -21469851.877 7 -16729745.470 7  20401484.768    20401481.708    20401484.271
        45.800          43.100
 08  1  1  0 36 30.0000000  0 10G 6G21G 9G18G24G22G 7G15G10G26
  -3971970.480 4  -3095039.425 3  24035576.900    24035575.201    24035576.190
        24.200          20.500
 -24771503.810 7 -19302464.641 7  20313135.089    20313130.247    20313133.960
        45.400          47.300
  -5247348.641 4  -4088841.570 3  23739415.134    23739414.257    23739414.750
        25.600          22.100
 -10881949.108 7  -8479437.893 6  21631567.329    21631562.952    21631566.371
        42.800          38.100
 -18027031.675 7 -14047030.454 6  21131830.120    21131827.882    21131829.187
        43.700          40.500
  -1214608.674 4   -946448.095 2  24477035.716    24477030.285    24477035.002
        25.900          16.100
  -6965763.605 4  -5427864.444 3  23636737.511    23636735.478    23636736.780
        27.400          23.000
 -21795981.863 7 -16983872.170 8  20533627.612    20533624.138    20533627.183
        46.700          48.500
  -1120131.185 3   -872820.748 3  24374133.277    24374132.457    24374132.688
        21.100          18.600
 -21411918.247 7 -16684602.375 7  20412509.212    20412506.133    20412508.615
        45.600          42.800
 08  1  1  0 37  0.0000000  0 10G 6G21G 9G18G24G22G 7G15G10G26
  -3875047.520 3  -3019515.062 3  24054021.195    24054019.099    24054020.394
        22.600          19.900
 -24795321.264 7 -19321023.698 7  20308602.674    20308597.939    20308601.587
        45.300          47.400
  -5364463.668 4  -4180100.009 4  23717129.328    23717128.304    23717128.869
        24.200          25.600
 -10940377.360 7  -8524966.395 6  21620448.688    21620444.476    21620447.739
        42.700          38.400
 -17968770.969 7 -14001632.509 6  21142916.900    21142914.487    21142915.933
        43.800          40.500
  -1302660.835 4  -1015060.158 2  24460280.365    24460274.884    24460279.416
        26.500          16.100
  -6879314.153 4  -5360501.251 3  23653188.865    23653186.404    23653187.591
        24.600          22.100
 -21766641.420 7 -16961009.486 8  20539210.907    20539207.448    20539210.463
        46.600          48.300
  -1027515.515 3   -800652.762 3  24391758.471    24391756.415    24391757.434
        20.500          18.600
 -21353451.868 7 -16639044.154 7  20423634.998    20423631.934    20423634.392
        45.500          43.100
 08  1  1  0 37 30.0000000  0 10G 6G21G 9G18G24G22G 7G15G10G26
  -3778046.811 3  -2943930.124 3  24072479.049    24072478.127    24072478.150
        22.100          21.100
 -24818618.860 7 -19339177.671 7  20304169.322    20304164.593    20304168.225
        45.400          47.400
  -5481473.660 3  -4271276.581 4  23694863.644    23694862.029    23694862.626
        22.600          24.900
 -10998599.578 7  -8570334.348 6  21609369.526    21609365.254    21609368.492
        43.000          38.600
 -17910103.468 7 -13955917.576 6  21154080.910    21154078.540    21154079.936
        43.900          40.300
  -1390657.440 4  -1083628.922 2  24443534.618    24443529.519    24443533.904
        25.900          15.100
  -6792686.486 4  -5292999.214 3  23669673.459    23669671.374    23669672.263
        25.300          21.100
 -21736819.030 7 -16937771.260 8  20544885.959    20544882.460    20544885.557
        46.700          48.300
   -934853.836 3   -728448.898 3  24409391.987    24409389.456    24409390.591
        22.100          21.100
 -21294455.327 7 -16593072.820 7  20434861.584    20434858.598    20434861.058
        45.400          42.800
 08  1  1  0 38  0.0000000  0 10G 6G21G 9G18G24G22G 7G15G10G26
  -3680971.299 3  -2868286.897 3  24090952.287    24090950.811    24090951.630
        22.600          18.600
 -24841395.670 7 -19356925.837 7  20299834.977    20299830.264    20299833.939
        45.200          47.300
  -5598375.533 3  -4362368.883 4  23672618.186    23672615.795    23672616.397
        23.800          24.900
 -11056615.206 7  -8615541.325 6  21598329.692    21598325.208    21598328.614
        43.200          39.000
 -17851030.170 7 -13909886.425 6  21165321.895    21165319.779    21165321.043
        43.600          40.400
  -1478598.429 4  -1152154.341 3  24426799.877    24426795.144    24426799.108
        24.600          19.300
  -6705883.414 4  -5225360.443 3  23686192.003    23686188.566    23686190.630
        26.200          19.300
 -21706515.828 7 -16914158.374 8  20550652.349    20550648.978    20550651.991
        46.600          48.200
   -842146.711 3   -656209.631 2  24427032.688    24427030.857    24427032.139
        23.000          17.000
 -21234931.366 7 -16546690.513 7  20446188.687    20446185.670    20446188.080
        45.300          42.900
 08  1  1  0 38 30.0000000  0 10G 6G21G 9G18G24G22G 7G15G10G26
  -3583823.604 3  -2792587.407 3  24109439.079    24109437.467    24109438.313
        22.600          19.300
 -24863649.788 7 -19374266.709 7  20295600.095    20295595.370    20295599.060
        45.300          47.400
  -5715165.496 4  -4453374.023 3  23650393.421    23650391.521    23650392.144
        24.900          23.400
 -11114423.295 7  -8660586.585 6  21587328.961    21587324.609    21587327.974
        43.400          38.600
 -17791551.808 7 -13863539.639 6  21176640.327    21176638.110    21176639.397
        43.400          40.100
  -1566482.783 3  -1220635.625 2  24410076.191    24410071.217    24410075.667
        22.600          17.800
  -6618907.823 4  -5157587.269 3  23702742.097    23702740.489    23702740.874
        24.600          21.600
 -21675733.518 7 -16890172.154 8  20556510.116    20556506.620    20556509.658
        46.700          48.100
   -749394.591 3   -583935.313 2  24444683.742    24444681.286    24444681.905
        19.300          17.800
 -21174882.580 7 -16499899.252 7  20457615.365    20457612.608    20457614.912
        45.300          42.900
 08  1  1  0 39  0.0000000  0 10G 6G21G 9G18G24G22G 7G15G10G26
  -3486606.747 3  -2716834.009 2  24127938.086    24127936.718    24127937.565
        19.300          15.100
 -24885379.990 7 -19391199.336 7  20291465.135    20291460.319    20291463.986
        45.200          47.400
  -5831840.709 4  -4544289.742 4  23628190.236    23628189.062    23628189.899
        25.300          24.600
 -11172023.387 7  -8705469.762 6  21576368.188    21576363.694    21576367.104
        43.400          38.900
 -17731669.423 7 -13816878.046 6  21188035.446    21188033.313    21188034.612
        43.400          39.800
  -1654310.588 3  -1289072.820 2  24393362.530    24393357.832    24393362.078
        18.600          17.800
  -6531762.556 3  -5089681.926 4  23719325.546    23719323.733    23719324.355
        23.400          24.600
 -21644473.804 7 -16865813.927 8  20562458.614    20562455.107    20562458.197
        46.700          48.000
   -656598.186 3   -511626.446 2  24462341.850    24462340.174    24462340.962
        23.800          16.100
 -21114311.625 7 -16452701.098 7  20469142.081    20469138.896    20469141.427
        45.500          42.700
 08  1  1  0 39 30.0000000  0 10G 6G21G 9G18G24G22G 7G15G10G26
  -3389323.453 2  -2641028.862 2  24146450.637    24146449.719    24146450.022
        17.800          15.100
 -24906584.697 7 -19407722.485 7  20287429.821    20287425.263    20287428.822
        45.300          47.500
  -5948397.507 4  -4635113.196 4  23606010.679    23606008.850    23606009.715
        26.500          24.900
 -11229415.098 7  -8750190.576 6  21565447.032    21565442.301    21565445.974
        43.400          38.900
 -17671384.095 7 -13769902.483 6  21199507.385    21199505.273    21199506.592
        43.500          40.100
  -1742081.213 3  -1357465.468 2  24376660.468    24376655.470    24376659.725
        22.600          17.800
  -6444450.550 4  -5021646.624 4  23735940.416    23735938.852    23735939.268
        25.900          24.900
 -21612737.876 7 -16841084.630 7  20568497.792    20568494.200    20568497.425
        47.000          47.900
   -563758.047 3   -439283.496 3  24480008.470    24480006.556    24480007.594
        23.000          18.600
 -21053221.286 7 -16405098.235 7  20480767.110    20480763.983    20480766.549
        45.400          42.700
 08  1  1  0 40  0.0000000  0 11G 6G21G 9G18G24G22G 3G 7G15G10G26
  -3291976.728 3  -2565174.326 2  24164975.124    24164973.854    24164974.283
        19.900          15.100
 -24927262.306 7 -19423834.909 7  20283494.971    20283490.372    20283493.937
        45.200          47.500
  -6064832.268 4  -4725841.549 4  23583854.118    23583852.395    23583853.057
        27.600          25.600
 -11286597.684 7  -8794748.429 6  21554565.273    21554560.903    21554564.341
        43.600          38.900
 -17610696.535 7 -13722613.491 6  21211056.109    21211053.788    21211055.140
        43.500          40.000
  -1829794.067 3  -1425813.095 3  24359969.704    24359964.583    24359968.853
        21.600          21.100
    -55024.006 2    -42875.963 2  24487114.527    24487111.417    24487113.278
        17.800          15.100
  -6356974.708 4  -4953483.651 4  23752586.444    23752584.396    23752585.190
        24.600          24.200
 -21580527.323 7 -16815985.492 7  20574627.286    20574623.692    20574626.926
        47.000          47.900
   -470874.540 3   -366906.796 2  24497684.799    24497681.920    24497683.327
        21.600          17.000
 -20991613.969 7 -16357092.530 7  20492490.424    20492487.413    20492489.865
        45.300          42.600
 08  1  1  0 40 30.0000000  0 11G 6G21G 9G18G24G22G 3G 7G15G10G26
  -3194569.219 2  -2489272.361 1  24183511.369    24183509.495    24183510.959
        17.800          11.000
 -24947411.510 7 -19439535.589 7  20279660.767    20279656.101    20279659.698
        45.200          47.500
  -6181142.180 4  -4816472.628 4  23561720.536    23561718.834    23561719.781
        26.200          24.600
 -11343570.347 7  -8839142.709 6  21543723.789    21543719.473    21543722.719
        43.400          39.300
 -17549607.771 7 -13675011.875 6  21222680.968    21222678.656    21222679.979
        43.300          39.800
  -1917448.624 3  -1494115.299 3  24343289.559    24343284.502    24343288.679
        23.400          22.600
    -95685.897 2    -74560.533 2  24479376.727    24479373.963    24479376.287
        17.000          16.100
  -6269337.694 4  -4885195.114 4  23769263.322    23769261.953    23769262.216
        24.200          24.600
 -21547844.007 7 -16790517.970 7  20580846.701    20580843.097    20580846.310
        46.900          47.700
   -377948.468 3   -294496.948 2  24515366.511    24515365.368    24515365.347
        20.500          17.800
 -20929492.572 7 -16308686.243 7  20504311.715    20504308.778    20504311.187
        45.200          42.700
 08  1  1  0 41  0.0000000  0 11G 6G21G 9G18G24G22G 3G 7G15G10G26
  -3097103.997 3  -2413325.462 2  24202059.340    24202057.092    24202058.193
        23.400          17.800
 -24967031.022 7 -19454823.524 7  20275927.424    20275922.666    20275926.291
        45.100          47.600
  -6297323.692 4  -4907003.634 4  23539612.088    23539610.456    23539611.113
        25.300          25.600
 -11400332.728 7  -8883373.129 6  21532922.022    21532917.967    21532921.118
        43.400          39.400
 -17488118.538 7 -13627098.197 6  21234382.041    21234379.656    21234380.958
        43.200          39.800
  -2005044.522 4  -1562371.791 3  24326620.058    24326615.793    24326619.426
        24.600          23.800
   -135827.148 3   -105839.423 2  24471737.979    24471735.266    24471737.004
        19.300          16.100
  -6181542.593 3  -4816783.392 3  23785970.584    23785968.106    23785969.199
        23.000          23.800
 -21514689.508 7 -16764683.292 7  20587155.825    20587152.118    20587155.367
        46.600          47.700
   -284980.383 3   -222054.329 2  24533058.932    24533056.170    24533057.513
        22.100          17.000
 -20866859.792 7 -16259881.477 7  20516230.461    20516227.421    20516229.870
        45.000          42.500
 08  1  1  0 41 30.0000000  0 11G 6G21G 9G18G24G22G 3G 7G15G10G26
  -2999583.778 3  -2337335.739 3  24220616.855    24220615.024    24220615.845
        21.100          19.300
 -24986119.833 7 -19469697.921 7  20272294.936    20272290.195    20272293.839
        45.200          47.600
  -6413373.704 4  -4997432.155 4  23517528.596    23517527.107    23517527.679
        25.900          27.400
 -11456883.791 7  -8927438.886 6  21522160.838    21522156.696    21522159.934
        43.400          39.500
 -17426230.019 7 -13578873.402 6  21246158.810    21246156.646    21246157.905
        43.100          39.700
  -2092581.219 4  -1630582.155 4  24309962.041    24309957.948    24309961.486
        25.300          24.200
   -175446.640 2   -136711.765 2  24464198.343    24464195.560    24464197.438
        17.000          13.900
  -6093592.178 4  -4748250.637 3  23802706.463    23802705.035    23802705.478
        24.200          23.000
 -21481065.285 7 -16738482.596 7  20593554.019    20593550.608    20593553.676
        46.600          47.600
   -191970.566 3   -149579.201 2  24550757.431    24550755.610    24550756.892
        21.100          17.000
 -20803718.318 7 -16210680.330 7  20528245.769    20528242.827    20528245.252
        45.100          42.500
 08  1  1  0 42  0.0000000  0 11G 6G21G 9G18G24G22G 3G 7G15G10G26
  -2902011.387 3  -2261305.312 3  24239183.940    24239182.184    24239183.125
        23.400          18.600
 -25004675.886 7 -19484157.188 7  20268763.727    20268759.119    20268762.694
        45.200          47.600
  -6529288.730 4  -5087755.497 4  23495470.434    23495468.641    23495469.745
        27.100          24.200
 -11513223.116 7  -8971339.654 6  21511439.911    21511435.598    21511438.843
        43.300          39.700
 -17363943.046 7 -13530338.119 6  21258011.722    21258009.492    21258010.734
        43.100          39.600
  -2180058.249 4  -1698746.022 3  24293316.873    24293311.107    24293315.897
        26.200          22.600
   -214543.293 3   -167176.709 1  24456759.094    24456756.005    24456758.235
        19.900          11.000
  -6005489.418 3  -4679599.171 3  23819472.328    23819470.295    23819471.110
        23.000          22.100
 -21446972.933 7 -16711917.120 7  20600041.735    20600038.239    20600041.255
        46.600          47.600
    -98920.067 3    -77072.373 2  24568465.747    24568462.461    24568463.626
        20.500          16.100
 -20740070.802 7 -16161084.861 7  20540357.631    20540354.539    20540357.006
        45.100          42.100
 08  1  1  0 42 30.0000000  0 11G 6G21G 9G18G24G22G 3G 7G15G10G26
  -2804389.590 3  -2185236.393 3  24257760.980    24257759.180    24257759.763
        21.100          19.900
 -25022697.952 7 -19498200.357 7  20265334.221    20265329.622    20265333.223
        45.200          47.700
  -6645065.134 4  -5177970.850 3  23473438.546    23473437.249    23473438.009
        27.400          23.000
 -11569350.142 7  -9015074.987 6  21500758.969    21500754.988    21500758.028
        43.300          39.700
 -17301258.605 7 -13481493.129 6  21269939.934    21269938.013    21269939.149
        43.100          39.700
  -2267475.210 4  -1766863.120 3  24276682.006    24276676.446    24276680.816
        25.600          20.500
   -253115.855 3   -197233.228 2  24449418.053    24449416.109    24449417.320
        19.300          12.600
  -5917237.114 4  -4610831.145 3  23836266.614    23836264.263    23836265.341
        25.300          20.500
 -21412414.296 7 -16684988.310 7  20606617.848    20606614.533    20606617.527
        46.300          47.600
     -5829.003 3     -4533.944 2  24586179.286    24586177.495    24586178.013
        19.900          13.900
 -20675920.066 7 -16111097.274 7  20552565.010    20552561.979    20552564.499
        45.100          42.300
 08  1  1  0 43  0.0000000  0 11G 6G21G 9G18G24G22G 3G 7G15G10G26
  -2706721.359 3  -2109131.298 3  24276346.174    24276344.986    24276345.371
        23.800          23.000
 -25040184.758 7 -19511826.440 7  20262006.631    20262002.017    20262005.523
        45.000          47.700
  -6760699.611 4  -5268075.621 3  23451433.608    23451432.496    23451433.268
        25.600          23.400
 -11625264.150 7  -9058644.340 6  21490119.093    21490114.910    21490118.095
        43.600          39.900
 -17238177.625 7 -13432339.144 6  21281944.084    21281941.918    21281943.101
        43.000          39.500
  -2354831.637 3  -1834933.046 3  24260057.711    24260052.283    24260057.067
        23.000          18.600
   -291163.110 2   -226880.437 1  24442178.915    24442176.022    24442177.894
        17.800          11.000
  -5828838.136 4  -4541948.826 3  23853087.676    23853085.639    23853086.552
        26.800          19.300
 -21377390.726 7 -16657697.212 7  20613282.779    20613279.300    20613282.328
        46.400          47.600
     87301.885 2     68035.532 2  24603900.778    24603899.397    24603899.997
        13.900          12.600
 -20611268.627 7 -16060719.529 7  20564867.684    20564864.761    20564867.148
        45.000          42.200
 08  1  1  0 43 30.0000000  0 11G 6G21G 9G18G24G22G 3G 7G15G10G26
  -2609009.411 3  -2032992.157 3  24294939.785    24294939.049    24294939.440
        21.600          22.600
 -25057134.926 7 -19525034.367 7  20258781.132    20258776.524    20258780.043
        45.100          47.700
  -6876188.953 4  -5358067.311 4  23429456.655    23429455.356    23429456.624
        27.600          24.600
 -11680964.498 7  -9102047.206 6  21479519.676    21479515.443    21479518.713
        43.900          39.800
 -17174701.177 7 -13382877.019 6  21294023.281    21294021.137    21294022.278
        42.900          39.300
  -2442127.002 3  -1902955.366 3  24243446.115    24243440.967    24243445.532
        21.600          19.300
   -328684.129 3   -256117.621 2  24435038.327    24435035.641    24435037.784
        18.600          15.100
  -5740295.350 4  -4472954.465 2  23869936.950    23869935.015    23869935.771
        26.200          17.800
 -21341904.022 7 -16630045.231 7  20620035.631    20620032.180    20620035.263
        46.400          47.500
    180472.206 2    140635.716 2  24621633.032    24621630.174    24621630.658
        17.000          17.000
 -20546119.492 7 -16009953.966 7  20577265.312    20577262.100    20577264.678
        44.900          42.000
 08  1  1  0 44  0.0000000  0 11G 6G21G 9G18G24G22G 3G 7G15G10G26
  -2511256.588 3  -1956821.138 3  24313542.221    24313540.421    24313541.072
        18.600          21.100
 -25073547.363 7 -19537823.282 7  20255657.888    20255653.298    20255656.842
        45.100          47.800
  -6991529.714 4  -5447943.207 4  23407508.498    23407506.980    23407507.867
        27.600          24.900
 -11736450.398 7  -9145282.966 6  21468961.225    21468956.817    21468960.215
        44.000          39.900
 -17110830.282 7 -13333107.525 6  21306177.457    21306175.324    21306176.565
        43.100          39.300
  -2529360.738 4  -1970929.655 3  24226846.303    24226840.888    24226845.769
        24.200          21.600
   -365677.949 2   -284943.935 2  24427998.182    24427996.070    24427997.445
        15.100          17.800
  -5651611.648 4  -4403850.312 3  23886812.594    23886810.720    23886811.628
        24.900          19.900
 -21305955.892 7 -16602033.694 7  20626876.556    20626872.904    20626876.037
        46.500          47.400
    273681.220 2    213266.029 2  24639368.848    24639366.512    24639367.769
        17.800          17.800
 -20480475.261 7 -15958802.613 6  20589756.941    20589753.769    20589756.371
        44.900          41.900
 08  1  1  0 44 30.0000000  0 11G 6G21G 9G18G24G22G 3G 7G15G10G26
  -2413465.642 3  -1880620.428 3  24332151.019    24332149.524    24332150.405
        21.600          21.100
 -25089420.768 7 -19550192.169 7  20252637.145    20252632.689    20252636.176
        45.000          47.700
  -7106718.615 4  -5537700.759 4  23385588.584    23385587.419    23385588.260
        25.900          25.600
 -11791721.463 7  -9188351.326 6  21458443.326    21458439.117    21458442.393
        43.700          40.100
 -17046565.771 7 -13283031.316 6  21318406.721    21318404.453    21318405.732
        43.000          39.100
  -2616532.637 4  -2038855.770 3  24210258.039    24210252.517    24210257.305
        24.900          21.100
   -402143.026 3   -313358.321 3  24421060.178    24421057.394    24421059.162
        18.600          19.900
  -5562789.980 3  -4334638.654 3  23903715.444    23903713.542    23903714.293
        23.400          20.500
 -21269547.902 7 -16573663.830 7  20633804.511    20633801.081    20633804.118
        46.300          47.300
    366928.645 3    285926.316 3  24657112.901    24657111.354    24657111.928
        19.900          19.300
 -20414338.702 7 -15907267.634 6  20602342.290    20602339.101    20602341.629
        44.700          41.800
 08  1  1  0 45  0.0000000  0 11G 6G21G 9G18G24G22G 3G 7G15G10G26
  -2315639.388 3  -1804392.240 2  24350766.620    24350764.869    24350765.766
        21.100          17.800
 -25104753.312 7 -19562139.610 7  20249719.606    20249715.014    20249718.508
        44.800          47.700
  -7221752.181 4  -5627337.270 4  23363699.134    23363697.170    23363698.238
        27.900          26.800
 -11846776.769 7  -9231251.561 6  21447966.665    21447962.491    21447965.642
        43.800          39.900
 -16981908.751 7 -13232649.261 6  21330710.523    21330708.298    21330709.598
        42.800          39.100
  -2703641.847 4  -2106733.057 3  24193681.263    24193676.458    24193680.576
        25.300          19.900
   -438078.296 3   -341359.824 3  24414221.387    24414218.725    24414220.317
        21.100          19.300
  -5473833.145 3  -4265321.649 2  23920642.660    23920640.775    23920641.840
        23.000          17.800
 -21232681.694 7 -16544936.912 7  20640820.061    20640816.499    20640819.563
        46.400          47.300
    460213.761 3    358615.964 3  24674864.593    24674863.010    24674863.836
        21.100          21.100
 -20347712.529 7 -15855351.133 6  20615020.746    20615017.709    20615020.237
        44.800          41.800
 08  1  1  0 45 30.0000000  0 11G 6G21G 9G18G24G22G 3G 7G15G10G26
  -2217780.803 3  -1728138.833 2  24369388.534    24369386.515    24369388.229
        20.500          13.900
 -25119544.648 7 -19573665.325 7  20246904.627    20246900.313    20246903.691
        44.800          47.700
  -7336627.032 4  -5716850.098 4  23341839.561    23341837.242    23341838.376
        27.600          27.100
 -11901616.022 7  -9273983.442 6  21437531.104    21437526.877    21437530.157
        43.900          40.400
 -16916860.278 7 -13181962.159 6  21343088.940    21343086.727    21343087.971
        42.900          39.000
  -2790687.943 4  -2174561.164 2  24177116.839    24177111.972    24177116.154
        24.200          17.000
   -473482.860 3   -368947.797 3  24407484.538    24407481.386    24407483.391
        22.600          19.900
  -5384743.920 3  -4195901.534 3  23937596.340    23937594.042    23937594.847
        20.500          19.300
 -21195358.971 7 -16515854.264 7  20647922.095    20647918.772    20647921.830
        46.400          47.300
    553535.992 3    431334.514 3  24692623.588    24692621.902    24692622.417
        20.500          21.600
 -20280599.631 7 -15803055.365 6  20627792.014    20627788.815    20627791.436
        44.900          41.600
 08  1  1  0 46  0.0000000  0 11G 6G21G 9G18G24G22G 3G 7G15G10G26
  -2119892.530 3  -1651862.241 1  24388016.106    24388014.785    24388015.384
        19.300          11.000
 -25133793.172 7 -19584768.074 7  20244193.611    20244188.878    20244192.416
        44.800          47.700
  -7451339.640 4  -5806236.515 4  23320010.391    23320008.096    23320009.075
        27.100          26.500
 -11956238.422 7  -9316546.350 6  21427136.869    21427132.512    21427135.934
        44.000          40.200
 -16851421.625 7 -13130971.017 6  21355541.659    21355539.300    21355540.621
        42.700          39.000
  -2877670.455 4  -2242339.725 3  24160564.523    24160559.844    24160563.844
        24.900          20.500
   -508356.081 3   -396121.751 3  24400848.132    24400845.771    24400847.288
        22.100          19.300
  -5295525.250 3  -4126380.491 3  23954573.881    23954572.538    23954572.682
        22.600          19.900
 -21157581.447 7 -16486417.225 7  20655111.082    20655107.567    20655110.690
        46.500          47.100
    646895.047 3    504081.738 2  24710389.491    24710387.106    24710387.975
        19.300          17.000
 -20213002.751 7 -15750382.469 6  20640655.173    20640652.101    20640654.619
        44.700          41.300
 08  1  1  0 46 30.0000000  0 11G 6G21G 9G18G24G22G 3G 7G15G10G26
  -2021977.348 2  -1575564.683 2  24406648.252    24406647.485    24406647.641
        17.000          13.900
 -25147497.321 7 -19595446.637 7  20241585.844    20241581.042    20241584.652
        44.900          47.800
  -7565886.557 4  -5895493.825 4  23298212.573    23298209.905    23298211.525
        27.900          25.300
 -12010643.232 7  -9358939.709 6  21416783.836    21416779.702    21416782.875
        43.700          40.300
 -16785593.813 7 -13079676.638 6  21368067.912    21368065.965    21368067.102
        42.700          39.000
  -2964589.008 4  -2310068.441 3  24144024.508    24144019.690    24144023.935
        25.600          20.500
   -542696.850 3   -422880.786 3  24394313.420    24394310.922    24394312.331
        19.900          21.600
  -5206180.051 3  -4056760.909 3  23971576.246    23971573.694    23971574.982
        21.600          19.900
 -21119350.950 7 -16456627.220 7  20662386.186    20662382.548    20662385.742
        46.400          47.100
    740290.319 3    576857.252 1  24728161.273    24728159.565    24728160.481
        19.900           9.000
 -20144924.729 7 -15697334.656 6  20653610.180    20653606.931    20653609.548
        44.600          41.400
 08  1  1  0 47  0.0000000  0 11G 6G21G 9G18G24G22G 3G 7G15G10G26
  -1924037.988 1  -1499248.356 2  24425286.034    24425284.725    24425284.699
         9.000          17.800
 -25160656.343 7 -19605700.422 7  20239081.576    20239076.993    20239080.536
        44.900          47.800
  -7680264.358 4  -5984619.375 4  23276446.416    23276445.155    23276446.094
        28.400          27.100
 -12064829.518 7  -9401162.782 6  21406472.387    21406468.321    21406471.433
        43.600          40.300
 -16719377.661 7 -13028079.648 6  21380668.762    21380666.409    21380667.671
        42.300          38.700
  -3051443.096 4  -2377746.921 3  24127496.733    24127491.709    24127496.158
        26.500          19.300
   -576504.113 3   -449224.108 3  24387880.203    24387877.744    24387879.457
        23.800          20.500
  -5116711.264 3  -3987044.956 2  23988601.131    23988599.395    23988599.891
        22.600          17.800
 -21080668.910 7 -16426485.370 7  20669747.080    20669743.484    20669746.672
        46.400          47.000
    833721.174 3    649660.467 3  24745941.392    24745939.083    24745939.807
        18.600          18.600
 -20076368.290 7 -15643914.056 6  20666655.945    20666652.952    20666655.342
        44.400          41.500
 08  1  1  0 47 30.0000000  0 11G 6G21G 9G18G24G22G 3G 7G15G10G26
  -1826077.302 3  -1422915.438 2  24443926.805    24443925.280    24443926.261
        18.600          15.100
 -25173268.651 7 -19615528.198 7  20236681.508    20236677.000    20236680.488
        45.000          47.900
  -7794469.759 4  -6073610.556 4  23254714.364    23254712.506    23254713.614
        28.800          27.400
 -12118797.011 7  -9443215.371 6  21396203.034    21396198.612    21396201.976
        43.900          40.500
 -16652774.446 7 -12976181.047 6  21393342.560    21393340.520    21393341.782
        42.400          38.600
  -3138232.074 4  -2445374.685 3  24110981.156    24110976.353    24110980.781
        27.600          21.100
   -609777.328 3   -475151.274 3  24381548.623    24381545.521    24381547.464
        23.000          19.900
  -5027121.593 3  -3917234.857 3  24005649.320    24005647.553    24005647.993
        21.100          19.900
 -21041537.182 7 -16395993.111 7  20677193.613    20677190.044    20677193.143
        46.400          46.900
    927187.109 2    722490.972 3  24763726.515    24763725.376    24763725.603
        17.800          18.600
 -20007336.220 7 -15590122.836 6  20679792.194    20679789.315    20679791.612
        44.400          41.400
 08  1  1  0 48  0.0000000  0 11G 6G21G 9G18G24G22G 3G 7G15G10G26
  -1728098.238 3  -1346568.125 1  24462572.771    24462570.569    24462571.922
        20.500          11.000
 -25185333.613 7 -19624929.469 7  20234385.667    20234381.115    20234384.665
        45.200          47.900
  -7908499.441 4  -6162464.827 4  23233015.535    23233013.348    23233014.852
        29.900          27.900
 -12172544.951 7  -9485096.878 6  21385975.074    21385970.704    21385974.094
        44.000          40.500
 -16585785.166 7 -12923981.602 6  21406090.276    21406088.210    21406089.361
        42.300          38.500
  -3224955.452 4  -2512951.334 3  24094478.184    24094473.598    24094477.774
        27.600          23.000
   -642515.046 3   -500661.217 3  24375318.274    24375316.245    24375317.605
        21.600          20.500
  -4937413.967 3  -3847332.843 3  24022720.678    24022718.906    24022719.449
        22.600          21.600
 -21001957.612 7 -16365151.883 7  20684725.213    20684721.813    20684724.857
        46.300          46.800
   1020687.646 3    795348.509 2  24781520.736    24781517.772    24781518.728
        19.900          15.100
 -19937831.437 7 -15535963.258 6  20693018.520    20693015.612    20693017.953
        44.300          41.200
 08  1  1  0 48 30.0000000  0 11G 6G21G 9G18G24G22G 3G 7G15G10G26
  -1630103.304 3  -1270208.417 2  24481219.875    24481218.351    24481219.179
        20.500          12.600
 -25196849.637 7 -19633902.994 8  20232194.490    20232189.669    20232193.366
        44.900          48.000
  -8022349.903 4  -6251179.450 4  23211350.228    23211348.589    23211349.280
        28.800          28.100
 -12226072.484 7  -9526806.643 6  21375789.098    21375784.700    21375788.055
        44.000          40.400
 -16518410.933 7 -12871482.214 6  21418911.366    21418909.293    21418910.397
        42.200          38.800
  -3311612.541 4  -2580476.325 4  24077988.216    24077983.340    24077987.736
        28.100          24.200
   -674716.282 3   -525753.082 3  24369190.764    24369188.097    24369189.889
        21.600          21.600
  -4847591.215 3  -3777341.142 3  24039813.289    24039811.255    24039812.053
        23.400          22.100
 -20961931.876 7 -16333962.993 7  20692342.039    20692338.437    20692341.539
        46.200          46.900
   1114222.242 3    868232.556 2  24799318.165    24799317.007    24799317.974
        23.000          17.800
 -19867856.560 7 -15481437.380 6  20706334.497    20706331.320    20706333.887
        44.300          41.000
 08  1  1  0 49  0.0000000  0 11G 6G21G 9G18G24G22G 3G 7G15G10G26
  -1532095.365 3  -1193838.579 2  24499869.706    24499868.379    24499869.688
        19.300          12.600
 -25207815.457 7 -19642447.793 7  20230107.572    20230102.935    20230106.504
        44.700          47.900
  -8136017.673 4  -6339751.702 4  23189720.970    23189718.154    23189719.384
        29.000          28.400
 -12279378.987 7  -9568344.177 6  21365645.274    21365640.851    21365644.191
        44.000          40.400
 -16450653.078 7 -12818683.904 6  21431805.218    21431803.271    21431804.305
        42.100          39.000
  -3398203.213 4  -2647949.543 4  24061510.596    24061505.436    24061509.948
        27.400          25.600
   -706380.360 3   -550426.381 3  24363165.617    24363162.676    24363164.698
        23.000          21.100
  -4757656.315 4  -3707262.007 3  24056927.691    24056925.217    24056926.187
        24.600          23.400
 -20921461.627 7 -16302427.733 7  20700042.990    20700039.638    20700042.701
        46.100          46.800
   1207790.421 3    941142.779 2  24817125.063    24817122.182    24817123.684
        22.600          15.100
 -19797414.453 7 -15426547.425 6  20719739.206    20719736.065    20719738.676
        44.300          41.100
 08  1  1  0 49 30.0000000  0 11G 6G21G 9G18G24G22G 3G 7G15G10G26
  -1434077.209 3  -1117460.840 2  24518522.631    24518520.977    24518522.082
        18.600          13.900
 -25218230.391 7 -19650563.328 8  20228125.768    20228121.104    20228124.637
        44.800          48.100
  -8249499.236 4  -6428178.868 4  23168126.047    23168123.342    23168124.380
        28.600          27.900
 -12332463.691 7  -9609708.879 6  21355543.572    21355539.179    21355542.525
        44.300          40.600
 -16382512.636 6 -12765587.471 6  21444771.927    21444769.938    21444770.903
        41.900          38.800
  -3484726.880 4  -2715370.551 4  24045045.330    24045040.651    24045044.607
        24.900          26.200
   -737506.741 3   -574680.707 3  24357242.255    24357239.459    24357241.341
        23.800          19.300
  -4667612.071 3  -3637097.692 3  24074062.131    24074060.087    24074060.753
        23.400          19.900
 -20880548.597 7 -16270547.447 7  20707828.547    20707825.148    20707828.218
        46.300          46.600
   1301391.448 3   1014078.567 2  24834935.614    24834934.536    24834935.131
        23.800          16.100
 -19726508.002 7 -15371295.641 6  20733232.266    20733229.106    20733231.644
        44.100          41.200
 08  1  1  0 50  0.0000000  0 11G 6G21G 9G18G24G22G 3G 7G15G10G26
  -1336051.469 3  -1041077.163 1  24537175.759    24537173.982    24537175.206
        19.900           6.500
 -25228093.035 7 -19658248.511 8  20226248.837    20226244.345    20226247.777
        44.700          48.000
  -8362791.401 4  -6516458.449 4  23146566.485    23146564.239    23146565.100
        28.600          25.900
 -12385326.303 7  -9650900.526 6  21345484.286    21345479.810    21345483.168
        44.200          40.800
 -16313990.723 6 -12712193.796 6  21457811.397    21457809.186    21457810.333
        41.900          38.600
  -3571182.778 3  -2782738.749 4  24028593.915    24028588.444    24028592.874
        23.800          25.300
   -768094.092 4   -598515.007 2  24351421.807    24351418.611    24351420.872
        24.200          17.800
  -4577461.272 4  -3566850.349 3  24091216.859    24091215.447    24091215.678
        24.600          19.900
 -20839194.717 7 -16238323.640 7  20715697.977    20715694.505    20715697.622
        46.100          46.600
   1395025.104 2   1087039.819 2  24852753.124    24852752.012    24852753.153
        17.000          13.900
 -19655139.957 7 -15315684.179 6  20746812.871    20746810.033    20746812.375
        44.100          41.000
 08  1  1  0 50 30.0000000  0 11G 6G21G 9G18G24G22G 3G 7G15G10G26
  -1238021.134 3   -964689.917 1  24555831.190    24555828.821    24555830.219
        18.600          11.000
 -25237402.506 7 -19665502.646 8  20224477.210    20224472.799    20224476.216
        44.700          48.000
  -8475890.478 4  -6604587.575 4  23125044.274    23125042.059    23125043.002
        29.000          26.500
 -12437965.664 7  -9691918.202 6  21335467.190    21335462.872    21335466.200
        44.300          40.900
 -16245088.244 6 -12658503.575 6  21470923.241    21470920.814    21470922.082
        41.800          38.400
  -3657570.547 4  -2850053.860 4  24012154.274    24012149.537    24012153.551
        24.200          24.600
   -798141.669 4   -621928.702 2  24345704.119    24345700.698    24345703.110
        25.300          17.800
  -4487206.911 4  -3496522.309 3  24108392.343    24108390.471    24108390.890
        25.300          21.600
 -20797401.786 7 -16205757.714 7  20723650.969    20723647.414    20723650.509
        46.100          46.500
   1488690.759 2   1160025.942 2  24870577.838    24870575.986    24870576.915
        17.800          15.100
 -19583313.229 7 -15259715.304 6  20760481.239    20760478.111    20760480.583
        44.000          40.900
 08  1  1  0 51  0.0000000  0 11G 6G21G 9G18G24G22G 3G 7G15G10G26
  -1139988.691 3   -888301.020 3  24574486.235    24574484.160    24574485.289
        21.100          18.600
 -25246157.698 7 -19672324.875 8  20222811.317    20222806.739    20222810.289
        44.800          48.000
  -8588793.274 4  -6692563.775 4  23103558.955    23103557.561    23103558.470
        29.000          27.600
 -12490381.516 7  -9732761.717 6  21325492.737    21325488.387    21325491.725
        44.200          40.900
 -16175806.700 6 -12604517.993 6  21484106.944    21484104.737    21484106.014
        41.900          37.900
  -3743889.707 3  -2917315.513 3  23995729.022    23995723.391    23995728.221
        23.800          22.100
   -827649.123 4   -644921.519 3  24340089.084    24340085.972    24340088.045
        24.600          18.600
  -4396851.797 4  -3426115.745 3  24125585.847    24125584.477    24125584.855
        25.300          21.600
 -20755171.416 7 -16172850.933 7  20731687.161    20731683.653    20731686.671
        46.100          46.500
   1582387.821 3   1233036.592 2  24888408.745    24888406.160    24888406.689
        19.300          16.100
 -19511030.654 7 -15203391.220 6  20774235.872    20774233.073    20774235.404
        43.900          40.700
 08  1  1  0 51 30.0000000  0  9G21G 9G18G24G22G 3G 7G15G26
 -25254357.540 7 -19678714.368 8  20221251.018    20221246.355    20221249.913
        45.000          48.000
  -8701496.141 5  -6780384.183 4  23082112.165    23082110.749    23082111.879
        30.400          27.600
 -12542573.038 7  -9773430.436 6  21315561.057    21315556.670    21315559.986
        44.100          40.900
 -16106147.301 6 -12550237.978 6  21497362.726    21497360.426    21497361.690
        41.900          38.000
  -3830139.697 4  -2984523.269 3  23979315.896    23979310.701    23979315.305
        25.600          18.600
   -856615.164 4   -667492.461 3  24334577.036    24334574.347    24334575.937
        25.300          22.100
  -4306398.706 4  -3355632.833 2  24142798.625    24142797.196    24142797.366
        24.200          17.800
 -20712505.334 7 -16139604.634 7  20739806.075    20739802.815    20739805.706
        46.100          46.500
 -19438294.929 7 -15146714.027 6  20788077.177    20788074.186    20788076.622
        44.000          40.600
 08  1  1  0 52  0.0000000  0  9G21G 9G18G24G22G 3G 7G15G26
 -25262000.944 7 -19684670.269 8  20219796.344    20219791.832    20219795.344
        44.900          48.000
  -8813995.714 5  -6868046.183 4  23060704.118    23060702.828    23060704.045
        30.100          28.100
 -12594539.325 7  -9813923.645 6  21305671.937    21305667.792    21305671.036
        44.400          41.000
 -16036111.111 6 -12495664.358 6  21510690.182    21510687.971    21510689.165
        41.900          38.100
  -3916320.024 4  -3051676.765 2  23962916.724    23962910.809    23962915.566
        26.800          17.000
   -885039.249 3   -689641.080 2  24329167.691    24329164.793    24329167.057
        22.100          16.100
  -4215850.554 3  -3285075.843 3  24160029.553    24160027.491    24160028.245
        18.600          18.600
 -20669405.542 7 -16106020.381 7  20748007.735    20748004.436    20748007.379
        46.200          46.600
 -19365109.101 7 -15089686.109 6  20802004.063    20802001.038    20802003.468
        44.100          40.600
 08  1  1  0 52 30.0000000  0  9G21G 9G18G24G22G 3G 7G15G26
 -25269087.134 7 -19690191.979 8  20218447.926    20218443.397    20218446.894
        44.900          48.000
  -8926288.451 4  -6955546.999 4  23039335.714    23039334.573    23039335.181
        29.500          29.000
 -12646279.763 7  -9854240.864 6  21295826.428    21295821.929    21295825.409
        44.500          41.000
 -15965699.275 6 -12440798.027 6  21524088.727    21524086.942    21524087.956
        41.800          38.000
  -4002429.830 4  -3118775.318 3  23946529.624    23946524.234    23946529.054
        26.800          19.900
   -912920.529 3   -711366.764 3  24323862.360    24323859.272    24323861.792
        23.000          20.500
  -4125210.178 3  -3214447.026 2  24177278.037    24177275.907    24177276.636
        19.900          16.100
 -20625873.690 7 -16072099.455 7  20756291.617    20756288.179    20756291.233
        46.200          46.300
 -19291475.834 7 -15032309.535 6  20816015.937    20816012.925    20816015.387
        44.000          40.400
 08  1  1  0 53  0.0000000  0  9G21G 9G18G24G22G 3G 7G15G26
 -25275615.054 7 -19695278.675 8  20217205.646    20217201.147    20217204.662
        44.900          48.000
  -9038371.142 5  -7042884.146 4  23018007.261    23018005.488    23018006.686
        30.400          27.400
 -12697793.450 7  -9894381.397 6  21286023.711    21286019.178    21286022.691
        44.600          41.200
 -15894913.101 6 -12385640.001 6  21537559.277    21537557.136    21537558.261
        41.700          37.900
  -4088469.053 4  -3185818.858 3  23930157.352    23930152.022    23930156.660
        28.800          21.600
   -940258.490 3   -732669.081 3  24318659.708    24318657.472    24318658.724
        21.100          22.100
  -4034480.491 3  -3143748.566 1  24194543.681    24194541.254    24194542.096
        18.600          11.000
 -20581911.614 7 -16037843.289 7  20764657.182    20764653.888    20764656.868
        46.100          46.300
 -19217398.124 7 -14974586.642 6  20830112.518    20830109.455    20830111.993
        43.800          40.500
 08  1  1  0 53 30.0000000  0  9G21G 9G18G24G22G 3G 7G15G26
 -25281583.502 7 -19699929.419 8  20216069.974    20216065.376    20216068.890
        45.000          48.000
  -9150239.971 5  -7130054.660 4  22996720.235    22996717.644    22996719.107
        30.200          27.900
 -12749080.096 7  -9934345.013 6  21276263.788    21276259.632    21276262.913
        44.500          41.200
 -15823753.792 6 -12330191.215 6  21551100.159    21551098.295    21551099.428
        41.700          37.500
  -4174436.801 5  -3252806.702 4  23913798.442    23913793.297    23913797.770
        30.200          24.600
   -967052.680 3   -753547.687 3  24313561.600    24313558.620    24313560.673
        23.000          18.600
  -3943664.257 2  -3072982.672 2  24211823.858    24211822.724    24211822.892
        17.000          12.600
 -20537521.065 7 -16003253.247 7  20773104.539    20773101.123    20773104.118
        46.100          46.100
 -19142878.796 7 -14916519.634 6  20844292.950    20844289.990    20844292.448
        43.800          40.300
 08  1  1  0 54  0.0000000  0  9G21G 9G18G24G22G 3G 7G15G26
 -25286991.656 7 -19704143.566 7  20215040.942    20215036.169    20215039.854
        44.800          47.900
  -9261891.636 5  -7217055.922 4  22975473.088    22975471.348    22975472.285
        30.200          28.800
 -12800139.097 7  -9974131.242 6  21266547.720    21266543.484    21266546.708
        44.300          41.400
 -15752222.690 6 -12274452.716 6  21564712.670    21564710.204    21564711.484
        41.300          37.600
  -4260332.769 4  -3319738.601 4  23897452.534    23897447.549    23897452.242
        28.800          24.200
   -993302.102 3   -774001.773 2  24308566.036    24308563.210    24308565.194
        21.600          17.800
  -3852764.269 3  -3002151.551 2  24229121.810    24229120.426    24229120.726
        18.600          16.100
 -20492704.073 7 -15968330.913 7  20781633.024    20781629.493    20781632.576
        46.100          46.100
 -19067920.548 7 -14858110.609 6  20858557.110    20858554.114    20858556.549
        43.600          40.200
 08  1  1  0 54 30.0000000  0  9G21G 9G18G24G22G 3G 7G15G26
 -25291838.750 7 -19707920.528 7  20214118.489    20214113.798    20214117.414
        44.900          47.900
  -9373322.821 5  -7303885.397 4  22954269.337    22954266.639    22954267.852
        30.100          28.600
 -12850969.379 7 -10013739.246 6  21256875.101    21256870.892    21256874.151
        44.700          41.600
 -15680320.937 6 -12218425.387 6  21578394.893    21578392.734    21578393.851
        41.300          37.800
  -4346156.174 4  -3386613.964 4  23881120.893    23881115.664    23881120.162
        27.100          24.600
  -1019006.512 3   -794031.187 2  24303674.961    24303671.784    24303673.876
        21.600          15.100
  -3761783.527 3  -2931257.480 2  24246435.477    24246433.715    24246434.385
        19.300          17.800
 -20447462.493 7 -15933077.730 7  20790242.091    20790238.660    20790241.701
        46.200          46.100
 -18992526.471 7 -14799361.980 6  20872904.116    20872901.004    20872903.540
        43.600          39.800
 08  1  1  0 55  0.0000000  0  9G21G 9G18G24G22G 3G 7G15G26
 -25296123.747 7 -19711259.490 7  20213302.910    20213298.465    20213301.877
        44.800          47.900
  -9484530.058 5  -7390540.367 4  22933106.206    22933104.432    22933105.474
        30.400          28.600
 -12901570.288 7 -10053168.520 6  21247246.089    21247241.840    21247245.110
        44.700          41.600
 -15608049.689 6 -12162110.149 6  21592147.632    21592145.560    21592146.564
        41.100          37.800
  -4431906.780 4  -3453432.592 4  23864803.263    23864797.976    23864802.501
        25.900          25.300
  -1044164.984 3   -813635.205 2  24298887.703    24298884.144    24298886.405
        22.100          16.100
  -3670724.722 3  -2860302.594 3  24263762.972    24263761.844    24263761.588
        21.100          19.900
 -20401798.074 7 -15897495.063 7  20798931.762    20798928.305    20798931.299
        46.100          46.000
 -18916699.233 7 -14740275.821 6  20887333.477    20887330.384    20887332.938
        43.400          39.700
 08  1  1  0 55 30.0000000  0  9G21G 9G18G24G22G 3G 7G15G26
 -25299845.662 7 -19714159.685 8  20212594.696    20212590.215    20212593.692
        44.900          48.000
  -9595509.849 5  -7477018.097 5  22911988.635    22911985.937    22911987.186
        30.400          30.600
 -12951941.254 7 -10092418.619 6  21237660.719    21237656.516    21237659.880
        44.800          41.600
 -15535410.412 6 -12105508.132 6  21605970.382    21605968.399    21605969.355
        41.000          37.600
  -4517583.946 4  -3520193.972 4  23848499.461    23848494.464    23848498.638
        24.600          27.400
  -1068776.919 3   -832813.311 2  24294203.815    24294201.060    24294202.712
        23.800          17.800
  -3579590.713 4  -2789289.119 3  24281106.172    24281104.167    24281104.849
        24.600          19.900
 -20355712.226 7 -15861584.010 7  20807701.564    20807698.178    20807701.130
        46.000          45.900
 -18840441.902 7 -14680854.522 6  20901844.814    20901841.599    20901844.290
        43.600          39.300
 08  1  1  0 56  0.0000000  0  9G21G 9G18G24G22G 3G 7G15G26
 -25303003.990 7 -19716620.725 8  20211993.840    20211989.197    20211992.722
        44.600          48.000
  -9706258.566 5  -7563315.773 4  22890912.982    22890910.959    22890912.134
        31.000          29.900
 -13002081.544 7 -10131488.973 6  21228119.525    21228115.119    21228118.506
        44.800          41.800
 -15462404.199 6 -12048620.199 6  21619863.100    21619861.036    21619862.074
        40.800          37.700
  -4603187.009 4  -3586897.602 4  23832208.944    23832204.748    23832208.450
        24.900          24.900
  -1092841.673 3   -851565.036 2  24289623.974    24289621.762    24289623.498
        19.900          17.800
  -3488384.375 4  -2718219.275 3  24298462.144    24298459.946    24298460.769
        25.600          21.100
 -20309207.079 7 -15825346.231 7  20816551.050    20816547.851    20816550.739
        45.900          45.900
 -18763757.267 7 -14621100.263 6  20916437.503    20916434.340    20916436.860
        43.300          39.500
 08  1  1  0 56 30.0000000  0  9G21G 9G18G24G22G 3G 7G15G26
 -25305597.452 7 -19718641.606 8  20211500.080    20211495.729    20211499.124
        44.600          48.100
  -9816772.660 5  -7649430.626 4  22869882.038    22869880.658    22869881.897
        31.800          29.700
 -13051990.161 7 -10170378.802 7  21218621.982    21218617.868    21218621.070
        44.600          42.000
 -15389032.402 6 -11991447.404 6  21633824.967    21633823.308    21633824.195
        41.000          37.600
  -4688715.350 4  -3653543.026 4  23815934.129    23815929.042    23815933.211
        26.500          24.600
  -1116358.604 2   -869889.931 2  24285148.454    24285146.532    24285147.732
        15.100          13.900
  -3397108.655 4  -2647095.351 3  24315831.564    24315829.432    24315830.138
        24.900          20.500
 -20262284.647 7 -15788783.295 7  20825480.312    20825476.904    20825479.878
        45.900          45.900
 -18686648.194 7 -14561015.267 6  20931110.976    20931107.714    20931110.418
        43.400          39.400
 08  1  1  0 57  0.0000000  0  9G21G 9G18G24G22G 3G 7G15G26
 -25307625.449 7 -19720221.865 8  20211114.342    20211109.896    20211113.300
        44.700          48.100
  -9927048.990 5  -7735360.208 5  22848897.479    22848895.876    22848896.897
        31.500          30.400
 -13101666.325 7 -10209087.494 6  21209169.082    21209164.801    21209168.068
        44.500          41.900
 -15315296.513 6 -11933990.903 6  21647856.737    21647854.720    21647855.792
        40.700          37.200
  -4774168.333 4  -3720129.727 4  23799672.548    23799668.077    23799672.016
        27.600          26.500
  -1139327.571 2   -887787.834 2  24280778.662    24280775.476    24280777.346
        17.800          17.800
  -3305766.233 3  -2575919.440 3  24333213.320    24333211.125    24333211.935
        23.800          19.900
 -20214946.799 7 -15751896.657 7  20834488.469    20834484.993    20834487.935
        45.900          45.900
 -18609117.279 7 -14500601.575 6  20945864.763    20945861.432    20945864.182
        43.500          39.400
 08  1  1  0 57 30.0000000  0  9G21G 9G18G24G22G 3G 7G15G26
 -25309087.210 7 -19721360.904 8  20210836.040    20210831.706    20210835.003
        44.600          48.000
 -10037083.836 5  -7821101.615 4  22827959.031    22827956.862    22827957.968
        30.800          29.900
 -13151109.548 7 -10247614.679 7  21199760.241    21199756.017    21199759.335
        44.700          42.000
 -15241197.598 6 -11876251.525 6  21661957.721    21661955.264    21661956.496
        40.700          37.200
  -4859545.769 5  -3786657.557 4  23783426.158    23783421.123    23783425.431
        30.200          25.300
  -1161747.994 2   -905258.303 2  24276510.911    24276509.182    24276509.848
        17.000          17.800
  -3214359.924 3  -2504693.778 3  24350607.189    24350605.522    24350605.829
        22.600          23.000
 -20167195.140 7 -15714687.571 7  20843575.263    20843571.822    20843574.804
        46.000          45.700
 -18531167.824 7 -14439861.736 6  20960697.843    20960694.646    20960697.303
        43.200          39.200
 08  1  1  0 58  0.0000000  0  9G21G 9G18G24G22G 3G 7G15G26
 -25309981.884 7 -19722058.056 8  20210665.774    20210661.438    20210664.733
        44.600          48.100
 -10146874.099 5  -7906652.446 4  22807066.689    22807064.001    22807065.639
        31.100          29.000
 -13200319.216 7 -10285959.870 7  21190395.887    21190391.704    21190394.936
        44.600          42.100
 -15166736.907 6 -11818230.224 6  21676126.585    21676124.586    21676125.786
        40.900          36.800
  -4944847.134 5  -3853126.131 3  23767194.026    23767188.510    23767193.401
        32.100          23.400
  -1183619.166 2   -922300.761 2  24272350.197    24272346.687    24272348.888
        17.800          13.900
  -3122892.636 3  -2433420.599 3  24368012.791    24368011.959    24368011.044
        19.300          23.000
 -20119031.692 7 -15677157.612 7  20852740.356    20852736.973    20852740.052
        46.200          45.600
 -18452802.562 7 -14378797.895 6  20975610.284    20975607.189    20975609.747
        43.200          39.400
 08  1  1  0 58 30.0000000  0  9G21G 9G18G24G22G 3G 7G15G26
 -25310308.662 7 -19722312.691 8  20210603.526    20210599.206    20210602.599
        44.600          48.000
 -10256416.318 5  -7992009.996 5  22786221.691    22786219.271    22786220.389
        31.300          30.100
 -13249294.816 7 -10324122.671 7  21181076.263    21181072.007    21181075.279
        44.700          42.300
 -15091915.945 6 -11759928.192 6  21690364.541    21690362.587    21690363.627
        40.400          36.800
  -5030071.570 5  -3919534.783 3  23750976.872    23750970.689    23750975.873
        30.800          22.100
  -1204941.061 2   -938915.219 2  24268292.431    24268289.194    24268291.303
        17.800          12.600
  -3031367.150 3  -2362102.076 3  24385428.918    24385427.794    24385427.636
        19.300          18.600
 -20070458.455 7 -15639308.334 7  20861983.698    20861980.100    20861983.271
        46.000          45.500
 -18374024.360 7 -14317412.284 6  20990601.335    20990598.032    20990600.671
        42.700          39.000
 08  1  1  0 59  0.0000000  0  9G21G 9G18G24G22G 3G 7G15G26
 -25310066.706 7 -19722124.159 8  20210649.720    20210645.301    20210648.682
        44.900          48.100
 -10365706.351 5  -8077171.037 5  22765425.050    22765421.967    22765423.547
        32.100          30.200
 -13298035.256 7 -10362102.231 7  21171801.269    21171796.998    21171800.287
        44.800          42.400
 -15016736.085 6 -11701346.511 6  21704671.084    21704668.882    21704669.984
        40.700          36.700
  -5115218.665 4  -3985883.162 3  23734773.092    23734767.594    23734772.403
        28.600          23.400
  -1225712.790 2   -955100.976 2  24264339.336    24264336.444    24264338.192
        17.800          16.100
  -2939786.181 2  -2290740.324 2  24402856.673    24402854.869    24402855.780
        15.100          17.800
 -20021477.097 7 -15601141.042 7  20871304.518    20871300.978    20871304.083
        46.200          45.400
 -18294836.040 7 -14255707.095 6  21005670.150    21005667.080    21005669.575
        42.300          39.100
 08  1  1  0 59 30.0000000  0  9G21G 9G18G24G22G 3G 7G15G26
 -25309255.431 7 -19721491.999 8  20210804.028    20210799.728    20210803.053
        44.900          48.100
 -10474741.111 5  -8162133.176 4  22744675.620    22744673.213    22744674.564
        31.100          29.900
 -13346539.700 7 -10399897.897 7  21162571.080    21162566.851    21162570.098
        44.800          42.300
 -14941198.785 6 -11642486.309 6  21719045.309    21719043.173    21719044.353
        40.500          37.000
  -5200287.696 4  -4052170.709 3  23718585.040    23718579.663    23718584.374
        27.900          22.600
  -1245934.340 2   -970858.036 2  24260491.768    24260489.088    24260490.751
        17.800          17.000
  -2848152.750 2  -2219337.658 2  24420293.229    24420292.362    24420292.456
        17.000          15.100
 -19972089.612 7 -15562657.288 7  20880702.677    20880699.157    20880702.241
        46.300          45.400
 -18215240.512 7 -14193684.614 6  21020816.852    21020813.505    21020816.203
        42.600          39.000
 08  1  1  1  0  0.0000000  0  9G21G 9G18G24G22G 3G 7G15G26
 -25307874.336 7 -19720415.826 7  20211066.985    20211062.480    20211065.921
        45.100          47.900
 -10583517.049 5  -8246893.630 4  22723976.051    22723973.923    22723975.046
        32.000          29.900
 -13394807.626 7 -10437509.266 7  21153386.140    21153381.734    21153385.041
        44.700          42.500
 -14865305.270 6 -11583348.540 6  21733487.536    21733485.325    21733486.463
        40.400          36.600
  -5285277.984 4  -4118396.878 4  23702411.480    23702406.804    23702410.891
        27.100          24.600
  -1265605.194 2   -986185.977 2  24256748.605    24256745.844    24256747.498
        15.100          17.000
  -2756469.559 2  -2147896.203 1  24437741.197    24437738.222    24437739.510
        12.600          11.000
 -19922298.018 7 -15523858.643 7  20890177.673    20890174.191    20890177.285
        46.200          45.400
 -18135240.733 7 -14131347.124 6  21036040.160    21036037.178    21036039.563
        42.700          39.100
 08  1  1  1  0 30.0000000  0  9G21G 9G18G24G22G 3G 7G15G26
 -25305922.297 7 -19718894.762 7  20211438.589    20211433.878    20211437.513
        45.100          47.900
 -10692030.675 5  -8331449.673 5  22703326.714    22703324.543    22703325.706
        32.300          30.800
 -13442838.170 7 -10474935.663 7  21144246.027    21144241.898    21144245.092
        44.800          42.500
 -14789056.809 6 -11523934.173 6  21747996.567    21747994.955    21747995.873
        39.900          36.500
  -5370189.080 4  -4184561.331 4  23686253.583    23686248.881    23686252.917
        27.900          27.100
  -1284724.663 3  -1001084.259 2  24253109.748    24253107.346    24253108.636
        18.600          13.900
  -2664739.385 3  -2076418.184 2  24455196.271    24455194.469    24455195.331
        21.100          12.600
 -19872103.908 7 -15484746.350 7  20899729.314    20899725.814    20899728.974
        46.200          45.400
 -18054839.507 7 -14068696.814 6  21051339.987    21051337.001    21051339.526
        42.700          39.100
 08  1  1  1  1  0.0000000  0  9G21G 9G18G24G22G 3G 7G15G26
 -25303398.894 7 -19716928.477 7  20211918.659    20211914.129    20211917.627
        45.200          47.800
 -10800278.549 5  -8415798.641 4  22682728.261    22682725.422    22682727.085
        32.300          29.700
 -13490630.693 7 -10512176.587 7  21135151.410    21135147.293    21135150.482
        44.800          42.500
 -14712454.964 6 -11464244.452 6  21762573.774    21762571.796    21762572.854
        39.900          36.400
  -5455020.386 4  -4250663.613 4  23670110.628    23670105.680    23670110.081
        28.100          26.200
  -1303292.693 2  -1015552.813 2  24249576.628    24249574.239    24249575.539
        17.800          17.800
  -2572965.135 3  -2004905.780 1  24472660.701    24472658.466    24472659.633
        19.900          11.000
 -19821509.786 7 -15445322.360 7  20909357.062    20909353.542    20909356.671
        46.100          45.300
 -17974039.728 7 -14005735.948 6  21066715.655    21066712.797    21066715.218
        42.800          39.100
 08  1  1  1  1 30.0000000  0  9G21G 9G18G24G22G 3G 7G15G26
 -25300303.602 7 -19714516.566 7  20212507.854    20212503.172    20212506.772
        45.400          47.800
 -10908257.569 5  -8499938.119 4  22662179.842    22662177.558    22662179.156
        33.400          29.500
 -13538184.220 7 -10549231.282 7  21126102.430    21126098.088    21126101.402
        44.700          42.600
 -14635501.033 6 -11404280.376 6  21777217.641    21777215.723    21777216.788
        39.900          36.500
  -5539771.595 4  -4316703.485 4  23653983.264    23653978.081    23653982.567
        28.600          26.800
  -1321309.032 2  -1029591.523 2  24246147.986    24246145.369    24246146.771
        15.100          12.600
  -2481149.522 3  -1933361.166 2  24490132.510    24490130.587    24490131.624
        18.600          13.900
 -19770516.848 7 -15405587.601 7  20919060.527    20919057.178    20919060.215
        46.100          45.300
 -17892844.258 7 -13942466.751 6  21082166.760    21082163.672    21082166.191
        42.300          38.600
 08  1  1  1  2  0.0000000  0  9G21G 9G18G24G22G 3G 7G15G26
 -25296635.559 7 -19711658.357 7  20213205.778    20213201.135    20213204.745
        45.300          47.900
 -11015963.923 5  -8583865.107 5  22641682.947    22641681.931    22641682.758
        32.700          30.200
 -13585498.410 7 -10586099.480 7  21117098.779    21117094.482    21117097.775
        44.800          42.800
 -14558196.436 6 -11344043.057 6  21791927.900    21791926.359    21791927.194
        40.000          36.600
  -5624441.748 5  -4382680.202 4  23637870.848    23637865.849    23637870.276
        31.000          27.100
  -1338773.123 2  -1043199.926 2  24242825.076    24242822.196    24242824.213
        17.800          17.000
  -2389295.351 2  -1861786.514 1  24507611.529    24507609.946    24507610.385
        17.000          11.000
 -19719127.198 7 -15365543.721 7  20928839.676    20928836.359    20928839.411
        46.200          45.200
 -17811256.083 7 -13878891.551 6  21097692.311    21097689.433    21097691.849
        42.200          38.700
 08  1  1  1  2 30.0000000  0  9G21G 9G18G24G22G 3G 7G15G26
 -25292394.417 7 -19708353.576 7  20214012.784    20214008.239    20214011.744
        45.200          47.800
 -11123394.084 5  -8667576.892 5  22621240.206    22621238.352    22621239.793
        32.700          30.400
 -13632572.111 7 -10622780.284 7  21108141.027    21108136.705    21108140.026
        44.800          42.900
 -14480542.404 6 -11283533.447 6  21806705.493    21806703.464    21806704.374
        39.900          36.500
  -5709030.287 5  -4448593.325 4  23621774.197    23621769.343    23621773.571
        30.800          27.100
  -1355685.011 3  -1056378.002 1  24239606.688    24239604.042    24239605.926
        21.100          11.000
  -2297405.418 2  -1790183.972 2  24525097.829    24525096.154    24525096.512
        17.800          16.100
 -19667342.732 7 -15325192.185 7  20938694.083    20938690.568    20938693.661
        46.100          45.000
 -17729277.958 6 -13815012.489 6  21113292.449    21113289.190    21113291.764
        41.900          38.200
 08  1  1  1  3  0.0000000  0  9G21G 9G18G24G22G 3G 7G15G26
 -25287579.417 7 -19704601.635 7  20214929.067    20214924.506    20214928.070
        45.200          47.800
 -11230544.437 5  -8751070.638 5  22600849.984    22600848.676    22600849.543
        33.500          31.600
 -13679404.977 7 -10659273.422 7  21099229.003    21099224.701    21099227.992
        44.800          42.900
 -14402540.629 6 -11222752.874 6  21821548.668    21821546.612    21821547.713
        39.800          36.200
  -5793536.786 5  -4514442.538 4  23605693.751    23605688.225    23605692.727
        31.100          27.600
  -1372044.155 2  -1069125.402 2  24236493.793    24236490.628    24236492.318
        17.800          13.900
  -2205482.419 3  -1718555.697 2  24542590.368    24542588.367    24542589.168
        19.300          15.100
 -19615165.575 7 -15284534.663 7  20948622.770    20948619.494    20948622.521
        45.900          44.800
 -17646912.857 7 -13750831.886 6  21128965.970    21128962.782    21128965.386
        42.000          38.200
 08  1  1  1  3 30.0000000  0  9G21G 9G18G24G22G 3G 7G15G26
 -25282189.896 7 -19700402.012 7  20215954.672    20215950.085    20215953.581
        45.100          47.900
 -11337411.426 5  -8834343.580 5  22580514.429    22580512.587    22580513.673
        33.900          31.800
 -13725995.788 7 -10695577.951 7  21090362.989    21090358.713    21090362.019
        44.900          43.000
 -14324192.497 6 -11161702.414 6  21836457.957    21836455.841    21836456.974
        40.000          36.200
  -5877960.645 5  -4580227.340 4  23589627.939    23589622.570    23589627.470
        30.100          25.300
  -1387849.913 3  -1081441.567 2  24233486.107    24233483.390    24233485.083
        18.600          17.800
  -2113529.233 3  -1646903.915 2  24560088.138    24560086.854    24560087.608
        20.500          17.000
 -19562597.784 7 -15243572.745 7  20958626.209    20958622.844    20958625.860
        45.700          44.800
 -17564163.576 6 -13686351.929 6  21144712.414    21144709.413    21144711.905
        41.900          38.000
 08  1  1  1  4  0.0000000  0  9G21G 9G18G24G22G 3G 7G15G26
 -25276225.562 7 -19695754.485 7  20217089.525    20217085.114    20217088.442
        45.200          47.900
 -11443992.062 5  -8917393.406 5  22560231.955    22560230.810    22560231.824
        34.100          31.000
 -13772343.579 7 -10731693.110 7  21081543.368    21081538.995    21081542.376
        45.100          43.100
 -14245499.530 6 -11100383.245 6  21851432.479    21851430.571    21851431.712
        39.800          36.000
  -5962301.085 4  -4645947.140 4  23573578.488    23573573.067    23573577.619
        29.000          25.300
  -1403103.235 2  -1093327.264 2  24230582.789    24230580.410    24230582.315
        17.000          17.000
  -2021548.694 2  -1575230.813 1  24577592.043    24577589.613    24577591.034
        17.000          11.000
 -19509640.797 7 -15202307.560 7  20968703.714    20968700.225    20968703.246
        45.900          44.900
 -17481032.982 6 -13621574.835 6  21160531.732    21160528.521    21160531.186
        41.400          38.000
 08  1  1  1  4 30.0000000  0  8G21G 9G18G24G22G 3G15G26
 -25269685.906 7 -19690658.653 8  20218333.913    20218329.660    20218332.940
        45.100          48.000
 -11550282.474 5  -9000217.070 5  22540005.992    22540004.430    22540005.437
        34.000          31.300
 -13818448.405 7 -10767618.949 7  21072769.901    21072765.573    21072768.931
        45.300          43.100
 -14166462.980 6 -11038796.355 6  21866473.058    21866470.866    21866471.890
        39.500          36.100
  -6046557.620 4  -4711601.565 4  23557544.642    23557539.637    23557544.133
        27.900          24.900
  -1417803.525 3  -1104782.056 2  24227786.592    24227783.534    24227785.331
        21.100          17.000
 -19456296.800 7 -15160740.811 7  20978854.636    20978851.243    20978854.294
        46.000          44.700
 -17397524.030 6 -13556502.937 6  21176422.938    21176419.919    21176422.473
        41.800          38.100
 08  1  1  1  5  0.0000000  0  8G21G 9G18G24G22G 3G15G26
 -25262570.127 7 -19685113.898 7  20219688.227    20219683.687    20219687.102
        45.200          47.900
 -11656279.334 5  -9082811.990 5  22519835.219    22519833.662    22519834.858
        33.200          31.500
 -13864309.324 7 -10803354.730 7  21064042.822    21064038.520    21064041.853
        45.000          43.200
 -14087084.341 6 -10976942.903 6  21881578.123    21881576.144    21881577.246
        39.500          36.000
  -6130729.727 4  -4777190.199 4  23541527.096    23541522.479    23541526.350
        28.100          25.300
  -1431950.265 2  -1115805.469 2  24225093.831    24225091.020    24225092.771
        16.100          13.900
 -19402567.807 7 -15118874.064 7  20989079.147    20989075.484    20989078.643
        45.900          44.600
 -17313639.744 6 -13491138.555 6  21192385.501    21192382.534    21192385.022
        41.400          37.800
 08  1  1  1  5 30.0000000  0  8G21G 9G18G24G22G 3G15G26
 -25254877.994 7 -19679120.036 7  20221151.905    20221147.448    20221150.889
        45.400          47.700
 -11761979.226 5  -9165175.517 5  22499721.949    22499719.649    22499720.981
        33.600          32.000
 -13909925.149 7 -10838899.526 7  21055362.471    21055358.092    21055361.454
        45.000          43.400
 -14007364.958 6 -10914823.943 5  21896747.898    21896746.287    21896747.229
        39.100          35.700
  -6214816.669 5  -4842712.457 4  23525526.167    23525521.271    23525525.481
        30.100          26.800
  -1445543.762 2  -1126397.804 2  24222507.275    24222504.536    24222506.579
        17.800          12.600
 -19348455.648 7 -15076708.748 7  20999376.069    20999372.699    20999375.715
        45.600          44.500
 -17229382.789 6 -13425483.787 6  21208419.397    21208416.178    21208418.771
        41.500          38.000
 08  1  1  1  6  0.0000000  0  8G21G 9G18G24G22G 3G15G26
 -25246609.017 7 -19672676.682 7  20222725.522    20222721.016    20222724.481
        45.400          47.800
 -11867379.034 5  -9247305.205 5  22479665.011    22479662.897    22479664.108
        34.400          32.300
 -13955295.297 7 -10874252.887 7  21046728.787    21046724.499    21046727.843
        45.200          43.300
 -13927306.447 6 -10852440.716 5  21911982.791    21911981.080    21911981.944
        39.000          35.700
  -6298817.825 5  -4908167.879 4  23509541.329    23509536.282    23509540.698
        30.400          26.200
  -1458583.767 3  -1136558.836 2  24220025.804    24220022.741    24220024.795
        18.600          15.100
 -19293962.186 7 -15034246.310 7  21009745.757    21009742.450    21009745.464
        45.600          44.500
 -17144756.033 6 -13359540.862 6  21224523.474    21224519.969    21224522.833
        41.400          37.600
 08  1  1  1  6 30.0000000  0  8G21G 9G18G24G22G 3G15G26
 -25237762.767 7 -19665783.506 7  20224408.863    20224404.398    20224407.757
        45.100          47.600
 -11972474.805 5  -9329197.986 5  22459666.737    22459663.777    22459665.207
        34.100          32.600
 -14000418.939 7 -10909414.162 7  21038142.114    21038137.751    21038141.080
        45.100          43.600
 -13846910.421 6 -10789794.496 5  21927281.849    21927280.055    21927280.819
        38.900          35.800
  -6382732.678 5  -4973556.060 4  23493573.258    23493567.724    23493572.577
        32.400          26.800
  -1471069.886 3  -1146288.314 2  24217649.681    24217647.124    24217648.747
        21.100          15.100
 -19239089.378 7 -14991488.279 7  21020187.806    21020184.378    21020187.445
        45.300          44.200
 -17059762.429 6 -13293312.078 6  21240697.097    21240693.941    21240696.611
        41.600          38.000
 08  1  1  1  7  0.0000000  0  8G21G 9G18G24G22G 3G15G26
 -25228338.830 7 -19658440.185 7  20226201.977    20226197.680    20226201.008
        45.300          47.600
 -12077263.094 5  -9410851.165 5  22439725.431    22439723.189    22439724.368
        34.000          33.000
 -14045295.352 7 -10944382.795 7  21029602.264    21029598.030    21029601.306
        45.100          43.500
 -13766177.933 6 -10726886.094 5  21942644.572    21942642.880    21942643.723
        39.100          35.600
  -6466560.701 5  -5038876.591 4  23477620.845    23477615.844    23477620.331
        31.800          28.100
  -1483002.712 2  -1155586.582 2  24215378.879    24215375.994    24215377.653
        15.100          16.100
 -19183839.396 7 -14948436.342 7  21030701.495    21030698.111    21030701.144
        45.400          44.200
 -16974404.837 6 -13226799.671 6  21256940.118    21256936.810    21256939.563
        41.400          37.700
 08  1  1  1  7 30.0000000  0  8G21G 9G18G24G22G 3G15G26
 -25218336.808 7 -19650646.407 7  20228105.598    20228101.042    20228104.431
        45.200          47.600
 -12181740.240 5  -9492261.881 5  22419843.549    22419841.780    22419842.996
        34.500          32.000
 -14089923.776 7 -10979158.187 7  21021109.747    21021105.547    21021108.823
        44.900          43.600
 -13685110.762 6 -10663716.898 5  21958071.241    21958069.463    21958070.280
        38.800          35.500
  -6550301.167 5  -5104128.883 4  23461685.522    23461680.473    23461684.830
        30.800          28.100
  -1494381.554 3  -1164453.207 2  24213214.047    24213210.751    24213212.951
        21.600          12.600
 -19128214.378 7 -14905092.175 7  21041286.703    21041283.253    21041286.210
        45.300          44.500
 -16888686.183 6 -13160005.911 6  21273251.713    21273248.628    21273251.104
        41.100          37.500
 08  1  1  1  8  0.0000000  0  8G21G 9G18G24G22G 3G15G26
 -25207756.397 7 -19642401.940 7  20230118.964    20230114.398    20230117.893
        45.500          47.500
 -12285903.069 5  -9573427.709 5  22400021.889    22400019.738    22400021.380
        34.900          31.800
 -14134303.522 7 -11013739.805 7  21012664.658    21012660.349    21012663.667
        45.100          43.800
 -13603710.644 6 -10600288.258 5  21973560.978    21973559.353    21973560.257
        39.000          35.200
  -6633953.261 5  -5169312.321 4  23445766.951    23445762.062    23445766.244
        30.400          27.900
  -1505206.625 3  -1172888.327 2  24211153.750    24211150.925    24211153.182
        23.400          13.900
 -19072215.830 7 -14861456.945 7  21051942.789    21051939.414    21051942.395
        45.500          44.200
 -16802609.356 6 -13092933.063 6  21289631.470    21289628.443    21289630.993
        41.100          37.600
 08  1  1  1  8 30.0000000  0  8G21G 9G18G24G22G 3G15G26
 -25196597.249 7 -19633706.505 7  20232242.457    20232237.879    20232241.446
        45.500          47.500
 -12389748.416 5  -9654346.132 5  22380260.998    22380258.857    22380260.238
        34.800          32.800
 -14178433.632 7 -11048126.896 7  21004266.968    21004262.587    21004265.950
        44.900          43.800
 -13521978.919 6 -10536601.227 5  21989114.230    21989112.357    21989113.271
        38.900          35.500
  -6717516.179 4  -5234426.242 4  23429865.326    23429860.314    23429864.767
        28.800          27.600
  -1515477.791 3  -1180891.869 2  24209198.858    24209196.562    24209197.937
        21.600          13.900
 -19015845.812 7 -14817532.255 7  21062669.648    21062666.255    21062669.275
        45.600          44.100
 -16716176.968 6 -13025583.147 6  21306079.008    21306076.049    21306078.354
        40.800          37.500
 08  1  1  1  9  0.0000000  0  8G21G 9G18G24G22G 3G15G26
 -25184858.859 7 -19624559.715 7  20234476.375    20234471.610    20234475.239
        45.500          47.300
 -12493272.397 5  -9735014.145 5  22360561.177    22360558.727    22360560.592
        35.600          31.300
 -14222313.598 7 -11082319.075 7  20995916.905    20995912.485    20995915.924
        45.100          43.800
 -13439917.228 6 -10472657.078 5  22004730.005    22004728.297    22004729.066
        38.600          34.800
  -6800989.600 5  -5299470.447 4  23413981.298    23413975.737    23413980.615
        30.100          26.500
  -1525195.495 2  -1188464.093 2  24207350.284    24207347.110    24207348.728
        16.100          15.100
 -18959106.248 7 -14773319.608 7  21073466.917    21073463.453    21073466.522
        45.500          44.100
 -16629392.101 6 -12957958.576 6  21322593.661    21322590.773    21322593.086
        40.700          37.300
 08  1  1  1  9 30.0000000  0  8G21G 9G18G24G22G 3G15G26
 -25172541.173 7 -19614961.524 7  20236820.070    20236815.635    20236819.089
        45.500          47.500
 -12596471.673 5  -9815429.141 5  22340923.196    22340920.679    22340922.368
        35.800          32.800
 -14265942.462 7 -11116315.588 7  20987614.589    20987610.274    20987613.587
        45.100          43.900
 -13357527.024 6 -10408456.942 5  22020407.859    22020406.644    22020407.264
        38.400          35.100
  -6884372.993 4  -5364444.493 4  23398113.551    23398108.351    23398112.945
        29.200          25.900
  -1534359.669 3  -1195605.003 1  24205606.046    24205602.901    24205605.326
        21.600          11.000
 -18901999.067 7 -14728820.508 7  21084334.005    21084330.623    21084333.663
        45.500          44.000
 -16542257.644 6 -12890061.596 6  21339174.672    21339171.870    21339174.215
        40.600          37.100
 08  1  1  1 10  0.0000000  0  8G21G 9G18G24G22G 3G15G26
 -25159643.735 7 -19604911.579 7  20239274.477    20239270.018    20239273.474
        45.600          47.500
 -12699342.697 5  -9895588.342 5  22321347.166    22321344.943    22321346.410
        35.100          33.100
 -14309319.195 7 -11150115.638 7  20979360.130    20979355.944    20979359.220
        44.900          44.000
 -13274809.725 6 -10344001.929 5  22036149.385    22036147.329    22036148.124
        37.800          35.400
  -6967665.708 5  -5429347.891 4  23382263.927    23382258.354    23382263.231
        31.500          25.600
  -1542970.264 4  -1202314.548 2  24203967.747    24203964.981    24203966.840
        24.200          13.900
 -18844526.383 7 -14684036.596 7  21095270.818    21095267.245    21095270.378
        45.400          43.900
 -16454776.512 6 -12821894.480 6  21355821.931    21355818.940    21355821.426
        40.500          37.000
 08  1  1  1 10 30.0000000  0  8G21G 9G18G24G22G 3G15G26
 -25146166.125 7 -19594409.556 7  20241839.197    20241834.671    20241838.178
        45.500          47.400
 -12801882.115 5  -9975489.157 5  22301835.049    22301832.214    22301833.926
        34.700          32.600
 -14352442.807 7 -11183718.448 7  20971154.079    20971149.781    20971153.137
        45.000          44.000
 -13191767.200 6 -10279293.493 5  22051951.053    22051949.745    22051950.446
        38.100          34.900
  -7050866.916 5  -5494179.986 4  23366431.142    23366425.552    23366430.635
        31.600          25.600
  -1551027.512 3  -1208592.963 2  24202434.608    24202431.103    24202433.623
        23.400          15.100
 -18786690.185 7 -14638969.430 7  21106276.670    21106273.104    21106276.314
        45.300          43.700
 -16366951.399 6 -12753459.325 6  21372534.615    21372531.492    21372534.108
        40.200          37.100
 08  1  1  1 11  0.0000000  0  8G21G 9G18G24G22G 3G15G26
 -25132108.644 7 -19583455.676 7  20244514.122    20244509.705    20244513.092
        45.200          47.300
 -12904086.385 5 -10055128.832 5  22282385.911    22282383.498    22282385.189
        35.900          32.600
 -14395313.325 7 -11217124.044 7  20962995.947    20962991.815    20962995.059
        44.900          44.200
 -13108400.910 6 -10214332.767 5  22067815.855    22067813.825    22067814.817
        37.900          34.900
  -7133975.965 5  -5558940.274 4  23350616.227    23350610.808    23350615.629
        32.400          27.400
  -1558531.907 4  -1214440.540 2  24201006.944    24201002.934    24201005.925
        24.200          12.600
 -18728492.415 7 -14593620.519 7  21117351.413    21117347.685    21117350.929
        45.400          43.700
 -16278785.221 6 -12684758.405 6  21389312.043    21389309.111    21389311.485
        40.300          37.100
 08  1  1  1 11 30.0000000  0  8G21G 9G18G24G22G 3G15G26
 -25117470.815 7 -19572049.587 7  20247299.588    20247295.221    20247298.553
        45.300          47.300
 -13005951.887 6 -10134504.522 5  22263001.393    22262999.043    22263000.696
        36.100          32.600
 -14437929.541 7 -11250331.481 7  20954886.318    20954882.210    20954885.399
        45.000          44.100
 -13024712.144 6 -10149120.767 5  22083741.178    22083739.240    22083740.151
        38.000          34.600
  -7216992.177 5  -5623628.217 4  23334818.385    23334812.978    23334817.743
        31.800          27.600
  -1565482.679 3  -1219856.733 2  24199683.556    24199680.893    24199682.749
        23.000          17.800
 -18669935.056 7 -14547991.407 7  21128494.423    21128490.816    21128493.975
        45.400          43.500
 -16190280.840 6 -12615793.956 6  21406153.914    21406150.704    21406153.310
        40.300          36.700
 08  1  1  1 12  0.0000000  0  8G21G 9G18G24G22G 3G15G26
 -25102252.433 7 -19560191.113 7  20250195.553    20250191.234    20250194.605
        45.400          47.400
 -13107475.464 6 -10213613.778 5  22243682.500    22243679.883    22243681.450
        36.300          32.800
 -14480290.529 7 -11283340.040 7  20946825.341    20946821.138    20946824.347
        44.800          44.100
 -12940702.689 6 -10083658.889 5  22099727.860    22099725.887    22099726.730
        38.000          34.600
  -7299915.055 5  -5688243.433 4  23319038.465    23319033.472    23319037.908
        32.100          28.100
  -1571880.331 3  -1224841.914 2  24198466.255    24198463.742    24198465.552
        21.100          16.100
 -18611019.939 7 -14502083.524 7  21139705.602    21139701.916    21139705.196
        45.200          43.400
 -16101441.094 6 -12546568.172 6  21423059.349    21423056.457    21423058.862
        40.200          36.800
 08  1  1  1 12 30.0000000  0  8G21G 9G18G24G22G 3G15G26
 -25086453.463 7 -19547880.235 7  20253202.062    20253197.681    20253201.012
        45.500          47.200
 -13208653.571 6 -10292453.837 5  22224428.772    22224426.290    22224427.755
        36.200          33.500
 -14522395.568 7 -11316149.159 7  20938813.098    20938808.841    20938812.160
        44.900          44.400
 -12856374.273 6 -10017948.464 5  22115774.640    22115772.834    22115773.770
        38.000          34.400
  -7382743.984 5  -5752785.429 4  23303276.771    23303271.701    23303276.207
        31.800          29.500
  -1577724.978 3  -1229396.210 2  24197354.097    24197351.041    24197353.399
        20.500          13.900
 -18551749.169 7 -14455898.508 7  21150984.306    21150980.860    21150983.992
        45.300          43.400
 -16012268.939 6 -12477083.376 6  21440028.450    21440025.281    21440027.874
        40.300          36.700
 08  1  1  1 13  0.0000000  0  8G21G 9G18G24G22G 3G15G26
 -25070073.700 7 -19535116.791 7  20256318.939    20256314.617    20256317.897
        45.300          47.200
 -13309482.673 6 -10371021.939 5  22205241.204    22205239.178    22205240.535
        36.300          33.800
 -14564243.873 7 -11348758.230 7  20930849.690    20930845.441    20930848.738
        45.000          44.600
 -12771728.438 6  -9951990.696 5  22131882.485    22131880.547    22131881.377
        37.700          34.500
  -7465477.845 5  -5817253.358 4  23287533.226    23287527.950    23287532.414
        32.600          29.200
  -1583017.520 3  -1233520.278 1  24196346.685    24196343.457    24196345.613
        21.100          11.000
 -18492124.659 7 -14409437.850 7  21162330.697    21162327.007    21162330.228
        45.400          43.400
 -15922766.999 6 -12407341.599 6  21457060.143    21457056.969    21457059.440
        40.000          36.500
 08  1  1  1 13 30.0000000  0  8G21G 9G18G24G22G 3G15G26
 -25053112.947 7 -19521900.626 7  20259546.497    20259542.163    20259545.517
        45.600          47.100
 -13409959.335 6 -10449315.418 5  22186121.476    22186119.144    22186120.570
        37.100          34.100
 -14605834.674 7 -11381166.641 7  20922935.158    20922931.012    20922934.189
        45.000          44.800
 -12686766.791 6  -9885786.845 5  22148049.880    22148048.204    22148048.986
        37.400          33.900
  -7548116.315 5  -5881646.949 5  23271807.304    23271802.523    23271806.652
        31.500          30.200
  -1587757.427 3  -1237213.728 2  24195445.051    24195441.920    24195444.008
        22.100          16.100
 -18432148.655 7 -14362703.303 7  21173743.621    21173740.086    21173743.170
        45.200          43.300
 -15832938.314 6 -12337345.225 6  21474153.631    21474150.874    21474153.200
        40.200          36.400
 08  1  1  1 14  0.0000000  0  8G21G 9G18G24G22G 3G15G26
 -25035571.214 7 -19508231.751 7  20262884.631    20262880.320    20262883.608
        45.600          47.100
 -13510080.037 6 -10527331.526 5  22167069.298    22167066.676    22167068.162
        36.200          33.800
 -14647166.881 7 -11413373.550 7  20915069.865    20915065.735    20915068.945
        45.000          44.800
 -12601490.974 6  -9819338.187 5  22164277.433    22164275.702    22164276.437
        37.100          34.000
  -7630658.437 5  -5945965.462 4  23256100.279    23256095.392    23256099.530
        32.600          29.500
  -1591945.498 3  -1240477.148 2  24194648.161    24194644.806    24194647.107
        22.600          12.600
 -18371822.941 7 -14315696.252 7  21185223.017    21185219.686    21185222.682
        45.000          43.200
 -15742785.573 6 -12267096.327 5  21491309.344    21491306.103    21491308.702
        40.000          35.900
 08  1  1  1 14 30.0000000  0  8G21G 9G18G24G22G 3G15G26
 -25017448.158 7 -19494109.897 7  20266333.339    20266329.020    20266332.363
        45.600          46.900
 -13609841.768 6 -10605067.910 5  22148084.654    22148082.715    22148084.145
        37.200          34.000
 -14688240.290 7 -11445378.802 7  20907254.059    20907249.656    20907252.952
        44.900          44.800
 -12515902.583 6  -9752645.942 5  22180564.478    22180562.567    22180563.493
        36.600          33.600
  -7713103.992 5  -6010208.749 4  23240411.302    23240406.124    23240410.631
        32.800          29.200
  -1595582.004 3  -1243310.781 1  24193955.841    24193952.407    24193955.010
        23.400          11.000
 -18311149.314 7 -14268418.100 7  21196768.772    21196765.541    21196768.540
        45.100          43.100
 -15652311.640 6 -12196597.157 6  21508525.993    21508522.811    21508525.443
        40.000          36.100
 08  1  1  1 15  0.0000000  0  8G21G 9G18G24G22G 3G15G26
 -24998743.807 7 -19479535.085 7  20269892.862    20269888.257    20269891.751
        45.600          46.700
 -13709240.719 6 -10682521.606 5  22129169.459    22129167.438    22129169.042
        36.700          33.500
 -14729053.654 7 -11477181.420 7  20899487.435    20899483.136    20899486.464
        44.900          44.700
 -12430003.287 6  -9685711.445 5  22196910.041    22196908.652    22196909.355
        37.100          33.800
  -7795451.985 5  -6074375.991 4  23224741.341    23224736.011    23224740.613
        33.100          29.500
  -1598666.816 3  -1245714.520 2  24193369.174    24193366.229    24193368.149
        23.800          17.800
 -18250129.983 7 -14220870.569 7  21208380.641    21208377.053    21208380.174
        45.100          43.000
 -15561519.302 6 -12125849.881 5  21525803.097    21525799.959    21525802.596
        39.700          35.700
 08  1  1  1 15 30.0000000  0  8G21G 9G18G24G22G 3G15G26
 -24979458.450 7 -19464507.539 7  20273562.558    20273558.159    20273561.572
        45.500          46.800
 -13808273.681 6 -10759690.129 5  22110324.736    22110322.308    22110323.689
        37.000          34.300
 -14769606.196 7 -11508780.804 7  20891770.658    20891766.239    20891769.608
        45.000          44.900
 -12343794.684 6  -9618535.931 5  22213315.245    22213313.675    22213314.425
        36.800          33.400
  -7877701.853 5  -6138466.784 4  23209089.857    23209084.205    23209089.038
        32.100          28.800
  -1601200.817 3  -1247689.076 2  24192886.482    24192883.972    24192885.771
        21.600          12.600
 -18188766.563 7 -14173054.915 7  21220057.663    21220054.091    21220057.230
        45.100          42.800
 -15470411.567 6 -12054856.836 5  21543140.447    21543137.229    21543139.863
        39.600          35.900
 08  1  1  1 16  0.0000000  0  8G21G 9G18G24G22G 3G15G26
 -24959591.816 7 -19449027.054 7  20277343.042    20277338.665    20277342.073
        45.600          46.800
 -13906937.356 6 -10836570.877 5  22091549.481    22091547.373    22091548.507
        36.900          34.900
 -14809897.077 7 -11540176.296 7  20884103.561    20884099.114    20884102.480
        44.900          44.900
 -12257278.577 6  -9551120.794 5  22229778.862    22229777.271    22229777.952
        36.800          33.900
  -7959852.818 5  -6202480.518 4  23193456.755    23193451.068    23193456.114
        32.700          28.400
  -1603184.084 3  -1249234.516 2  24192509.117    24192506.082    24192508.496
        19.900          17.000
 -18127061.587 7 -14124973.116 7  21231799.766    21231796.138    21231799.387
        45.000          42.800
 -15378991.006 6 -11983620.036 5  21560537.128    21560533.891    21560536.467
        38.900          35.500
 08  1  1  1 16 30.0000000  0  8G21G 9G18G24G22G 3G15G26
 -24939143.894 7 -19433093.616 7  20281234.252    20281229.723    20281233.250
        45.700          46.600
 -14005227.933 6 -10913160.915 5  22072845.480    22072843.175    22072844.491
        36.800          34.600
 -14849925.419 7 -11571367.208 7  20876486.331    20876481.947    20876485.374
        44.900          44.900
 -12170456.374 6  -9483467.168 5  22246300.665    22246299.094    22246299.672
        36.900          34.000
  -8041904.006 5  -6266416.490 4  23177842.957    23177837.383    23177842.417
        33.100          28.600
  -1604616.873 3  -1250350.963 2  24192236.415    24192234.097    24192235.366
        20.500          17.800
 -18065016.762 7 -14076626.494 7  21243606.503    21243602.949    21243606.079
        44.900          42.900
 -15287260.575 6 -11912141.766 5  21577992.791    21577989.650    21577992.196
        38.800          35.500
 08  1  1  1 17  0.0000000  0  8G21G 9G18G24G22G 3G15G26
 -24918114.774 7 -19416707.292 7  20285235.911    20285231.422    20285234.904
        45.800          46.600
 -14103142.121 6 -10989457.652 5  22054212.350    22054210.650    22054212.038
        37.400          34.600
 -14889690.525 7 -11602353.003 7  20868919.260    20868914.919    20868918.275
        44.900          45.000
 -12083329.851 6  -9415576.394 5  22262880.215    22262878.617    22262879.310
        36.900          34.500
  -8123854.999 5  -6330274.391 4  23162248.140    23162242.736    23162247.450
        32.400          28.800
  -1605499.681 3  -1251038.894 3  24192068.917    24192065.223    24192067.787
        22.600          18.600
 -18002634.202 7 -14028016.707 7  21255477.630    21255473.988    21255477.141
        45.100          42.900
 -15195222.962 6 -11840424.157 5  21595506.699    21595503.886    21595506.211
        38.700          35.500
 08  1  1  1 17 30.0000000  0  8G21G 9G18G24G22G 3G15G26
 -24896504.748 7 -19399868.319 7  20289348.296    20289343.715    20289347.231
        45.600          46.500
 -14200676.782 6 -11065458.664 5  22035652.945    22035650.293    22035652.026
        37.900          34.400
 -14929191.603 7 -11633133.060 7  20861402.475    20861398.136    20861401.511
        44.800          45.000
 -11995900.603 6  -9347449.740 5  22279517.828    22279515.826    22279516.790
        36.800          33.500
  -8205705.024 5  -6394053.608 4  23146672.747    23146666.887    23146672.104
        32.700          28.400
  -1605833.033 4  -1251298.683 2  24192005.523    24192002.204    24192004.443
        24.600          12.600
 -17939915.666 7 -13979145.120 7  21267412.550    21267409.006    21267412.110
        44.800          43.100
 -15102881.058 6 -11768469.418 5  21613078.615    21613076.029    21613078.208
        38.400          35.200
 08  1  1  1 18  0.0000000  0  8G21G 9G18G24G22G 3G15G26
 -24874313.604 7 -19382576.525 7  20293571.098    20293566.570    20293570.011
        45.600          46.400
 -14297828.210 6 -11141161.048 5  22017165.273    22017162.917    22017164.475
        37.700          34.600
 -14968427.745 7 -11663706.673 7  20853936.099    20853931.748    20853935.089
        45.000          45.200
 -11908170.465 6  -9279088.616 5  22296211.581    22296210.398    22296211.171
        36.600          33.500
  -8287453.531 5  -6457753.731 4  23131116.868    23131110.820    23131115.952
        32.700          28.800
  -1605617.716 4  -1251130.910 2  24192046.694    24192043.232    24192045.801
        25.600          12.600
 -17876863.231 7 -13930013.350 7  21279410.887    21279407.429    21279410.579
        45.000          42.800
 -15010237.641 6 -11696279.741 5  21630708.748    21630705.535    21630708.046
        38.900          35.100
 08  1  1  1 18 30.0000000  0  8G21G 9G18G24G22G 3G15G26
 -24851541.396 7 -19364831.957 7  20297904.381    20297899.924    20297903.368
        45.600          46.300
 -14394593.082 6 -11216562.220 5  21998751.136    21998749.090    21998750.696
        37.700          34.600
 -15007398.172 7 -11694073.235 7  20846520.343    20846515.869    20846519.336
        45.000          45.200
 -11820141.069 6  -9210494.317 5  22312963.294    22312961.875    22312962.606
        36.600          33.500
  -8369099.552 5  -6521373.976 4  23115579.642    23115574.200    23115578.852
        32.700          29.700
  -1604853.693 4  -1250535.523 2  24192192.450    24192189.109    24192191.459
        25.900          16.100
 -17813478.865 7 -13880622.934 7  21291472.729    21291469.092    21291472.315
        45.200          42.900
 -14917295.564 6 -11623857.349 5  21648394.825    21648391.853    21648394.191
        38.400          35.500
 08  1  1  1 19  0.0000000  0  8G21G 9G18G24G22G 3G15G26
 -24828188.702 7 -19346635.057 7  20302348.454    20302343.744    20302347.332
        45.800          46.300
 -14490968.046 6 -11291659.572 5  21980411.813    21980409.546    21980411.066
        37.900          34.900
 -15046102.021 7 -11724232.077 7  20839155.185    20839150.724    20839154.190
        45.100          45.200
 -11731814.302 5  -9141668.288 5  22329772.482    22329769.958    22329771.015
        35.700          33.200
  -8450642.429 5  -6584913.871 4  23100062.802    23100056.934    23100061.939
        33.000          29.200
  -1603541.673 4  -1249513.181 3  24192441.674    24192438.661    24192440.739
        25.900          18.600
 -17749764.775 7 -13830975.588 7  21303596.956    21303593.449    21303596.646
        44.900          42.800
 -14824057.480 6 -11551204.289 5  21666137.681    21666134.420    21666137.054
        38.600          35.400
 08  1  1  1 19 30.0000000  0  8G21G 9G18G24G22G 3G15G26
 -24804255.530 7 -19327985.840 7  20306902.640    20306898.112    20306901.672
        45.700          46.100
 -14586949.649 6 -11366450.407 5  21962147.237    21962144.900    21962146.405
        38.100          35.500
 -15084538.420 7 -11754182.519 7  20831840.735    20831836.549    20831839.860
        44.800          45.300
 -11643191.658 6  -9072611.707 5  22346636.669    22346634.269    22346635.455
        36.500          33.200
  -8532081.047 5  -6648372.512 5  23084565.385    23084559.913    23084564.449
        33.800          30.400
  -1601682.492 4  -1248064.457 1  24192795.433    24192791.630    24192794.546
        24.200          11.000
 -17685722.704 7 -13781072.675 7  21315783.903    21315780.252    21315783.378
        44.600          42.700
 -14730526.427 6 -11478322.956 5  21683935.700    21683932.808    21683935.141
        38.100          34.900
 08  1  1  1 20  0.0000000  0  8G21G 9G18G24G22G 3G15G26
 -24779741.684 7 -19308884.149 7  20311567.472    20311563.016    20311566.436
        45.700          46.200
 -14682534.629 6 -11440932.199 5  21943958.010    21943955.639    21943957.143
        38.300          35.200
 -15122706.623 7 -11783923.973 7  20824577.785    20824573.431    20824576.794
        45.100          45.400
 -11554274.879 6  -9003325.925 5  22363555.972    22363554.508    22363555.430
        36.400          33.100
  -8613415.661 5  -6711750.113 4  23069087.725    23069082.023    23069086.903
        33.600          29.200
  -1599276.402 3  -1246189.596 2  24193253.182    24193250.097    24193252.014
        22.100          16.100
 -17621354.721 7 -13730915.802 7  21328032.537    21328029.147    21328032.167
        44.700          42.800
 -14636705.021 6 -11405215.370 5  21701789.592    21701786.161    21701788.894
        38.500          34.500
 08  1  1  1 20 30.0000000  0  8G21G 9G18G24G22G 3G15G26
 -24754647.615 7 -19289330.337 7  20316342.647    20316338.264    20316341.664
        45.900          46.200
 -14777719.828 6 -11515102.454 5  21925844.788    21925842.505    21925843.917
        38.400          35.200
 -15160605.794 7 -11813455.794 7  20817365.909    20817361.448    20817364.940
        45.000          45.500
 -11465065.691 5  -8933812.285 5  22380532.942    22380530.506    22380531.604
        35.400          32.800
  -8694644.741 5  -6775045.484 4  23053630.291    23053624.818    23053629.726
        34.400          29.700
  -1596324.227 3  -1243889.225 2  24193814.845    24193812.095    24193813.856
        22.100          13.900
 -17556662.862 7 -13680506.559 7  21340343.188    21340339.589    21340342.713
        44.600          42.600
 -14542596.043 6 -11331883.690 5  21719697.775    21719694.697    21719697.175
        38.100          34.400
 08  1  1  1 21  0.0000000  0  8G21G 9G18G24G22G 3G15G26
 -24728973.445 7 -19269324.496 7  20321228.365    20321223.929    20321227.337
        45.800          46.100
 -14872501.684 6 -11588958.421 5  21907808.160    21907806.049    21907807.682
        38.400          35.200
 -15198235.049 7 -11842777.288 7  20810205.284    20810200.790    20810204.302
        45.100          45.500
 -11375565.799 5  -8864072.124 5  22397563.069    22397561.907    22397562.403
        35.200          33.200
  -8775767.660 5  -6838258.134 5  23038193.264    23038187.838    23038192.558
        34.500          30.600
  -1592825.988 3  -1241163.330 2  24194480.383    24194477.649    24194479.297
        21.100          17.800
 -17491649.056 7 -13629846.445 7  21352714.915    21352711.297    21352714.409
        44.800          42.500
 -14448202.304 6 -11258330.135 5  21737660.688    21737657.110    21737659.996
        38.100          34.400
 08  1  1  1 21 30.0000000  0  8G21G 9G18G24G22G 3G15G26
 -24702719.497 7 -19248866.883 7  20326224.251    20326219.910    20326223.237
        45.800          46.100
 -14966876.864 6 -11662497.494 5  21889848.723    21889847.054    21889848.591
        38.900          35.400
 -15235593.410 7 -11871887.701 7  20803096.194    20803091.750    20803095.203
        45.000          45.600
 -11285776.878 5  -8794106.771 5  22414649.385    22414648.167    22414648.766
        35.700          32.600
  -8856783.867 5  -6901387.626 5  23022776.275    23022770.886    23022775.684
        33.600          30.200
  -1588782.460 4  -1238012.537 2  24195250.247    24195246.669    24195249.185
        24.600          16.100
 -17426315.420 7 -13578937.116 7  21365147.376    21365143.860    21365146.878
        44.600          42.300
 -14353526.464 6 -11184556.747 5  21755676.628    21755673.390    21755676.047
        37.600          34.000
 08  1  1  1 22  0.0000000  0  8G21G 9G18G24G22G 3G15G26
 -24675886.134 7 -19227957.773 7  20331330.425    20331326.194    20331329.463
        45.800          46.100
 -15060841.795 6 -11735716.892 5  21871968.497    21871965.890    21871967.744
        38.600          35.100
 -15272680.115 7 -11900786.432 7  20796038.702    20796034.439    20796037.691
        44.900          45.600
 -11195700.966 5  -8723917.764 5  22431790.224    22431788.979    22431789.603
        35.800          32.600
  -8937692.610 5  -6964433.377 5  23007379.845    23007374.437    23007379.106
        33.900          30.600
  -1584194.511 4  -1234437.527 2  24196123.240    24196120.264    24196122.475
        24.200          16.100
 -17360663.687 7 -13527779.919 7  21377640.478    21377637.029    21377640.027
        44.700          42.300
 -14258571.231 6 -11110565.662 5  21773746.060    21773742.857    21773745.508
        37.700          34.400
 08  1  1  1 22 30.0000000  0  8G21G 9G18G24G22G 3G15G26
 -24648473.663 7 -19206597.416 7  20336546.872    20336542.653    20336545.881
        45.800          46.000
 -15154393.152 6 -11808614.032 5  21854166.715    21854163.834    21854165.643
        38.900          35.700
 -15309494.388 7 -11929472.876 7  20789033.204    20789028.838    20789032.203
        44.800          45.700
 -11105339.487 5  -8653506.250 5  22448985.782    22448984.366    22448984.940
        35.700          32.800
  -9018493.156 5  -7027394.836 5  22992003.935    22991998.629    22992003.207
        34.100          31.000
  -1579062.743 4  -1230438.749 2  24197099.914    24197096.594    24197098.915
        24.600          16.100
 -17294695.917 7 -13476376.459 7  21390193.569    21390190.223    21390193.170
        44.100          42.300
 -14163339.531 6 -11036359.141 5  21791867.844    21791864.646    21791867.338
        37.400          33.900
 08  1  1  1 23  0.0000000  0  8G21G 9G18G24G22G 3G15G26
 -24620482.186 7 -19184785.883 7  20341873.369    20341869.193    20341872.467
        45.900          45.900
 -15247527.534 6 -11881186.256 5  21836443.579    21836440.858    21836442.560
        38.700          35.700
 -15346035.229 7 -11957946.264 7  20782079.765    20782075.280    20782078.836
        45.000          45.700
 -11014694.332 5  -8582873.692 5  22466235.228    22466233.577    22466234.187
        35.500          32.300
  -9099184.542 5  -7090271.224 5  22976648.893    22976643.551    22976648.209
        34.400          31.100
  -1573387.803 3  -1226016.695 2  24198179.607    24198176.203    24198178.707
        23.000          16.100
 -17228414.161 7 -13424728.336 7  21402806.736    21402803.253    21402806.264
        44.500          42.200
 -14067834.002 6 -10961939.254 5  21810042.112    21810039.033    21810041.563
        37.400          34.100
 08  1  1  1 23 30.0000000  0  8G21G 9G18G24G22G 3G15G26
 -24591912.301 7 -19162523.644 7  20347310.210    20347305.848    20347309.153
        45.700          45.800
 -15340241.941 6 -11953431.220 5  21818800.950    21818797.904    21818799.666
        39.100          35.900
 -15382301.927 7 -11986206.029 7  20775178.468    20775174.024    20775177.476
        44.800          45.700
 -10923767.349 5  -8512021.521 5  22483538.428    22483536.438    22483537.305
        35.300          32.300
  -9179766.259 5  -7153062.160 5  22961315.015    22961309.464    22961314.234
        35.100          31.500
  -1567170.326 3  -1221171.935 2  24199362.860    24199359.970    24199361.509
        23.400          16.100
 -17161820.525 7 -13372837.192 6  21415479.087    21415475.535    21415478.642
        44.200          41.900
 -13972057.306 6 -10887308.062 5  21828267.512    21828264.632    21828267.091
        37.200          33.800
 08  1  1  1 24  0.0000000  0  8G21G 9G18G24G22G 3G15G26
 -24562764.227 7 -19139810.868 7  20352856.862    20352852.553    20352855.803
        45.800          45.800
 -15432533.084 6 -12025346.375 5  21801238.457    21801235.576    21801237.253
        39.100          35.900
 -15418293.693 7 -12014251.558 7  20768329.429    20768325.060    20768328.446
        44.800          45.800
 -10832560.273 5  -8440951.099 5  22500893.760    22500892.637    22500893.220
        35.400          32.000
  -9260237.788 5  -7215767.241 5  22946001.560    22945996.433    22946000.919
        34.700          31.800
  -1560411.107 3  -1215904.998 2  24200648.839    24200646.027    24200648.112
        23.400          16.100
 -17094916.761 7 -13320704.388 7  21428210.367    21428206.984    21428210.008
        44.300          42.000
 -13876012.327 6 -10812467.823 5  21846544.270    21846541.406    21846543.920
        37.200          33.600
 08  1  1  1 24 30.0000000  0  8G21G 9G18G24G22G 3G15G26
 -24533038.184 7 -19116647.728 7  20358513.653    20358509.272    20358512.559
        45.800          45.700
 -15524397.700 6 -12096929.167 6  21783756.527    21783754.333    21783755.834
        39.300          36.400
 -15454009.566 7 -12042082.107 7  20761532.950    20761528.485    20761531.981
        44.900          45.800
 -10741074.915 5  -8369663.829 5  22518303.919    22518301.640    22518302.540
        34.600          32.300
  -9340597.605 5  -7278385.267 5  22930709.530    22930704.072    22930708.759
        34.400          30.800
  -1553111.047 3  -1210216.627 2  24202038.579    24202035.004    24202037.507
        23.800          17.000
 -17027705.001 7 -13268331.586 6  21441000.196    21440996.833    21440999.955
        44.300          41.700
 -13779701.801 6 -10737420.657 5  21864871.832    21864868.819    21864871.098
        36.500          33.400
 08  1  1  1 25  0.0000000  0  8G21G 9G18G24G22G 3G15G26
 -24502734.550 7 -19093034.513 7  20364280.228    20364275.819    20364279.189
        45.900          45.600
 -15615832.306 6 -12168176.886 6  21766356.805    21766354.741    21766356.381
        39.800          36.000
 -15489448.498 7 -12069696.859 7  20754789.065    20754784.634    20754788.085
        44.700          45.900
 -10649313.013 5  -8298161.088 5  22535764.044    22535763.485    22535763.792
        34.400          32.300
  -9420845.197 5  -7340915.847 5  22915439.171    22915433.682    22915438.450
        35.200          31.600
  -1545270.836 3  -1204107.353 2  24203529.967    24203526.631    24203529.187
        23.400          16.100
 -16960187.350 7 -13215720.430 6  21453848.577    21453844.979    21453848.102
        44.100          41.700
 -13683128.082 6 -10662168.415 5  21883249.394    21883245.983    21883248.699
        37.200          33.500
 08  1  1  1 25 30.0000000  0  8G21G 9G18G24G22G 3G15G26
 -24471854.204 7 -19068971.917 7  20370156.428    20370152.186    20370155.481
        46.000          45.600
 -15706833.485 6 -12239086.866 6  21749040.030    21749037.810    21749039.227
        39.500          36.300
 -15524609.993 7 -12097095.427 7  20748098.073    20748093.631    20748097.076
        44.800          46.000
 -10557276.383 5  -8226444.264 5  22553279.699    22553277.426    22553278.199
        34.100          32.600
  -9500979.806 5  -7403358.396 5  22900189.917    22900184.525    22900189.289
        35.200          31.500
  -1536891.564 3  -1197578.082 3  24205124.654    24205121.354    24205123.750
        22.600          18.600
 -16892365.641 7 -13162872.342 6  21466754.597    21466751.097    21466754.268
        44.300          41.600
 -13586294.330 6 -10586713.542 5  21901676.009    21901672.864    21901675.336
        36.600          33.500
 08  1  1  1 26  0.0000000  0  8G21G 9G18G24G22G 3G15G26
 -24440397.330 7 -19044460.077 7  20376142.735    20376138.323    20376141.629
        46.000          45.600
 -15797398.145 6 -12309656.707 6  21731806.219    21731803.861    21731805.602
        40.200          36.600
 -15559492.972 7 -12124276.967 7  20741460.118    20741455.667    20741459.156
        44.800          46.100
 -10464966.919 5  -8154514.847 5  22570845.127    22570843.367    22570843.928
        34.300          31.100
  -9581001.018 5  -7465712.573 5  22884962.389    22884956.983    22884961.482
        34.100          31.600
  -1527973.712 3  -1190629.108 2  24206821.710    24206818.758    24206820.726
        23.400          17.000
 -16824241.967 7 -13109788.963 6  21479717.979    21479714.613    21479717.673
        44.100          41.600
 -13489203.017 6 -10511057.973 5  21920151.731    21920148.713    21920151.214
        36.500          33.200
 08  1  1  1 26 30.0000000  0  8G21G 9G18G24G22G 3G15G26
 -24408364.334 7 -19019499.310 7  20382238.201    20382234.009    20382237.203
        46.000          45.600
 -15887522.682 6 -12379883.588 6  21714656.128    21714653.637    21714655.324
        39.800          36.200
 -15594096.616 7 -12151240.849 7  20734875.222    20734870.787    20734874.231
        44.800          46.100
 -10372386.234 5  -8082374.089 5  22588462.232    22588460.957    22588461.488
        34.400          31.500
  -9660907.846 5  -7527977.629 5  22869756.486    22869750.905    22869755.772
        34.800          31.100
  -1518518.543 3  -1183261.447 3  24208620.778    24208617.640    24208619.947
        23.000          19.300
 -16755818.088 7 -13056471.656 6  21492738.466    21492735.306    21492738.206
        44.000          41.600
 -13391856.944 6 -10435203.888 5  21938676.060    21938672.903    21938675.525
        36.000          33.000
 08  1  1  1 27  0.0000000  0  8G21G 9G18G24G22G 3G15G26
 -24375755.802 7 -18994090.075 7  20388443.511    20388439.213    20388442.497
        46.100          45.500
 -15977204.077 6 -12449765.177 6  21697590.477    21697587.799    21697589.732
        40.400          36.400
 -15628420.092 7 -12177986.416 7  20728343.509    20728339.232    20728342.586
        44.700          46.100
 -10279536.347 5  -8010023.560 5  22606130.910    22606129.587    22606130.177
        33.900          31.500
  -9740699.485 5  -7590152.925 5  22854572.688    22854567.154    22854572.041
        35.200          31.300
  -1508526.210 3  -1175475.190 2  24210522.059    24210519.213    24210521.014
        23.000          17.000
 -16687095.857 7 -13002921.868 6  21505815.993    21505812.570    21505815.643
        43.800          41.400
 -13294258.676 6 -10359153.302 5  21957248.139    21957245.415    21957247.746
        36.300          33.200
 08  1  1  1 27 30.0000000  0  8G21G 9G18G24G22G 3G15G26
 -24342572.200 7 -18968232.728 7  20394758.314    20394753.835    20394757.213
        46.200          45.400
 -16066439.090 6 -12519298.929 6  21680609.578    21680607.009    21680608.720
        40.000          36.500
 -15662462.637 7 -12204513.069 7  20721865.522    20721861.163    20721864.577
        44.500          46.300
 -10186418.965 5  -7937464.582 5  22623851.049    22623849.413    22623850.074
        34.000          31.100
  -9820375.348 5  -7652238.015 5  22839410.903    22839405.473    22839410.142
        35.400          31.500
  -1497997.837 3  -1167271.274 3  24212526.139    24212523.108    24212524.864
        23.800          20.500
 -16618077.461 7 -12949141.300 6  21518949.977    21518946.334    21518949.418
        43.800          41.300
 -13196411.014 6 -10282908.363 5  21975868.233    21975865.090    21975867.694
        36.200          32.700
 08  1  1  1 28  0.0000000  0  8G21G 9G18G24G22G 3G15G26
 -24308814.185 7 -18941927.795 7  20401182.190    20401177.795    20401181.101
        46.100          45.400
 -16155224.511 6 -12588482.351 6  21663714.041    21663711.761    21663713.309
        40.300          36.900
 -15696223.179 7 -12230819.984 7  20715441.003    20715436.747    20715440.040
        44.600          46.300
 -10093035.904 5  -7864698.597 5  22641621.253    22641619.484    22641620.302
        34.100          31.300
  -9899934.192 5  -7714231.917 5  22824271.260    22824265.884    22824270.639
        35.700          32.100
  -1486934.573 3  -1158650.546 2  24214630.805    24214628.201    24214629.985
        22.600          17.000
 -16548764.789 7 -12895131.428 6  21532139.685    21532136.014    21532139.320
        44.200          41.300
 -13098316.540 6 -10206471.115 5  21994535.052    21994531.990    21994534.337
        36.200          32.700
 08  1  1  1 28 30.0000000  0  8G21G 9G18G24G22G 3G15G26
 -24274482.283 7 -18915175.673 7  20407715.337    20407710.882    20407714.277
        46.200          45.200
 -16243557.099 6 -12657312.917 6  21646904.621    21646902.612    21646904.056
        40.200          37.000
 -15729700.831 7 -12256906.465 7  20709070.459    20709066.177    20709069.501
        44.500          46.400
  -9999389.076 5  -7791727.067 5  22659441.956    22659439.984    22659440.999
        33.900          31.100
  -9979375.480 5  -7776134.215 5  22809154.031    22809148.727    22809153.307
        35.800          32.100
  -1475337.055 4  -1149613.524 2  24216838.217    24216834.841    24216837.178
        24.200          17.000
 -16479159.921 7 -12840893.871 6  21545385.185    21545381.511    21545384.754
        44.100          41.300
 -12999977.938 5 -10129843.623 5  22013248.255    22013245.172    22013247.749
        35.700          32.800
 08  1  1  1 29  0.0000000  0  8G21G 9G18G24G22G 3G15G26
 -24239577.267 7 -18887976.972 7  20414357.587    20414353.022    20414356.488
        46.300          44.800
 -16331433.907 6 -12725788.320 6  21630182.514    21630180.248    21630181.712
        40.300          37.200
 -15762894.924 7 -12282771.994 7  20702753.922    20702749.604    20702753.024
        44.600          46.500
  -9905480.429 5  -7718551.523 5  22677312.393    22677310.157    22677311.114
        33.600          31.100
 -10058698.065 5  -7837944.013 5  22794059.574    22794054.269    22794058.989
        35.700          32.300
  -1463206.799 3  -1140161.350 2  24219146.385    24219143.413    24219145.159
        21.100          16.100
 -16409265.092 7 -12786430.366 6  21558685.630    21558681.946    21558685.236
        43.900          41.000
 -12901397.865 5 -10053027.996 5  22032007.378    22032004.516    22032006.730
        35.900          32.800
 08  1  1  1 29 30.0000000  0  8G21G 9G18G24G22G 3G15G26
 -24204099.447 7 -18860331.927 7  20421108.817    20421104.272    20421107.727
        46.400          44.800
 -16418851.362 6 -12793905.783 6  21613547.354    21613545.061    21613546.687
        40.300          37.100
 -15795804.355 7 -12308415.708 7  20696491.449    20696487.161    20696490.478
        44.500          46.600
  -9811311.796 5  -7645173.398 5  22695231.644    22695229.862    22695230.599
        33.600          30.600
 -10137901.685 6  -7899661.119 5  22778987.528    22778982.253    22778987.011
        36.200          31.500
  -1450544.461 3  -1130294.620 2  24221555.830    24221552.707    24221554.667
        23.000          17.800
 -16339081.992 7 -12731742.237 6  21572040.894    21572037.476    21572040.612
        43.800          40.900
 -12802578.930 5  -9976026.223 5  22050812.222    22050808.967    22050811.616
        35.600          32.400
 08  1  1  1 30  0.0000000  0  8G21G 9G18G24G22G 3G15G26
 -24168049.844 7 -18832241.334 7  20427968.621    20427964.403    20427967.664
        46.300          44.900
 -16505806.386 6 -12861662.916 6  21597001.004    21596998.079    21596999.866
        40.800          37.400
 -15828428.663 7 -12333837.246 7  20690283.340    20690278.942    20690282.318
        44.400          46.800
  -9716884.853 5  -7571593.990 5  22713200.296    22713198.930    22713199.276
        33.200          31.100
 -10216984.987 6  -7961284.470 5  22763938.581    22763933.355    22763937.828
        36.300          32.700
  -1437351.103 3  -1120014.083 2  24224066.871    24224063.128    24224065.736
        23.800          13.900
 -16268612.439 7 -12676830.898 6  21585451.001    21585447.329    21585450.557
        43.700          40.800
 -12703523.841 5  -9898840.444 5  22069661.638    22069658.531    22069661.011
        35.600          32.100
 08  1  1  1 30 30.0000000  0  8G21G 9G18G24G22G 3G15G26
 -24131428.546 7 -18803705.268 7  20434937.646    20434933.199    20434936.513
        46.400          45.000
 -16592295.744 6 -12929057.189 6  21580542.040    21580539.583    21580541.302
        41.000          37.500
 -15860766.507 7 -12359035.565 7  20684129.613    20684125.306    20684128.650
        44.400          47.000
  -9622201.650 5  -7497814.906 5  22731217.517    22731216.515    22731217.055
        33.900          31.000
 -10295947.614 5  -8022813.785 5  22748912.589    22748906.920    22748911.789
        35.800          32.100
  -1423627.885 3  -1109320.676 2  24226677.425    24226674.890    24226676.722
        23.000          16.100
 -16197858.308 7 -12621697.808 6  21598915.007    21598911.345    21598914.619
        43.600          40.900
 -12604235.247 5  -9821472.706 5  22088555.581    22088552.506    22088555.037
        35.300          31.800
 08  1  1  1 31  0.0000000  0  8G21G 9G18G24G22G 3G15G26
 -24094236.496 7 -18774724.462 7  20442014.991    20442010.664    20442013.978
        46.500          45.000
 -16678316.214 6 -12996086.104 6  21564172.454    21564170.539    21564172.058
        41.200          37.600
 -15892817.445 7 -12384010.321 7  20678030.672    20678026.206    20678029.586
        44.400          46.900
  -9527263.877 5  -7423837.435 5  22749284.426    22749282.553    22749283.284
        33.000          30.600
 -10374788.463 5  -8084248.205 5  22733909.159    22733904.174    22733908.556
        35.400          32.100
  -1409375.385 3  -1098214.803 2  24229390.387    24229386.692    24229389.183
        23.800          17.800
 -16126821.754 7 -12566344.648 6  21612432.789    21612429.120    21612432.445
        43.200          40.700
 -12504715.719 5  -9743925.020 5  22107493.668    22107490.403    22107493.003
        35.600          31.300
 08  1  1  1 31 30.0000000  0  8G21G 9G18G24G22G 3G15G26
 -24056474.164 7 -18745299.280 7  20449200.971    20449196.614    20449199.868
        46.400          44.800
 -16763864.564 6 -13062747.127 6  21547893.608    21547891.208    21547892.753
        41.000          37.600
 -15924580.193 7 -12408760.515 7  20671986.283    20671981.934    20671985.298
        44.500          47.000
  -9432073.365 5  -7349663.042 5  22767398.649    22767396.930    22767397.436
        33.100          31.000
 -10453506.874 6  -8145587.207 5  22718929.968    22718924.379    22718929.216
        36.500          32.300
  -1394594.718 3  -1086697.430 2  24232202.744    24232199.870    24232201.682
        22.100          17.800
 -16055504.976 7 -12510773.133 6  21626004.056    21626000.182    21626003.597
        43.300          40.300
 -12404967.942 5  -9666199.483 5  22126474.703    22126471.791    22126474.341
        35.800          31.500
 08  1  1  1 32  0.0000000  0  8G21G 9G18G24G22G 3G15G26
 -24018142.598 7 -18715430.542 7  20456494.812    20456490.827    20456493.928
        46.400          44.500
 -16848937.851 6 -13129037.975 6  21531704.073    21531702.302    21531703.668
        41.100          37.800
 -15956054.071 7 -12433285.613 7  20665997.078    20665992.632    20665996.028
        44.400          47.000
  -9336632.347 5  -7275293.448 5  22785559.676    22785558.610    22785558.870
        32.400          30.400
 -10532101.970 6  -8206830.134 5  22703973.612    22703968.391    22703972.995
        36.500          32.300
  -1379287.319 4  -1074769.593 3  24235115.894    24235112.697    24235114.797
        24.200          18.600
 -15983909.639 7 -12454984.559 6  21639628.029    21639624.435    21639627.629
        43.100          40.400
 -12304994.418 5  -9588298.034 5  22145499.647    22145496.213    22145498.849
        34.900          31.800
 08  1  1  1 32 30.0000000  0  9G14G21G 9G18G24G22G 3G15G26
   -134888.421 3   -105107.154 9  24765433.488    24765431.739    24765432.709
        18.600          -3.000
 -23979242.404 7 -18685118.712 7  20463897.497    20463893.276    20463896.493
        46.100          44.400
 -16933532.788 6 -13194956.065 6  21515607.071    21515604.355    21515605.987
        41.200          37.700
 -15987238.198 7 -12457584.933 7  20660062.743    20660058.518    20660061.810
        44.400          47.200
  -9240942.368 5  -7200729.851 5  22803768.454    22803767.900    22803768.034
        32.700          30.600
 -10610572.817 6  -8267976.236 5  22689040.715    22689035.972    22689040.291
        36.500          33.100
  -1363454.059 3  -1062431.970 3  24238128.297    24238125.317    24238127.433
        21.100          18.600
 -15912037.727 7 -12398980.474 6  21653304.983    21653301.070    21653304.444
        43.300          40.100
 -12204797.757 5  -9510222.714 5  22164566.139    22164562.941    22164565.470
        34.900          31.300
 08  1  1  1 33  0.0000000  0  9G14G21G 9G18G24G22G 3G15G26
   -235905.779 3   -183821.962 1  24746210.386    24746208.025    24746209.979
        19.900           9.000
 -23939774.233 7 -18654364.308 7  20471408.027    20471403.831    20471407.010
        46.400          44.400
 -17017645.988 6 -13260498.780 6  21499600.517    21499597.956    21499599.806
        41.600          37.600
 -16018131.699 7 -12481657.791 7  20654184.026    20654179.724    20654183.065
        44.700          47.200
  -9145005.431 5  -7125973.828 5  22822025.089    22822024.110    22822024.256
        31.100          31.100
 -10688918.534 6  -8329024.824 5  22674132.468    22674127.086    22674131.776
        36.700          33.000
  -1347096.567 3  -1049685.884 2  24241241.248    24241238.361    24241240.314
        23.000          17.800
 -15839891.199 7 -12342762.396 6  21667033.934    21667030.279    21667033.481
        43.100          40.500
 -12104380.699 5  -9431975.657 5  22183674.589    22183671.498    22183674.145
        34.400          30.800
 08  1  1  1 33 30.0000000  0  9G14G21G 9G18G24G22G 3G15G26
   -336794.512 3   -262436.573 1  24727012.441    24727009.111    24727011.672
        18.600           9.000
 -23899739.250 7 -18623168.231 7  20479026.377    20479022.201    20479025.379
        46.100          44.300
 -17101274.615 6 -13325663.909 6  21483687.058    21483683.855    21483685.844
        41.500          37.300
 -16048733.573 7 -12505503.409 7  20648360.587    20648356.359    20648359.652
        44.400          47.400
  -9048823.322 5  -7051026.754 5  22840328.444    22840326.948    22840327.476
        32.100          30.600
 -10767138.133 6  -8389975.138 5  22659247.811    22659242.497    22659247.068
        36.500          33.200
  -1330215.444 3  -1036531.787 3  24244453.974    24244451.112    24244452.942
        21.100          18.600
 -15767471.998 7 -12286331.852 6  21680814.773    21680811.226    21680814.443
        43.100          40.200
 -12003745.699 5  -9353558.775 5  22202824.911    22202821.927    22202824.441
        34.500          31.500
 08  1  1  1 34  0.0000000  0  9G14G21G 9G18G24G22G 3G15G26
   -437553.843 2   -340950.308 2  24707837.485    24707835.809    24707836.538
        12.600          12.600
 -23859137.930 7 -18591530.851 7  20486752.657    20486748.382    20486751.642
        46.200          44.100
 -17184415.643 6 -13390449.096 6  21467865.414    21467862.580    21467864.545
        41.600          37.400
 -16079043.160 7 -12529121.265 7  20642592.807    20642588.671    20642591.887
        44.400          47.300
  -8952398.123 5  -6975890.273 5  22858677.779    22858676.178    22858676.702
        32.100          30.800
 -10845231.169 6  -8450826.844 5  22644387.194    22644381.517    22644386.558
        37.100          32.700
  -1312811.878 3  -1022970.556 2  24247765.989    24247762.556    24247765.067
        21.600          17.000
 -15694782.187 7 -12229690.440 6  21694647.273    21694643.667    21694646.854
        43.000          40.300
 -11902895.395 5  -9274974.121 5  22222015.963    22222012.963    22222015.486
        34.300          31.300
 08  1  1  1 34 30.0000000  0  9G14G21G 9G18G24G22G 3G15G26
   -538182.261 2   -419362.058 1  24688689.132    24688685.954    24688687.782
        17.800           9.000
 -23817971.301 7 -18559452.974 7  20494586.379    20494582.150    20494585.365
        46.200          44.000
 -17267065.813 6 -13454851.788 6  21452137.537    21452134.772    21452136.674
        41.600          37.700
 -16109059.435 7 -12552510.572 7  20636881.110    20636876.818    20636880.080
        44.400          47.500
  -8855731.599 5  -6900565.732 4  22877072.948    22877071.026    22877071.844
        32.300          29.200
 -10923196.691 6  -8511579.194 5  22629550.754    22629545.311    22629550.152
        37.400          32.700
  -1294887.365 3  -1009003.400 2  24251176.378    24251173.584    24251175.517
        21.100          17.000
 -15621823.572 7 -12172839.579 6  21708530.666    21708527.253    21708530.333
        42.700          40.200
 -11801832.343 5  -9196223.689 5  22241247.395    22241244.608    22241246.933
        34.300          31.500
 08  1  1  1 35  0.0000000  0  9G14G21G 9G18G24G22G 3G15G26
   -638678.640 2   -497670.848 2  24669564.764    24669561.645    24669563.123
        17.800          12.600
 -23776240.269 7 -18526935.301 7  20502527.615    20502523.384    20502526.596
        46.300          44.000
 -17349221.976 6 -13518869.541 6  21436503.683    21436501.130    21436502.716
        41.600          38.000
 -16138781.359 7 -12575670.510 7  20631225.240    20631220.901    20631224.236
        44.500          47.600
  -8758825.744 5  -6825054.700 4  22895513.159    22895511.529    22895512.332
        32.100          28.800
 -11001033.691 6  -8572231.381 5  22614739.249    22614733.440    22614738.433
        37.700          33.200
  -1276442.958 3   -994631.157 2  24254686.593    24254683.154    24254685.580
        21.600          16.100
 -15548598.303 7 -12115780.920 6  21722465.090    21722461.518    21722464.602
        42.500          40.300
 -11700558.968 5  -9117309.375 5  22260519.541    22260516.407    22260519.017
        34.100          31.100
 08  1  1  1 35 30.0000000  0 10G14G21G 9G18G24G22G 3G32G15G26
   -739041.830 3   -575875.898 2  24650465.977    24650462.980    24650465.494
        19.300          12.600
 -23733945.532 7 -18493978.381 7  20510576.266    20510571.749    20510575.176
        46.400          44.000
 -17430881.244 7 -13582500.105 6  21420964.487    21420961.876    21420963.620
        42.000          38.100
 -16168208.206 7 -12598600.519 7  20625625.427    20625621.086    20625624.485
        44.500          47.500
  -8661682.515 5  -6749358.689 4  22913999.021    22913997.317    22913998.081
        32.100          29.200
 -11078741.524 6  -8632782.930 5  22599951.858    22599946.142    22599951.076
        37.300          33.800
  -1257480.043 3   -979854.846 3  24258294.893    24258292.111    24258293.796
        21.600          21.600
   -144744.919 3   -112787.756 2  24741828.760    24741826.788    24741827.810
        20.500          16.100
 -15475107.953 7 -12058515.718 6  21736449.890    21736446.347    21736449.356
        42.300          40.100
 -11599078.072 5  -9038233.355 5  22279831.023    22279827.556    22279830.315
        33.900          30.100
 08  1  1  1 36  0.0000000  0 10G14G21G 9G18G24G22G 3G32G15G26
   -839270.658 3   -653976.281 3  24631394.073    24631390.846    24631392.974
        18.600          19.300
 -23691088.073 7 -18460582.971 7  20518731.741    20518727.325    20518730.672
        46.500          43.800
 -17512040.535 7 -13645741.077 6  21405520.156    21405517.818    21405519.435
        42.300          38.400
 -16197339.297 7 -12621300.070 7  20620081.885    20620077.571    20620080.930
        44.400          47.600
  -8564303.883 5  -6673479.261 4  22932528.931    22932527.996    22932528.461
        31.600          29.000
 -11156318.916 6  -8693232.837 5  22585189.375    22585183.718    22585188.594
        37.600          33.400
  -1237999.968 3   -964675.587 3  24262001.520    24261999.216    24262000.686
        19.300          22.100
   -228216.596 3   -177830.607 2  24725944.688    24725942.044    24725943.642
        21.600          17.000
 -15401354.740 7 -12001045.686 6  21750484.620    21750480.985    21750484.133
        42.500          40.000
 -11497392.004 5  -8958997.447 5  22299181.002    22299177.711    22299180.305
        33.200          30.600
 08  1  1  1 36 30.0000000  0 10G14G21G 9G18G24G22G 3G32G15G26
   -939363.954 3   -731971.069 2  24612346.851    24612343.688    24612346.073
        22.100          16.100
 -23647668.763 7 -18426749.756 7  20526994.043    20526989.726    20526992.967
        46.300          43.800
 -17592696.672 7 -13708589.977 6  21390171.971    21390169.331    21390171.076
        42.200          38.400
 -16226173.480 7 -12643768.265 7  20614594.997    20614590.620    20614594.012
        44.100          47.700
  -8466691.782 5  -6597417.927 4  22951104.761    22951103.058    22951103.733
        32.100          29.500
 -11233765.147 6  -8753580.534 5  22570451.548    22570446.108    22570450.943
        37.200          33.800
  -1218003.589 3   -949094.010 3  24265806.393    24265803.870    24265805.517
        21.600          19.900
   -311662.368 3   -242853.262 3  24710065.416    24710063.126    24710064.193
        19.300          18.600
 -15327340.695 7 -11943372.399 6  21764568.724    21764565.493    21764568.489
        42.100          40.200
 -11395503.430 5  -8879603.753 5  22318569.509    22318566.481    22318569.026
        33.000          30.400
 08  1  1  1 37  0.0000000  0 10G14G21G 9G18G24G22G 3G32G15G26
  -1039320.541 3   -809859.294 2  24593325.783    24593322.484    24593324.959
        23.000          15.100
 -23603688.539 7 -18392479.464 7  20535363.033    20535358.907    20535362.096
        46.200          43.500
 -17672846.817 7 -13771044.601 6  21374919.627    21374917.211    21374918.888
        42.400          38.400
 -16254709.671 7 -12666004.255 7  20609164.689    20609160.374    20609163.721
        44.100          47.700
  -8368848.175 5  -6521176.173 4  22969723.811    22969722.056    22969722.660
        31.500          28.800
 -11311079.351 6  -8813825.353 5  22555739.067    22555733.783    22555738.406
        37.400          33.800
  -1197492.616 3   -933111.442 2  24269710.284    24269707.452    24269709.073
        21.600          16.100
   -395081.963 3   -307855.510 2  24694191.837    24694189.001    24694190.021
        18.600          17.800
 -15253067.508 7 -11885497.192 6  21778702.748    21778699.139    21778702.323
        42.200          40.000
 -11293414.809 5  -8800054.176 5  22337996.638    22337993.347    22337995.982
        33.600          30.800
 08  1  1  1 37 30.0000000  0 10G14G21G 9G18G24G22G 3G32G15G26
  -1139139.108 3   -887639.962 2  24574330.584    24574327.766    24574329.973
        20.500          16.100
 -23559148.651 7 -18357773.075 7  20543838.951    20543834.527    20543837.859
        46.200          43.300
 -17752487.747 7 -13833102.439 6  21359765.149    21359762.074    21359764.045
        42.800          38.400
 -16282947.510 7 -12688007.765 7  20603791.164    20603786.914    20603790.142
        43.900          47.800
  -8270774.936 5  -6444755.493 4  22988386.118    22988384.914    22988385.272
        31.600          28.800
 -11388260.644 6  -8873966.606 5  22541052.215    22541046.548    22541051.479
        37.300          33.600
  -1176468.156 3   -916728.725 2  24273711.570    24273707.712    24273710.227
        22.100          17.800
   -478475.023 3   -372837.078 3  24678322.188    24678319.976    24678320.960
        21.600          18.600
 -15178537.161 6 -11827421.599 6  21792885.474    21792881.735    21792884.964
        41.800          39.500
 -11191128.635 5  -8720350.657 5  22357460.891    22357457.722    22357460.341
        34.000          30.400
 08  1  1  1 38  0.0000000  0 10G14G21G 9G18G24G22G 3G32G15G26
  -1238818.652 3   -965312.309 1  24555362.432    24555358.954    24555361.123
        21.600           9.000
 -23514049.757 7 -18322631.091 7  20552420.726    20552416.617    20552419.797
        46.400          43.300
 -17831616.547 7 -13894761.222 6  21344707.055    21344704.180    21344706.124
        42.800          38.400
 -16310885.838 7 -12709777.891 7  20598474.552    20598470.444    20598473.601
        43.900          47.800
  -8172473.945 5  -6368157.345 4  23007092.603    23007090.867    23007091.403
        31.100          29.000
 -11465308.217 6  -8934003.674 5  22526390.458    22526384.919    22526389.845
        38.600          34.100
  -1154932.028 3   -899947.337 3  24277808.363    24277806.228    24277807.530
        20.500          19.900
   -561840.996 3   -437797.553 2  24662458.200    24662455.829    24662456.961
        19.300          17.000
 -15103751.669 6 -11769147.193 6  21807116.502    21807112.989    21807116.168
        41.900          39.700
 -11088647.488 5  -8640495.233 5  22376962.160    22376959.217    22376961.595
        33.000          30.200
 08  1  1  1 38 30.0000000  0 10G14G21G 9G18G24G22G 3G32G15G26
  -1338357.870 2  -1042875.316 2  24536420.356    24536417.242    24536419.557
        17.000          12.600
 -23468392.935 7 -18287054.367 7  20561109.260    20561104.853    20561108.127
        46.200          43.400
 -17910229.874 7 -13956018.331 6  21329746.858    21329744.573    21329746.418
        43.000          38.800
 -16338523.817 7 -12731313.978 8  20593215.404    20593211.108    20593214.369
        43.800          48.000
  -8073947.140 5  -6291383.247 4  23025841.296    23025840.085    23025840.385
        31.100          29.200
 -11542221.360 6  -8993935.984 5  22511754.329    22511748.713    22511753.635
        38.600          33.600
  -1132885.118 3   -882767.977 3  24282004.470    24282001.741    24282003.434
        21.100          19.300
   -645179.587 3   -502736.682 2  24646599.823    24646597.080    24646598.473
        22.600          17.800
 -15028712.778 6 -11710675.330 6  21821396.046    21821392.262    21821395.583
        41.800          39.200
 -10985973.799 5  -8560489.744 5  22396500.812    22396497.304    22396500.213
        33.500          30.100
 08  1  1  1 39  0.0000000  0 10G14G21G 9G18G24G22G 3G32G15G26
  -1437756.168 3  -1120328.511 2  24517505.770    24517502.753    24517504.872
        22.600          13.900
 -23422179.622 7 -18251044.009 7  20569903.342    20569898.978    20569902.394
        46.700          43.200
 -17988325.213 7 -14016871.809 6  21314885.747    21314883.499    21314885.234
        43.000          38.900
 -16365860.480 7 -12752615.272 8  20588013.277    20588009.154    20588012.327
        44.000          48.100
  -7975196.579 5  -6214434.777 4  23044633.185    23044631.801    23044632.136
        31.600          29.700
 -11618999.019 6  -9053762.731 5  22497144.241    22497138.436    22497143.408
        38.200          34.100
  -1110328.800 3   -865191.613 3  24286297.060    24286294.511    24286295.807
        22.100          21.600
   -728490.388 3   -567654.162 3  24630745.665    24630743.469    24630744.604
        21.600          18.600
 -14953422.351 6 -11652007.468 6  21835723.246    21835719.782    21835722.816
        41.800          39.400
 -10883110.037 5  -8480336.182 4  22416074.259    22416071.704    22416073.976
        33.000          29.900
 08  1  1  1 39 30.0000000  0 10G14G21G 9G18G24G22G 3G32G15G26
  -1537011.843 3  -1197670.546 2  24498617.569    24498615.192    24498616.746
        19.900          17.000
 -23375410.522 7 -18214600.569 7  20578803.214    20578798.744    20578802.173
        46.400          43.000
 -18065899.301 7 -14077319.110 6  21300124.166    21300121.475    21300123.422
        43.000          38.900
 -16392895.055 7 -12773681.173 8  20582868.950    20582864.639    20582867.885
        43.900          48.100
  -7876223.946 5  -6137313.268 4  23063466.242    23063465.806    23063465.965
        31.100          29.500
 -11695640.025 6  -9113482.987 5  22482559.468    22482554.170    22482558.872
        37.800          34.300
  -1087264.566 3   -847219.511 3  24290686.040    24290682.782    24290684.795
        23.400          19.900
   -811772.920 4   -632549.632 2  24614898.166    24614895.101    24614896.872
        24.200          17.800
 -14877882.445 6 -11593145.205 6  21850097.775    21850094.492    21850097.458
        41.300          39.100
 -10780058.604 5  -8400036.352 4  22435685.147    22435681.572    22435684.453
        33.400          29.200
 08  1  1  1 40  0.0000000  0 10G14G21G 9G18G24G22G 3G32G15G26
  -1636123.762 3  -1274900.565 2  24479757.584    24479754.258    24479756.173
        18.600          13.900
 -23328086.530 7 -18177724.749 7  20587808.533    20587804.193    20587807.548
        46.500          42.800
 -18142949.486 7 -14137358.185 6  21285462.372    21285459.352    21285461.383
        43.100          39.100
 -16419626.512 7 -12794510.880 8  20577782.116    20577777.762    20577781.071
        44.000          48.000
  -7777031.211 4  -6060020.257 4  23082343.172    23082341.482    23082341.964
        29.700          28.800
 -11772143.774 6  -9173096.285 5  22468001.293    22467996.058    22468000.682
        37.500          34.600
  -1063694.197 3   -828853.001 2  24295170.975    24295167.766    24295170.142
        21.600          15.100
   -895026.708 3   -697422.702 3  24599054.947    24599052.721    24599053.894
        23.800          19.300
 -14802094.975 6 -11534090.027 6  21864520.032    21864516.483    21864519.542
        41.600          39.000
 -10676822.178 5  -8319592.376 4  22455330.163    22455327.175    22455329.517
        32.600          29.500
 08  1  1  1 40 30.0000000  0 10G14G21G 9G18G24G22G 3G32G15G26
  -1735090.896 2  -1352017.764 2  24460924.339    24460921.998    24460923.212
        17.800          17.800
 -23280209.050 7 -18140417.635 7  20596919.440    20596915.040    20596918.450
        46.500          42.800
 -18219472.763 7 -14196986.694 6  21270900.403    21270897.426    21270899.517
        43.100          38.900
 -16446054.029 7 -12815103.751 8  20572753.016    20572748.800    20572752.003
        43.900          48.000
  -7677620.731 5  -5982557.580 4  23101259.750    23101258.599    23101258.924
        30.800          28.600
 -11848509.022 6  -9232601.663 5  22453469.734    22453464.257    22453468.958
        38.400          34.800
  -1039618.610 3   -810092.807 3  24299752.853    24299749.601    24299751.599
        23.800          18.600
   -978251.473 4   -762273.130 3  24583217.776    24583215.424    24583216.851
        24.600          19.300
 -14726061.788 6 -11474843.394 6  21878988.668    21878985.089    21878988.155
        41.500          39.300
 -10573403.105 5  -8239006.101 4  22475010.610    22475006.899    22475009.675
        32.000          28.400
 08  1  1  1 41  0.0000000  0 10G14G21G 9G18G24G22G 3G32G15G26
  -1833912.143 3  -1429021.289 2  24442119.468    24442116.329    24442118.989
        22.100          12.600
 -23231778.969 7 -18102679.928 7  20606135.390    20606130.979    20606134.404
        46.300          42.700
 -18295466.637 7 -14256202.668 6  21256438.791    21256436.294    21256438.093
        43.000          38.900
 -16472176.552 7 -12835458.964 8  20567782.021    20567777.884    20567781.130
        44.000          48.300
  -7577994.430 4  -5904926.737 4  23120217.749    23120216.700    23120217.155
        29.500          28.400
 -11924735.131 6  -9291998.623 5  22438964.552    22438958.679    22438963.757
        38.700          34.400
  -1015039.380 3   -790940.167 3  24304429.822    24304427.087    24304428.892
        23.800          18.600
  -1061446.630 4   -827100.509 3  24567386.263    24567383.569    24567385.264
        24.200          18.600
 -14649784.757 7 -11415406.744 6  21893503.802    21893500.068    21893503.416
        42.000          39.000
 -10469803.740 5  -8158279.302 4  22494724.591    22494721.413    22494724.047
        32.600          29.000
 08  1  1  1 41 30.0000000  0 10G14G21G 9G18G24G22G 3G32G15G26
  -1932586.333 3  -1505910.207 2  24423342.842    24423339.177    24423341.802
        20.500          15.100
 -23182797.586 7 -18064512.628 7  20615456.387    20615451.872    20615455.234
        46.500          42.700
 -18370927.626 7 -14315003.405 6  21242078.866    21242076.573    21242078.273
        43.400          39.100
 -16497993.290 7 -12855575.903 8  20562869.417    20562865.085    20562868.385
        44.000          48.300
  -7478154.153 4  -5827129.144 4  23139217.349    23139215.715    23139216.230
        29.900          27.100
 -12000821.203 6  -9351286.474 5  22424485.650    22424480.069    22424485.010
        38.900          34.600
   -989958.029 3   -771396.266 3  24309202.489    24309200.079    24309201.427
        21.100          19.300
  -1144611.855 3   -891904.564 2  24551560.435    24551557.783    24551559.302
        23.400          15.100
 -14573266.029 6 -11355781.763 6  21908064.631    21908061.188    21908064.355
        41.800          39.100
 -10366026.832 5  -8077414.198 4  22514472.632    22514469.239    22514472.051
        32.000          28.400
 08  1  1  1 42  0.0000000  0 10G14G21G 9G18G24G22G 3G32G15G26
  -2031112.655 3  -1582683.911 2  24404593.246    24404590.972    24404592.273
        18.600          17.800
 -23133266.042 7 -18025916.636 7  20624881.712    20624877.555    20624880.813
        46.400          42.500
 -18445852.585 7 -14373386.467 6  21227821.893    21227818.730    21227820.792
        43.500          39.300
 -16523503.519 7 -12875454.007 8  20558014.886    20558010.657    20558013.934
        43.900          48.400
  -7378101.722 5  -5749166.240 4  23158257.620    23158255.278    23158256.098
        30.100          28.100
 -12076766.326 6  -9410464.492 5  22410033.661    22410028.111    22410033.069
        38.800          34.300
   -964376.207 3   -751462.394 3  24314070.595    24314068.293    24314069.326
        21.100          21.100
  -1227746.622 3   -956684.883 2  24535740.805    24535737.696    24535739.511
        23.800          15.100
 -14496507.023 6 -11295969.542 6  21922671.512    21922667.793    21922671.002
        41.500          38.900
 -10262074.582 5  -7996412.436 4  22534254.218    22534250.788    22534253.321
        32.000          29.000
 08  1  1  1 42 30.0000000  0 10G14G21G 9G18G24G22G 3G32G15G26
  -2129489.622 3  -1659341.259 2  24385872.427    24385869.688    24385871.702
        20.500          15.100
 -23083185.126 7 -17986892.558 7  20634412.029    20634407.642    20634410.941
        46.300          42.600
 -18520239.549 7 -14431350.314 6  21213666.767    21213663.358    21213665.425
        43.400          39.200
 -16548706.097 7 -12895092.377 8  20553218.896    20553214.787    20553217.977
        43.800          48.300
  -7277839.494 5  -5671039.865 4  23177335.792    23177334.656    23177335.092
        31.000          27.900
 -12152569.200 6  -9469531.662 5  22395608.973    22395603.362    22395608.257
        38.700          34.700
   -938295.378 3   -731139.648 3  24319033.869    24319030.996    24319032.770
        22.600          19.300
  -1310850.586 3  -1021441.209 3  24519926.561    24519923.770    24519925.431
        21.100          19.900
 -14419509.985 6 -11235971.849 6  21937323.296    21937319.871    21937322.903
        41.200          38.900
 -10157949.504 5  -7915276.019 4  22554068.081    22554065.195    22554067.833
        31.300          28.400
 08  1  1  1 43  0.0000000  0 10G14G21G 9G18G24G22G 3G32G15G26
  -2227716.154 3  -1735881.377 1  24367180.633    24367177.374    24367179.939
        21.100           9.000
 -23032556.575 7 -17947441.756 7  20644045.992    20644041.944    20644045.095
        46.400          42.400
 -18594085.004 7 -14488892.197 6  21199613.448    21199611.027    21199612.940
        43.800          39.500
 -16573600.504 7 -12914490.616 8  20548481.679    20548477.493    20548480.772
        43.800          48.500
  -7177369.544 5  -5592751.597 4  23196454.650    23196453.302    23196453.918
        30.600          27.400
 -12228229.166 6  -9528487.470 5  22381211.203    22381205.653    22381210.553
        38.600          34.600
   -911717.319 3   -710429.504 2  24324091.245    24324088.400    24324090.469
        21.600          17.800
  -1393923.172 3  -1086173.099 2  24504118.567    24504115.330    24504117.272
        20.500          17.000
 -14342276.286 6 -11175789.748 6  21952020.405    21952017.008    21952020.050
        41.500          38.900
 -10053653.932 5  -7834006.740 4  22573915.201    22573912.173    22573914.504
        32.100          29.000
 08  1  1  1 43 30.0000000  0 10G14G21G 9G18G24G22G 3G32G15G26
  -2325791.398 3  -1812303.577 2  24348518.033    24348514.794    24348517.094
        20.500          17.800
 -22981381.561 7 -17907565.133 7  20653784.518    20653780.215    20653783.495
        46.400          42.400
 -18667385.990 7 -14546009.799 6  21185664.666    21185662.214    21185664.146
        44.000          39.300
 -16598185.329 7 -12933647.625 8  20543803.624    20543799.213    20543802.596
        43.800          48.600
  -7076693.562 5  -5514302.808 4  23215613.058    23215611.185    23215611.978
        30.200          26.200
 -12303745.200 6  -9587331.133 5  22366841.023    22366835.553    22366840.365
        38.700          34.700
   -884643.619 3   -689333.131 3  24329243.563    24329240.916    24329242.462
        23.400          18.600
  -1476964.091 3  -1150880.270 2  24488315.007    24488313.318    24488314.015
        21.100          13.900
 -14264808.345 6 -11115425.122 6  21966762.064    21966758.580    21966761.662
        41.200          38.600
  -9949190.321 5  -7752606.529 4  22593793.521    22593790.771    22593793.041
        32.000          28.800
 08  1  1  1 44  0.0000000  0 10G14G21G 9G18G24G22G 3G32G15G26
  -2423714.035 3  -1888606.895 2  24329883.828    24329881.040    24329883.140
        21.600          13.900
 -22929661.228 7 -17867263.589 7  20663626.836    20663622.281    20663625.615
        46.300          42.300
 -18740140.066 7 -14602701.265 6  21171820.411    21171817.577    21171819.564
        43.900          39.500
 -16622459.814 7 -12952562.808 8  20539184.177    20539179.945    20539183.235
        43.900          48.500
  -6975813.468 4  -5435694.959 4  23234809.489    23234807.991    23234808.626
        29.200          26.800
 -12379116.211 6  -9646061.784 5  22352498.592    22352492.857    22352497.752
        39.000          34.900
   -857075.087 3   -667851.175 2  24334489.482    24334486.657    24334488.136
        20.500          17.000
  -1559972.728 3  -1215562.324 2  24472519.702    24472517.363    24472518.530
        21.600          17.800
 -14187107.999 6 -11054879.393 6  21981548.171    21981544.571    21981547.645
        40.700          38.600
  -9844560.980 5  -7671077.183 4  22613703.870    22613701.084    22613703.425
        30.800          28.600
 08  1  1  1 44 30.0000000  0 10G14G21G 9G18G24G22G 3G32G15G26
  -2521482.821 3  -1964790.309 2  24311278.900    24311275.872    24311278.088
        21.100          13.900
 -22877396.598 7 -17826537.922 7  20673572.050    20673567.980    20673571.060
        46.400          42.200
 -18812344.284 7 -14658964.265 6  21158079.985    21158077.539    21158079.461
        44.000          39.900
 -16646423.482 7 -12971235.799 8  20534624.081    20534619.762    20534623.095
        44.000          48.600
  -6874731.328 4  -5356929.679 4  23254044.993    23254043.283    23254044.011
        29.700          27.100
 -12454341.664 6  -9704679.018 5  22338183.285    22338177.986    22338182.773
        39.300          34.600
   -829013.822 3   -645985.266 3  24339829.116    24339826.670    24339828.293
        21.100          19.300
  -1642948.705 3  -1280218.904 3  24456729.911    24456727.183    24456728.989
        22.100          20.500
 -14109177.145 6 -10994154.059 6  21996377.692    21996374.187    21996377.389
        40.900          38.300
  -9739768.314 5  -7589420.566 4  22633645.205    22633642.532    22633644.735
        31.300          28.600
 08  1  1  1 45  0.0000000  0 10G14G21G 9G18G24G22G 3G32G15G26
  -2619097.065 3  -2040853.333 2  24292703.481    24292700.784    24292702.495
        20.500          16.100
 -22824589.342 7 -17785389.422 6  20683621.116    20683616.817    20683620.096
        46.200          41.900
 -18883995.710 7 -14714796.514 6  21144445.696    21144442.745    21144444.806
        44.200          40.000
 -16670075.186 7 -12989665.699 8  20530123.336    20530118.977    20530122.305
        43.800          48.600
  -6773449.353 5  -5278008.673 4  23273318.150    23273316.693    23273317.435
        31.000          27.400
 -12529420.311 6  -9763181.856 5  22323896.080    22323890.910    22323895.735
        39.400          34.700
   -800461.558 3   -623736.764 2  24345262.665    24345259.832    24345261.772
        22.600          17.800
  -1725891.447 3  -1344849.595 3  24440947.011    24440944.067    24440945.850
        23.800          23.000
 -14031017.532 6 -10933250.458 6  22011251.290    22011247.505    22011250.758
        40.700          38.400
  -9634814.780 5  -7507638.581 4  22653617.866    22653614.460    22653617.210
        32.400          28.100
 08  1  1  1 45 30.0000000  0 10G14G21G 9G18G24G22G 3G32G15G26
  -2716555.559 4  -2116795.001 2  24274158.559    24274154.997    24274157.155
        24.200          15.100
 -22771240.689 7 -17743819.057 6  20693773.057    20693768.803    20693772.023
        46.200          41.900
 -18955091.812 7 -14770196.048 6  21130916.400    21130913.573    21130915.624
        44.400          39.700
 -16693413.868 7 -13007851.681 8  20525682.169    20525677.819    20525681.172
        43.800          48.700
  -6671969.284 4  -5198933.301 4  23292628.779    23292627.897    23292628.138
        28.600          26.500
 -12604351.106 6  -9821569.489 5  22309637.456    22309632.033    22309636.837
        39.200          34.800
   -771419.981 3   -601106.945 3  24350789.543    24350786.361    24350788.427
        22.600          18.600
  -1808800.571 4  -1409454.096 3  24425169.875    24425166.894    24425168.844
        24.600          21.100
 -13952630.561 6 -10872169.704 6  22026167.676    22026164.187    22026167.230
        40.600          38.400
  -9529702.787 5  -7425733.140 4  22673619.700    22673616.637    22673619.173
        30.600          28.400
 08  1  1  1 46  0.0000000  0 10G14G21G 9G18G24G22G 3G32G15G26
  -2813857.134 3  -2192614.378 2  24255641.145    24255638.554    24255641.003
        21.600          15.100
 -22717351.759 7 -17701827.699 6  20704027.679    20704023.471    20704026.820
        46.400          41.900
 -19025630.087 7 -14825160.918 6  21117493.477    21117490.524    21117492.576
        44.400          39.900
 -16716438.734 7 -13025793.134 8  20521300.787    20521296.328    20521299.753
        43.800          48.700
  -6570293.022 4  -5119705.078 4  23311977.578    23311976.412    23311976.570
        28.100          27.100
 -12679133.245 6  -9879841.276 5  22295407.039    22295401.437    22295406.383
        39.500          35.200
   -741890.474 3   -578096.963 3  24356407.577    24356405.546    24356406.809
        19.300          18.600
  -1891675.667 4  -1474032.061 3  24409399.491    24409396.274    24409398.220
        26.500          22.600
 -13874018.718 6 -10810913.721 6  22041127.167    22041123.286    22041126.607
        40.600          37.900
  -9424434.513 5  -7343705.916 4  22693651.395    22693648.370    22693650.788
        31.600          28.100
 08  1  1  1 46 30.0000000  0 10G14G21G 9G18G24G22G 3G32G15G26
  -2911000.552 3  -2268310.522 2  24237156.031    24237152.832    24237154.568
        21.100          15.100
 -22662924.076 7 -17659416.531 6  20714385.274    20714380.601    20714384.140
        46.400          41.500
 -19095607.349 7 -14879688.627 6  21104177.252    21104174.270    21104176.348
        44.300          40.000
 -16739149.073 7 -13043489.502 8  20516978.972    20516974.671    20516978.054
        43.800          48.700
  -6468422.974 4  -5040325.850 4  23331362.073    23331361.773    23331361.582
        28.600          27.600
 -12753765.703 6  -9937996.434 5  22281204.875    22281199.578    22281204.370
        39.800          35.300
   -711875.101 3   -554708.388 2  24362120.303    24362117.241    24362119.039
        19.300          17.800
  -1974516.092 3  -1538583.022 3  24393634.844    24393631.814    24393633.810
        23.400          18.600
 -13795183.670 6 -10749483.810 6  22056128.923    22056125.167    22056128.432
        40.600          38.000
  -9319012.407 5  -7261558.822 4  22713712.722    22713709.456    22713712.258
        31.000          27.400
 08  1  1  1 47  0.0000000  0 10G14G21G 9G18G24G22G 3G32G15G26
  -3007984.933 3  -2343882.723 2  24218700.442    24218697.194    24218699.763
        23.800          17.000
 -22607959.023 7 -17616586.636 6  20724844.475    20724840.131    20724843.534
        46.400          41.400
 -19165021.158 7 -14933777.282 6  21090968.202    21090965.303    21090967.387
        44.800          40.400
 -16761543.636 7 -13060939.810 8  20512717.468    20512713.100    20512716.497
        43.500          48.800
  -6366361.251 4  -4960797.257 4  23350784.878    23350783.496    23350783.446
        27.900          27.100
 -12828247.451 6  -9996034.161 5  22267031.512    22267026.137    22267030.927
        39.500          35.600
   -681375.341 2   -530942.358 3  24367923.681    24367921.017    24367922.847
        17.800          18.600
  -2057321.403 3  -1603106.620 3  24377877.347    24377874.718    24377876.041
        23.000          19.300
 -13716127.124 6 -10687881.307 6  22071172.692    22071169.199    22071172.335
        40.500          38.200
  -9213438.782 5  -7179293.658 4  22733802.261    22733799.586    22733802.014
        31.000          28.600
 08  1  1  1 47 30.0000000  0 10G14G21G 9G18G24G22G 3G32G15G26
  -3104809.237 3  -2419330.196 3  24200275.453    24200272.460    24200274.255
        22.100          18.600
 -22552457.917 7 -17573339.033 6  20735405.909    20735401.775    20735405.005
        46.400          41.400
 -19233868.819 7 -14987424.779 6  21077866.449    21077864.021    21077865.891
        44.500          40.500
 -16783621.420 7 -13078143.279 8  20508516.147    20508511.850    20508515.160
        43.500          48.800
  -6264109.736 4  -4881120.784 4  23370242.019    23370241.319    23370241.163
        28.600          27.100
 -12902577.550 6 -10053953.715 5  22252887.143    22252881.493    22252886.346
        39.700          35.600
   -650392.893 3   -506800.195 2  24373820.025    24373816.768    24373819.224
        20.500          13.900
  -2140091.252 4  -1667602.591 2  24362127.396    24362124.007    24362126.212
        24.200          17.800
 -13636851.161 6 -10626107.824 6  22086258.042    22086254.716    22086257.846
        40.100          37.800
  -9107716.050 5  -7096912.310 4  22753921.533    22753917.954    22753920.716
        31.100          27.400
 08  1  1  1 48  0.0000000  0 10G14G21G 9G18G24G22G 3G32G15G26
  -3201472.316 3  -2494652.096 3  24181881.181    24181877.971    24181880.280
        20.500          20.500
 -22496421.992 7 -17529674.694 6  20746069.555    20746065.140    20746068.351
        46.200          41.300
 -19302147.495 7 -15040628.904 6  21064873.602    21064870.923    21064872.896
        44.600          40.500
 -16805382.112 7 -13095099.659 8  20504375.259    20504370.945    20504374.197
        43.400          48.900
  -6161670.240 4  -4801297.827 4  23389735.954    23389734.587    23389734.898
        28.400          25.900
 -12976754.961 6 -10111754.289 5  22238771.535    22238766.032    22238770.825
        39.700          35.700
   -618929.243 3   -482283.094 2  24379807.279    24379804.185    24379806.445
        18.600          12.600
  -2222825.093 4  -1732070.500 2  24346383.327    24346379.905    24346382.138
        24.200          13.900
 -13557357.369 6 -10564164.611 6  22101385.655    22101382.167    22101385.170
        40.500          38.100
  -9001846.365 5  -7014416.451 4  22774067.216    22774064.287    22774066.795
        30.400          27.100
 08  1  1  1 48 30.0000000  0 10G14G21G 9G18G24G22G 3G32G15G26
  -3297973.174 3  -2569847.510 2  24163517.856    24163513.662    24163516.650
        22.600          15.100
 -22439852.914 7 -17485594.909 6  20756833.771    20756829.859    20756832.954
        46.200          41.400
 -19369854.450 7 -15093387.536 6  21051989.664    21051986.679    21051988.681
        44.700          40.500
 -16826824.773 7 -13111808.224 8  20500294.787    20500290.498    20500293.739
        43.400          48.900
  -6059045.003 4  -4721330.135 4  23409265.700    23409263.415    23409264.226
        27.600          25.300
 -13050778.622 6 -10169435.061 6  22224685.274    22224679.823    22224684.570
        39.700          36.000
   -586986.283 3   -457392.479 2  24385886.141    24385882.812    24385884.939
        18.600          13.900
  -2305522.442 3  -1796509.989 2  24330645.962    24330643.574    24330645.034
        23.000          17.800
 -13477647.806 6 -10502053.258 6  22116553.736    22116550.270    22116553.236
        40.200          37.700
  -8895832.156 5  -6931807.970 4  22794241.260    22794237.954    22794240.586
        30.200          27.100
 08  1  1  1 49  0.0000000  0 10G14G21G 9G18G24G22G 3G32G15G26
  -3394310.701 3  -2644915.646 3  24145185.669    24145182.010    24145184.080
        21.600          19.900
 -22382752.403 7 -17441101.020 6  20767700.028    20767695.709    20767698.961
        45.900          41.200
 -19436987.422 7 -15145698.919 6  21039214.922    21039211.604    21039213.817
        44.300          40.700
 -16847948.236 7 -13128268.066 8  20496275.211    20496270.799    20496274.157
        43.300          48.900
  -5956236.127 4  -4641219.366 4  23428828.360    23428827.567    23428827.831
        28.800          24.900
 -13124647.694 6 -10226995.366 6  22210628.471    22210623.020    22210627.747
        39.700          36.200
   -554566.184 3   -432130.087 2  24392055.003    24392051.706    24392054.300
        19.300          15.100
  -2388182.676 3  -1860920.532 3  24314917.296    24314913.882    24314915.889
        23.400          19.300
 -13397723.993 6 -10439774.969 6  22131762.861    22131759.279    22131762.474
        40.200          37.700
  -8789675.684 5  -6849088.643 4  22814441.801    22814438.939    22814441.343
        30.400          27.400
 08  1  1  1 49 30.0000000  0 10G14G21G 9G18G24G22G 3G32G15G26
  -3490483.834 3  -2719855.739 3  24126883.983    24126880.780    24126882.769
        20.500          21.100
 -22325121.630 7 -17396193.939 6  20778666.788    20778662.509    20778665.782
        46.100          41.100
 -19503543.538 7 -15197560.798 6  21026549.285    21026546.565    21026548.414
        44.700          40.800
 -16868751.570 7 -13144478.453 8  20492316.633    20492312.108    20492315.570
        43.600          49.000
  -5853245.661 4  -4560967.078 4  23448427.426    23448425.815    23448426.125
        27.400          25.300
 -13198360.841 6 -10284434.181 6  22196601.346    22196595.891    22196600.594
        39.500          36.500
   -521670.133 3   -406496.827 2  24398315.303    24398312.012    24398314.246
        21.600          16.100
  -2470805.511 4  -1925301.925 3  24299194.449    24299191.231    24299193.279
        24.900          20.500
 -13317587.846 6 -10377331.216 6  22147011.757    22147008.719    22147011.676
        39.900          37.900
  -8683379.245 4  -6766260.256 4  22834670.054    22834666.682    22834669.361
        29.700          27.400
 08  1  1  1 50  0.0000000  0 10G14G21G 9G18G24G22G 3G32G15G26
  -3586491.671 3  -2794667.012 2  24108613.904    24108611.084    24108613.269
        19.900          17.000
 -22266961.938 7 -17350874.719 6  20789734.197    20789729.990    20789733.082
        46.000          41.100
 -19569520.478 7 -15248971.382 6  21013994.020    21013991.547    21013993.314
        44.900          41.000
 -16889234.033 7 -13160438.814 8  20488418.775    20488414.490    20488417.792
        43.600          49.100
  -5750075.496 4  -4480574.789 4  23468059.967    23468058.702    23468058.812
        27.600          26.200
 -13271917.390 6 -10341750.963 6  22182603.718    22182598.503    22182603.165
        40.300          36.300
   -488300.626 3   -380494.622 2  24404664.695    24404661.663    24404663.889
        21.600          13.900
  -2553390.156 4  -1989653.560 3  24283479.122    24283476.418    24283477.935
        25.300          23.000
 -13237241.425 6 -10314723.620 6  22162301.598    22162298.217    22162301.297
        40.200          37.700
  -8576945.079 4  -6683324.544 4  22854923.728    22854920.346    22854923.259
        29.900          27.600
 08  1  1  1 50 30.0000000  0 10G14G21G 9G18G24G22G 3G32G15G26
  -3682332.966 3  -2869348.475 2  24090376.129    24090372.794    24090374.963
        22.100          17.800
 -22208274.920 7 -17305144.593 6  20800901.805    20800897.694    20800900.849
        46.100          41.000
 -19634915.383 7 -15299928.428 6  21001549.537    21001547.262    21001548.921
        44.700          41.000
 -16909394.781 7 -13176148.483 8  20484582.284    20484577.982    20484581.233
        43.400          49.100
  -5646728.085 4  -4400044.361 4  23487726.794    23487725.099    23487725.569
        29.000          25.900
 -13345316.324 6 -10398944.937 5  22168636.722    22168631.179    22168636.012
        40.300          35.800
   -454459.546 3   -354124.960 2  24411104.832    24411101.715    24411103.783
        21.100          13.900
  -2635936.296 4  -2053975.191 3  24267770.619    24267768.303    24267769.460
        25.300          22.100
 -13156686.585 6 -10251953.605 6  22177630.833    22177627.238    22177630.387
        39.500          37.500
  -8470375.454 4  -6600283.281 4  22875203.151    22875199.696    22875202.541
        29.200          26.500
 08  1  1  1 51  0.0000000  0 11G14G21G 9G18G24G22G 3G32G15G19G26
  -3778006.681 4  -2943899.390 2  24072169.658    24072166.699    24072169.119
        24.200          17.000
 -22149062.360 7 -17259004.949 6  20812169.676    20812165.610    20812168.730
        46.100          41.000
 -19699725.783 7 -15350430.018 6  20989217.012    20989214.064    20989216.084
        44.700          41.000
 -16929232.663 7 -13191606.572 8  20480807.338    20480802.911    20480806.296
        43.400          48.900
  -5543204.937 4  -4319377.021 4  23507426.373    23507425.065    23507425.563
        27.600          25.900
 -13418556.711 6 -10456015.370 6  22154699.591    22154694.005    22154698.858
        40.600          36.200
   -420148.051 3   -327388.712 1  24417634.596    24417630.916    24417633.322
        23.400           9.000
  -2718443.419 4  -2118266.430 3  24252070.096    24252067.335    24252069.079
        26.800          23.400
 -13075924.759 6 -10189022.320 6  22192999.410    22192995.506    22192998.970
        39.800          37.200
    -53108.384 4    -41382.926 2  24792436.214    24792430.262    24792434.191
        24.900          17.000
  -8363672.608 4  -6517138.210 4  22895507.863    22895504.699    22895507.122
        28.400          26.500
 08  1  1  1 51 30.0000000  0 11G14G21G 9G18G24G22G 3G32G15G19G26
  -3873512.150 4  -3018319.240 2  24053996.063    24053992.649    24053995.238
        25.600          15.100
 -22089325.598 7 -17212456.844 6  20823537.200    20823533.135    20823536.257
        46.000          40.800
 -19763948.894 7 -15400473.993 6  20976995.668    20976992.779    20976994.898
        45.200          41.000
 -16948746.981 7 -13206812.535 8  20477093.835    20477089.480    20477092.754
        43.400          49.100
  -5439508.134 4  -4238574.363 4  23527159.811    23527158.223    23527158.390
        27.900          26.800
 -13491637.284 6 -10512961.268 6  22140792.609    22140787.097    22140792.013
        40.500          36.400
   -385368.094 3   -300287.471 2  24424252.168    24424249.356    24424251.482
        21.600          12.600
  -2800910.961 4  -2182526.834 3  24236376.961    24236374.311    24236375.967
        25.900          23.000
 -12994957.966 6 -10125931.316 6  22208406.641    22208403.011    22208406.338
        39.600          37.200
    -83038.634 3    -64705.195 2  24786740.065    24786734.361    24786738.044
        19.900          16.100
  -8256838.903 4  -6433891.168 4  22915837.522    22915834.281    22915837.049
        29.700          25.300
 08  1  1  1 52  0.0000000  0 11G14G21G 9G18G24G22G 3G32G15G19G26
  -3968848.018 4  -3092606.917 2  24035854.910    24035850.296    24035853.595
        25.900          12.600
 -22029066.242 7 -17165501.518 6  20835004.280    20835000.091    20835003.269
        45.700          40.700
 -19827582.521 7 -15450058.610 6  20964886.535    20964883.767    20964885.729
        45.100          41.300
 -16967936.746 7 -13221765.595 8  20473442.146    20473437.787    20473441.122
        43.600          49.100
  -5335639.879 4  -4157638.096 4  23546924.506    23546923.278    23546923.638
        26.200          25.300
 -13564556.756 6 -10569781.633 6  22126916.817    22126911.221    22126916.022
        40.600          36.800
   -350121.839 4   -272822.862 2  24430960.070    24430956.411    24430958.900
        24.600          12.600
  -2883338.445 4  -2246755.995 3  24220691.319    24220688.982    24220690.370
        24.600          23.400
 -12913787.877 6 -10062681.898 6  22223853.257    22223849.287    22223852.706
        39.500          37.100
   -112448.946 2    -87622.353 2  24781143.538    24781138.142    24781141.853
        16.100          16.100
  -8149876.547 4  -6350543.873 4  22936192.011    22936188.776    22936191.299
        29.900          24.900
 08  1  1  1 52 30.0000000  0 11G14G21G 9G18G24G22G 3G32G15G19G26
  -4064013.365 3  -3166761.725 2  24017744.070    24017741.182    24017743.676
        23.400          13.900
 -21968285.843 7 -17118140.187 6  20846570.221    20846566.246    20846569.269
        45.600          40.600
 -19890623.909 7 -15499181.731 6  20952890.186    20952887.342    20952889.433
        45.100          41.100
 -16986800.991 7 -13236465.005 8  20469852.508    20469847.990    20469851.457
        43.500          49.100
  -5231602.410 4  -4076569.966 3  23566722.120    23566721.005    23566721.261
        27.600          23.000
 -13637314.785 6 -10626476.195 6  22113070.978    22113065.880    22113070.500
        40.600          36.800
   -314411.094 4   -244996.319 2  24437755.680    24437751.993    24437754.505
        24.200          13.900
  -2965725.256 3  -2310953.484 3  24205014.108    24205011.062    24205013.015
        23.400          23.000
 -12832416.252 6  -9999275.438 6  22239337.666    22239333.742    22239337.086
        39.300          37.100
   -141338.730 3   -110133.871 2  24775646.456    24775640.584    24775644.714
        20.500          16.100
  -8042787.611 4  -6267097.965 4  22956570.293    22956567.575    22956569.504
        28.800          27.400
 08  1  1  1 53  0.0000000  0 11G14G21G 9G18G24G22G 3G32G15G19G26
  -4159007.145 4  -3240782.836 2  23999668.160    23999664.516    23999667.336
        25.300          16.100
 -21906986.131 7 -17070374.198 6  20858235.198    20858231.209    20858234.237
        45.600          40.600
 -19953070.741 7 -15547841.577 6  20941006.780    20941004.059    20941006.162
        45.500          41.200
 -17005339.032 7 -13250910.228 8  20466324.723    20466320.308    20466323.743
        43.400          49.100
  -5127397.552 4  -3995371.409 4  23586551.505    23586550.673    23586550.690
        26.500          24.200
 -13709910.053 6 -10683043.932 6  22099256.851    22099251.304    22099256.086
        40.500          36.800
   -278237.687 3   -216809.237 2  24444639.236    24444635.844    24444638.010
        23.800          16.100
  -3048070.880 3  -2375118.882 3  24189344.160    24189341.019    24189342.877
        21.600          20.500
 -12750844.951 6  -9935713.384 6  22254860.208    22254856.244    22254859.710
        39.400          37.000
   -169707.091 3   -132239.073 2  24770248.146    24770241.585    24770246.630
        23.400          15.100
  -7935574.381 5  -6183555.187 4  22976972.258    22976969.216    22976971.954
        30.400          25.900
 08  1  1  1 53 30.0000000  0 11G14G21G 9G18G24G22G 3G32G15G19G26
  -4253828.502 4  -3314669.574 3  23981624.029    23981620.475    23981623.057
        24.200          19.300
 -21845168.583 7 -17022204.700 6  20869998.939    20869994.742    20869997.897
        45.600          40.400
 -20014920.829 7 -15596036.427 6  20929237.650    20929234.324    20929236.578
        45.500          41.200
 -17023550.112 7 -13265100.675 8  20462859.307    20462854.903    20462858.254
        43.500          49.100
  -5023027.712 4  -3914044.294 3  23606412.069    23606411.511    23606411.763
        26.800          23.400
 -13782341.576 6 -10739484.077 6  22085473.511    22085467.859    22085472.862
        40.800          36.400
   -241604.040 3   -188263.543 2  24451609.587    24451607.147    24451609.109
        22.100          17.000
  -3130374.810 3  -2439251.760 3  24173682.100    24173679.138    24173681.001
        23.400          21.100
 -12669075.991 6  -9871997.318 6  22270419.721    22270416.489    22270419.523
        38.900          37.300
   -197553.224 3   -153937.336 3  24764948.432    24764943.401    24764946.450
        20.500          20.500
  -7828239.160 4  -6099917.352 4  22997397.512    22997394.377    22997396.793
        29.500          26.800
 08  1  1  1 54  0.0000000  0 11G14G21G 9G18G24G22G 3G32G15G19G26
  -4348476.182 3  -3388420.989 3  23963612.894    23963609.690    23963611.860
        22.100          19.900
 -21782835.041 7 -16973633.129 6  20881860.470    20881856.264    20881859.532
        45.800          40.200
 -20076171.439 7 -15643764.156 6  20917581.621    20917578.800    20917580.846
        45.700          41.400
 -17041432.941 7 -13279035.343 8  20459456.349    20459451.893    20459455.340
        43.300          49.200
  -4918494.665 4  -3832589.981 3  23626305.139    23626303.423    23626303.992
        25.900          22.100
 -13854608.221 6 -10795795.749 6  22071721.801    22071715.992    22071720.928
        40.500          36.500
   -204511.448 3   -159360.249 2  24458668.159    24458665.820    24458667.243
        23.000          13.900
  -3212636.523 3  -2503351.763 3  24158027.772    24158025.204    24158026.526
        23.000          19.300
 -12587110.796 6  -9808128.339 6  22286017.040    22286013.872    22286016.937
        38.900          36.900
   -224876.490 3   -175228.203 3  24759749.412    24759743.849    24759747.581
        22.100          18.600
  -7720784.066 4  -6016186.115 4  23017845.753    23017842.506    23017845.234
        28.800          26.800
 08  1  1  1 54 30.0000000  0 11G14G21G 9G18G24G22G 3G32G15G19G26
  -4442949.243 3  -3462036.317 3  23945635.516    23945632.146    23945634.508
        23.400          23.000
 -21719986.726 7 -16924660.435 6  20893820.231    20893815.962    20893819.189
        45.500          40.100
 -20136820.289 7 -15691022.973 6  20906040.606    20906037.666    20906039.746
        45.600          41.600
 -17058986.961 7 -13292713.797 8  20456115.898    20456111.489    20456114.890
        43.400          49.300
  -4813800.613 4  -3751010.203 3  23646227.400    23646225.924    23646226.347
        26.800          23.000
 -13926708.083 6 -10851977.456 6  22058001.257    22057996.058    22058000.579
        40.400          37.200
   -166962.009 3   -130100.970 2  24465814.077    24465810.381    24465812.986
        23.400          15.100
  -3294855.441 4  -2567418.443 3  24142382.831    24142379.583    24142381.545
        26.200          21.600
 -12504951.061 6  -9744107.756 6  22301652.176    22301648.406    22301651.605
        38.800          36.900
   -251676.308 3   -196111.183 3  24754649.752    24754644.251    24754648.366
        23.400          19.300
  -7613211.148 4  -5932363.067 4  23038315.818    23038313.016    23038315.368
        28.400          26.500
 08  1  1  1 55  0.0000000  0 11G14G21G 9G18G24G22G 3G32G15G19G26
  -4537246.716 3  -3535514.809 3  23927690.668    23927688.036    23927689.826
        21.600          21.600
 -21656625.288 7 -16875287.911 6  20905877.580    20905873.381    20905876.450
        45.600          40.000
 -20196865.155 7 -15737811.153 6  20894613.962    20894611.500    20894613.408
        45.700          41.800
 -17076211.101 7 -13306135.201 8  20452838.151    20452833.930    20452837.218
        43.600          49.300
  -4708947.641 4  -3669306.640 4  23666178.718    23666179.306    23666178.897
        25.600          24.900
 -13998641.114 6 -10908029.156 6  22044312.771    22044307.752    22044312.163
        41.300          37.500
   -128957.918 4   -100487.394 1  24473046.169    24473042.841    24473045.136
        25.300           9.000
  -3377030.919 4  -2631451.264 3  24126745.608    24126741.518    24126744.144
        27.400          19.300
 -12422598.603 6  -9679937.017 6  22317322.780    22317319.635    22317322.408
        38.600          36.600
   -277951.833 3   -216585.609 3  24749649.672    24749644.091    24749647.979
        22.600          19.900
  -7505522.644 4  -5848449.961 4  23058807.839    23058805.226    23058807.475
        27.400          25.600
 08  1  1  1 55 30.0000000  0 11G14G21G 9G18G24G22G 3G32G15G19G26
  -4631367.583 3  -3608855.699 3  23909780.991    23909777.493    23909779.383
        20.500          21.600
 -21592752.810 7 -16825517.172 6  20918032.110    20918027.961    20918031.035
        45.400          39.900
 -20256303.039 7 -15784126.357 6  20883303.962    20883300.776    20883303.024
        45.600          41.600
 -17093104.451 7 -13319298.846 8  20449623.590    20449619.226    20449622.610
        43.500          49.400
  -4603937.695 4  -3587480.747 4  23686163.341    23686162.030    23686161.986
        24.600          25.900
 -14070406.201 6 -10963949.996 6  22030656.539    22030651.148    22030655.871
        41.200          37.300
    -90501.017 4    -70520.973 2  24480363.887    24480360.973    24480363.049
        25.600          16.100
  -3459162.578 4  -2695449.964 3  24111115.948    24111112.830    24111115.038
        27.900          19.300
 -12340055.376 6  -9615617.618 6  22333030.742    22333026.905    22333030.354
        38.800          36.200
   -303702.386 3   -236650.983 2  24744749.386    24744743.750    24744747.492
        23.800          17.800
  -7397720.814 4  -5764448.534 4  23079322.477    23079319.291    23079321.791
        28.600          26.200
 08  1  1  1 56  0.0000000  0 11G14G21G 9G18G24G22G 3G32G15G19G26
  -4725310.910 3  -3682058.270 3  23891902.985    23891900.531    23891902.258
        21.600          21.100
 -21528371.141 7 -16775349.656 6  20930283.438    20930279.271    20930282.506
        45.500          39.700
 -20315132.029 7 -15829967.118 6  20872108.735    20872105.972    20872108.039
        45.800          41.900
 -17109666.291 7 -13332204.176 8  20446471.926    20446467.531    20446470.938
        43.200          49.400
  -4498773.089 4  -3505534.355 4  23706175.754    23706174.092    23706174.510
        27.100          25.600
 -14142002.049 6 -11019738.969 6  22017032.222    22017026.778    22017031.553
        41.200          37.100
    -51593.301 4    -40203.314 2  24487768.257    24487764.961    24487767.213
        26.200          16.100
  -3541249.706 4  -2759413.953 3  24095495.351    24095492.490    24095493.989
        27.600          22.600
 -12257323.034 6  -9551150.856 6  22348773.967    22348770.425    22348773.482
        38.600          36.100
   -328927.413 3   -256306.876 3  24739949.457    24739943.622    24739947.596
        23.000          20.500
  -7289807.899 4  -5680360.547 4  23099857.979    23099854.460    23099857.155
        28.600          25.600
 08  1  1  1 56 30.0000000  0 11G14G21G 9G18G24G22G 3G32G15G19G26
  -4819075.742 4  -3755121.735 3  23874060.867    23874057.327    23874060.227
        24.200          20.500
 -21463481.872 7 -16724786.614 6  20942631.676    20942627.304    20942630.639
        45.600          39.700
 -20373350.237 7 -15875331.924 7  20861030.425    20861027.409    20861029.541
        45.700          42.100
 -17125895.548 7 -13344850.347 8  20443383.545    20443379.150    20443382.577
        43.300          49.400
  -4393456.077 4  -3423469.161 3  23726216.327    23726215.203    23726215.528
        27.900          23.000
 -14213427.285 6 -11075394.992 6  22003440.249    22003435.054    22003439.694
        41.100          37.400
    -12237.329 4     -9536.322 2  24495257.315    24495254.172    24495256.415
        25.900          15.100
  -3623291.756 4  -2823342.824 3  24079883.291    24079880.104    24079881.794
        28.400          23.000
 -12174403.337 6  -9486538.110 6  22364553.061    22364549.590    22364552.656
        38.500          36.200
   -353626.203 3   -275552.693 3  24735248.940    24735243.639    24735247.075
        23.400          19.300
  -7181785.819 4  -5596187.515 4  23120413.870    23120410.486    23120413.092
        28.100          24.900
 08  1  1  1 57  0.0000000  0 11G14G21G 9G18G24G22G 3G32G15G19G26
  -4912661.043 4  -3828045.324 2  23856252.659    23856248.489    23856251.466
        26.800          17.800
 -21398086.817 7 -16673829.448 6  20955075.916    20955071.647    20955074.910
        45.300          39.500
 -20430954.720 7 -15920218.513 7  20850068.542    20850065.632    20850067.703
        45.900          42.000
 -17141791.635 7 -13357236.908 8  20440358.664    20440354.274    20440357.639
        43.100          49.500
  -4287988.239 4  -3341286.464 4  23746286.283    23746285.082    23746285.248
        28.600          24.600
 -14284681.110 6 -11130917.447 6  21989881.421    21989876.018    21989880.828
        41.500          37.600
     27565.572 4     21478.906 2  24502831.502    24502828.531    24502830.536
        24.600          17.800
  -3705288.244 4  -2887236.171 4  24064279.343    24064276.868    24064278.352
        26.500          24.900
 -12091297.928 6  -9421780.650 5  22380367.567    22380363.614    22380367.117
        38.400          35.600
   -377798.095 3   -294387.900 2  24730649.232    24730643.625    24730647.963
        23.000          17.800
  -7073656.741 4  -5511931.097 4  23140989.750    23140986.517    23140989.221
        27.100          24.600
 08  1  1  1 57 30.0000000  0 11G14G21G 9G18G24G22G 3G32G15G19G26
  -5006066.024 4  -3900828.406 2  23838478.068    23838474.223    23838476.763
        24.900          12.600
 -21332187.790 7 -16622479.587 6  20967615.867    20967611.875    20967614.968
        45.300          39.300
 -20487943.465 7 -15964625.298 7  20839223.985    20839220.992    20839223.114
        45.800          42.000
 -17157353.836 7 -13369363.292 8  20437397.192    20437392.903    20437396.214
        43.200          49.500
  -4182371.834 4  -3258987.985 3  23766384.597    23766383.132    23766383.559
        26.200          22.600
 -14355762.556 6 -11186305.580 6  21976355.216    21976349.632    21976354.496
        41.500          37.600
     67813.116 3     52840.618 3  24510490.803    24510486.985    24510489.552
        22.100          18.600
  -3787238.550 4  -2951093.532 4  24048685.227    24048682.073    24048683.861
        24.600          25.300
 -12008008.534 6  -9356879.821 6  22396216.925    22396213.327    22396216.520
        37.800          36.200
   -401442.513 4   -312812.154 2  24726150.237    24726144.501    24726148.348
        24.200          16.100
  -6965422.805 4  -5427592.957 3  23161586.278    23161582.807    23161585.679
        28.800          23.800
 08  1  1  1 58  0.0000000  0 11G14G21G 9G18G24G22G 3G32G15G19G26
  -5099289.381 4  -3973469.978 2  23820738.264    23820734.478    23820737.305
        25.600          17.800
 -21265785.974 7 -16570737.932 6  20980251.985    20980247.779    20980250.877
        45.200          39.300
 -20544313.959 7 -16008550.337 7  20828497.050    20828494.088    20828496.105
        46.000          42.300
 -17172580.719 7 -13381228.394 8  20434499.639    20434495.246    20434498.680
        43.300          49.400
  -4076608.995 3  -3176575.412 3  23786511.026    23786509.269    23786509.390
        23.800          22.600
 -14426670.224 6 -11241558.301 6  21962861.896    21962856.160    21962861.176
        41.600          37.400
    108503.447 4     84547.352 3  24518233.438    24518230.440    24518232.275
        24.200          18.600
  -3869142.151 3  -3014914.493 4  24033098.389    24033096.622    24033097.558
        19.300          26.800
 -11924537.130 6  -9291837.174 6  22412101.208    22412097.544    22412100.681
        37.600          36.300
   -424559.133 3   -330825.074 3  24721750.935    24721745.615    24721749.402
        22.100          22.100
  -6857086.135 4  -5343174.779 4  23182201.981    23182198.735    23182201.302
        28.400          24.900
 08  1  1  1 58 30.0000000  0 11G14G21G 9G18G24G22G 3G32G15G19G26
  -5192330.529 4  -4045969.579 3  23803033.229    23803029.590    23803032.219
        24.600          19.900
 -21198883.753 7 -16518606.357 6  20992983.272    20992978.843    20992982.199
        45.500          39.300
 -20600064.308 7 -16051992.136 7  20817887.912    20817885.065    20817887.164
        46.000          42.300
 -17187471.581 7 -13392831.663 8  20431666.114    20431661.613    20431665.066
        43.100          49.500
  -3970701.957 3  -3094050.478 3  23806662.892    23806662.694    23806662.418
        23.000          22.100
 -14497403.588 6 -11296675.203 6  21949401.799    21949396.028    21949401.146
        41.900          37.500
    149634.030 3    116597.136 3  24526060.080    24526057.618    24526059.396
        22.600          19.900
  -3950998.415 3  -3078698.520 4  24017522.403    24017519.822    24017520.887
        21.100          26.800
 -11840885.343 6  -9226653.964 6  22428019.615    22428015.989    22428019.088
        38.100          36.300
   -447147.328 4   -348426.267 3  24717452.869    24717447.577    24717451.058
        24.900          23.000
  -6748648.756 4  -5258678.131 3  23202837.292    23202833.273    23202836.706
        28.100          22.600
 08  1  1  1 59  0.0000000  0 11G14G21G 9G18G24G22G 3G32G15G19G26
  -5285188.402 4  -4118326.332 3  23785362.124    23785359.310    23785361.542
        24.200          19.300
 -21131483.040 7 -16466086.339 6  21005809.083    21005804.786    21005808.061
        45.500          39.000
 -20655192.287 7 -16094948.981 7  20807397.526    20807394.575    20807396.654
        46.100          42.300
 -17202025.565 7 -13404172.426 8  20428896.382    20428892.147    20428895.452
        43.100          49.500
  -3864652.770 3  -3011414.791 3  23826843.936    23826843.431    23826843.060
        22.100          23.800
 -14567961.131 6 -11351655.107 6  21935974.914    21935969.530    21935974.283
        41.600          38.000
    191202.333 3    148987.992 3  24533970.556    24533967.877    24533969.327
        22.100          19.300
  -4032806.737 3  -3142445.230 4  24001954.488    24001952.263    24001953.233
        22.600          26.500
 -11757054.829 6  -9161331.484 6  22443971.814    22443968.263    22443971.374
        38.100          36.100
   -469206.451 3   -365615.237 3  24713255.294    24713249.093    24713253.277
        23.400          21.100
  -6640112.910 4  -5174104.725 3  23223491.467    23223487.312    23223490.570
        28.600          23.400
 08  1  1  1 59 30.0000000  0 11G14G21G 9G18G24G22G 3G32G15G19G26
  -5377862.039 3  -4190539.514 3  23767727.219    23767723.592    23767726.194
        23.000          20.500
 -21063585.471 7 -16413179.165 6  21018729.346    21018725.317    21018728.437
        45.300          39.000
 -20709695.706 7 -16137419.160 7  20797025.581    20797022.886    20797024.882
        46.000          42.300
 -17216242.138 7 -13415250.274 8  20426191.002    20426186.824    20426190.060
        42.900          49.500
  -3758463.662 4  -2928670.086 3  23847051.674    23847050.576    23847050.380
        24.200          23.400
 -14638341.807 6 -11406497.183 6  21922581.721    21922576.577    21922581.235
        41.900          38.200
    233207.211 3    181719.051 3  24541963.570    24541960.865    24541962.721
        22.100          18.600
  -4114566.472 4  -3206154.087 4  23986396.515    23986393.820    23986395.366
        26.200          25.300
 -11673047.422 6  -9095871.176 5  22459957.755    22459954.410    22459957.454
        38.000          35.700
   -490736.027 3   -382391.511 3  24709157.971    24709152.885    24709156.529
        23.000          23.000
  -6531480.707 4  -5089456.259 3  23244162.369    23244159.343    23244162.166
        27.600          23.800
 08  1  1  2  0  0.0000000  0 11G14G21G 9G18G24G22G 3G32G15G19G26
  -5470350.237 4  -4262608.195 3  23750127.802    23750123.865    23750126.658
        25.900          20.500
 -20995192.773 7 -16359886.179 6  21031744.087    21031740.071    21031743.115
        44.900          38.900
 -20763572.181 7 -16179400.809 7  20786773.303    20786770.520    20786772.395
        45.800          42.400
 -17230120.006 7 -13426064.199 8  20423550.271    20423545.936    20423549.294
        43.200          49.600
  -3652136.570 4  -2845817.840 3  23867284.452    23867284.074    23867283.790
        26.200          23.400
 -14708544.414 6 -11461200.505 6  21909222.929    21909217.468    21909222.253
        41.900          38.300
    275646.106 3    214788.316 2  24550039.535    24550036.828    24550038.730
        23.000          16.100
  -4196277.154 4  -3269824.751 3  23970847.566    23970844.601    23970846.389
        29.000          23.400
 -11588864.539 6  -9030274.126 5  22475977.408    22475973.949    22475977.039
        37.800          35.500
   -511735.658 3   -398754.885 3  24705162.249    24705156.543    24705160.296
        23.800          22.600
  -6422754.057 4  -5004734.197 3  23264852.440    23264849.288    23264851.714
        27.100          23.800
 08  1  1  2  0 30.0000000  0 11G14G21G 9G18G24G22G 3G32G15G19G26
  -5562652.616 4  -4334532.097 3  23732563.026    23732559.609    23732562.108
        25.900          22.100
 -20926307.105 7 -16306209.056 6  21044852.725    21044848.544    21044851.639
        44.900          38.900
 -20816819.938 7 -16220892.536 7  20776640.374    20776637.671    20776639.634
        45.900          42.300
 -17243658.376 7 -13436613.577 8  20420974.212    20420969.623    20420973.133
        43.100          49.600
  -3545673.756 4  -2762859.838 3  23887544.111    23887543.241    23887543.251
        25.300          22.600
 -14778567.622 7 -11515764.037 6  21895897.900    21895892.448    21895897.241
        42.200          38.100
    318517.168 3    248194.315 3  24558197.783    24558194.762    24558196.764
        22.600          18.600
  -4277937.974 4  -3333456.548 3  23955307.808    23955305.102    23955306.851
        29.900          22.100
 -11504507.845 6  -8964541.633 5  22492029.940    22492026.361    22492029.528
        37.400          35.600
   -532205.108 4   -414705.101 3  24701266.757    24701261.358    24701264.968
        25.600          21.600
  -6313935.000 4  -4919940.143 4  23285560.092    23285557.049    23285559.527
        26.500          25.900
 08  1  1  2  1  0.0000000  0 11G14G21G 9G18G24G22G 3G32G15G19G26
  -5654767.667 4  -4406310.042 3  23715034.153    23715030.656    23715033.134
        26.200          23.800
 -20856930.292 7 -16252149.228 6  21058054.690    21058050.451    21058053.660
        44.700          38.400
 -20869436.695 7 -16261892.585 7  20766627.892    20766625.053    20766627.120
        46.300          42.700
 -17256856.467 7 -13446897.804 8  20418462.439    20418458.101    20418461.474
        43.100          49.500
  -3439077.120 4  -2679797.565 3  23907828.912    23907827.779    23907828.125
        25.300          21.600
 -14848410.808 7 -11570187.294 6  21882607.211    21882601.689    21882606.538
        42.200          38.200
    361817.915 3    281935.139 3  24566437.462    24566434.904    24566436.578
        20.500          18.600
  -4359548.450 5  -3397049.141 3  23939778.254    23939775.000    23939777.029
        30.600          22.600
 -11419979.519 6  -8898675.410 5  22508115.316    22508111.458    22508114.904
        37.600          35.200
   -552143.696 3   -430241.681 3  24697472.631    24697467.270    24697470.788
        23.000          22.100
  -6205025.661 4  -4835075.719 3  23306284.373    23306281.419    23306283.927
        25.900          23.800
 08  1  1  2  1 30.0000000  0 11G14G21G 9G18G24G22G 3G32G15G19G26
  -5746694.621 4  -4477941.414 3  23697540.762    23697537.467    23697540.094
        25.600          22.600
 -20787064.065 7 -16197708.036 6  21071349.647    21071345.524    21071348.645
        44.600          38.700
 -20921420.251 7 -16302399.235 7  20756735.744    20756732.860    20756735.086
        46.500          42.600
 -17269713.589 7 -13456916.342 8  20416015.960    20416011.510    20416014.934
        43.200          49.600
  -3332348.776 4  -2596632.679 3  23928139.445    23928137.559    23928138.122
        25.900          21.100
 -14918072.754 7 -11624469.327 6  21869351.119    21869345.509    21869350.410
        42.400          38.400
    405546.147 3    316009.071 3  24574758.244    24574755.792    24574757.669
        19.300          19.900
  -4441108.006 4  -3460602.047 3  23924258.089    23924254.413    23924256.940
        29.700          19.300
 -11335280.753 6  -8832676.369 5  22524232.842    22524228.988    22524232.499
        37.800          34.600
   -571550.984 3   -445364.218 3  24693779.552    24693774.143    24693777.593
        23.800          22.600
  -6096028.011 4  -4750142.490 3  23327025.857    23327023.056    23327025.551
        25.900          23.400
 08  1  1  2  2  0.0000000  0 11G14G21G 9G18G24G22G 3G32G15G19G26
  -5838432.569 3  -4549425.503 3  23680083.663    23680080.156    23680082.399
        23.400          20.500
 -20716710.566 7 -16142887.154 6  21084737.744    21084733.370    21084736.626
        44.600          38.500
 -20972768.713 7 -16342410.995 7  20746964.708    20746961.527    20746963.902
        46.500          42.700
 -17282228.558 7 -13466668.268 8  20413634.457    20413629.977    20413633.418
        43.300          49.600
  -3225490.714 4  -2513366.682 3  23948472.976    23948472.091    23948472.494
        26.200          19.900
 -14987552.237 7 -11678609.179 6  21856129.431    21856123.931    21856128.778
        42.100          38.400
    449700.094 3    350414.698 3  24583160.369    24583158.285    24583159.615
        21.100          20.500
  -4522615.967 5  -3524114.763 3  23908747.329    23908743.865    23908746.282
        30.600          19.900
 -11250413.183 6  -8766545.800 5  22540383.098    22540378.974    22540382.423
        37.600          34.900
   -590426.674 4   -460072.594 3  24690187.584    24690182.315    24690186.205
        25.900          22.600
  -5986944.138 4  -4665142.058 3  23347784.939    23347780.967    23347784.054
        26.800          23.000
 08  1  1  2  2 30.0000000  0 11G14G21G 9G18G24G22G 3G32G15G19G26
  -5929980.624 3  -4620761.612 2  23662662.192    23662658.832    23662661.126
        23.800          17.800
 -20645871.388 7 -16087687.812 6  21098217.787    21098213.645    21098216.803
        44.400          38.000
 -21023480.069 7 -16381926.320 7  20737314.750    20737311.511    20737313.794
        46.700          42.600
 -17294400.690 7 -13476153.048 8  20411318.155    20411313.695    20411317.170
        43.300          49.600
  -3118505.277 3  -2430001.438 3  23968832.949    23968830.788    23968831.376
        23.400          19.300
 -15056848.014 7 -11732605.881 6  21842942.866    21842937.363    21842942.145
        42.400          38.400
    494277.021 3    385149.938 3  24591643.607    24591640.614    24591642.938
        21.100          19.300
  -4604071.618 4  -3587586.708 3  23893246.555    23893244.185    23893245.240
        27.100          21.600
 -11165378.614 6  -8700285.088 5  22556563.973    22556560.370    22556563.883
        37.700          34.800
   -608770.401 4   -474366.393 3  24686697.246    24686691.452    24686695.626
        25.900          19.900
  -5877775.954 4  -4580075.951 3  23368558.853    23368555.383    23368557.963
        27.100          23.400
 08  1  1  2  3  0.0000000  0 11G14G21G 9G18G24G22G 3G32G15G19G26
  -6021338.115 4  -4691949.228 3  23645277.415    23645274.385    23645276.724
        24.900          21.600
 -20574548.781 7 -16032111.782 6  21111789.961    21111785.984    21111789.082
        44.400          38.000
 -21073552.116 7 -16420943.481 7  20727786.360    20727783.190    20727785.463
        46.900          43.100
 -17306229.078 7 -13485369.974 8  20409067.221    20409062.861    20409066.244
        43.300          49.700
  -3011394.687 4  -2346538.668 3  23989213.764    23989213.283    23989213.100
        24.200          21.100
 -15125958.851 7 -11786458.480 6  21829791.802    21829786.103    21829790.873
        42.000          38.400
    539274.853 2    420213.157 3  24600206.197    24600203.884    24600205.274
        17.000          19.300
  -4685474.484 4  -3651017.501 3  23877755.782    23877753.342    23877754.563
        26.200          21.600
 -11080178.770 6  -8633895.602 5  22572776.904    22572773.447    22572776.668
        37.400          34.500
   -626581.868 4   -488245.467 3  24683307.479    24683302.037    24683305.902
        25.600          22.100
  -5768525.575 4  -4494945.809 3  23389347.970    23389344.917    23389347.331
        25.900          23.400
 08  1  1  2  3 30.0000000  0 11G14G21G 9G18G24G22G 3G32G15G19G26
  -6112503.839 3  -4762987.412 3  23627929.697    23627926.188    23627928.637
        23.800          23.000
 -20502744.689 7 -15976160.562 6  21125454.269    21125449.929    21125453.101
        44.400          38.100
 -21122982.980 7 -16459461.007 7  20718379.796    20718376.751    20718379.040
        46.700          42.800
 -17317712.780 7 -13494318.311 8  20406881.952    20406877.576    20406880.981
        43.300          49.700
  -2904160.771 3  -2262979.830 3  24009620.087    24009619.437    24009619.371
        23.800          22.100
 -15194883.881 7 -11840166.289 6  21816675.410    21816670.052    21816674.791
        42.600          38.600
    584691.263 3    455602.541 3  24608848.540    24608846.438    24608847.871
        18.600          19.300
  -4766823.853 4  -3714406.596 3  23862275.403    23862272.871    23862274.641
        25.600          23.400
 -10994815.433 6  -8567378.719 5  22589021.016    22589017.460    22589020.791
        37.200          34.400
   -643860.680 4   -501709.453 3  24680019.457    24680013.687    24680017.678
        24.900          20.500
  -5659194.844 4  -4409753.028 3  23410152.873    23410149.446    23410152.495
        27.100          21.100
 08  1  1  2  4  0.0000000  0 11G14G21G 9G18G24G22G 3G32G15G19G26
  -6203476.945 4  -4833875.543 4  23610618.067    23610614.558    23610617.231
        27.600          24.600
 -20430461.228 7 -15919835.816 6  21139209.124    21139205.052    21139208.151
        44.500          37.900
 -21171770.848 7 -16497477.496 7  20709095.843    20709092.623    20709094.960
        46.800          43.000
 -17328851.080 7 -13502997.507 8  20404762.404    20404757.993    20404761.389
        43.100          49.600
  -2796805.758 3  -2179326.631 3  24030049.019    24030048.513    24030048.274
        23.400          23.400
 -15263621.820 7 -11893728.314 6  21803595.123    21803589.698    21803594.426
        42.800          38.900
    630524.404 3    491316.659 2  24617570.681    24617568.560    24617569.856
        21.100          17.800
  -4848119.133 3  -3777753.531 4  23846805.942    23846803.142    23846804.859
        23.800          24.900
 -10909290.052 6  -8500735.557 5  22605296.511    22605292.475    22605295.904
        36.900          34.500
   -660606.624 4   -514758.254 3  24676832.678    24676826.974    24676830.957
        26.500          22.100
  -5549786.004 4  -4324499.378 3  23430972.992    23430969.566    23430972.199
        25.300          23.000
 08  1  1  2  4 30.0000000  0 11G14G21G 9G18G24G22G 3G32G15G19G26
  -6294256.422 4  -4904612.783 4  23593343.230    23593339.733    23593342.260
        28.100          24.600
 -20357700.006 7 -15863138.775 6  21153055.201    21153051.102    21153054.158
        44.300          37.800
 -21219913.758 7 -16534991.432 7  20699934.479    20699931.292    20699933.525
        46.600          43.000
 -17339643.051 7 -13511406.837 8  20402708.731    20402704.340    20402707.718
        43.100          49.700
  -2689331.869 3  -2095580.789 3  24050500.340    24050499.708    24050499.864
        23.400          19.300
 -15332171.744 7 -11947143.838 6  21790550.702    21790545.065    21790549.970
        42.900          38.600
    676771.556 3    527353.378 2  24626371.583    24626368.797    24626370.698
        21.100          17.000
  -4929359.628 4  -3841057.775 4  23831346.567    23831343.375    23831345.447
        25.900          25.600
 -10823604.613 6  -8433967.688 5  22621601.492    22621597.643    22621601.128
        36.500          33.900
   -676819.445 4   -527391.628 3  24673748.055    24673742.268    24673746.037
        27.100          23.800
  -5440300.833 4  -4239186.259 3  23451806.328    23451804.219    23451806.238
        24.600          23.800
 08  1  1  2  5  0.0000000  0 11G14G21G 9G18G24G22G 3G32G15G19G26
  -6384841.525 4  -4975198.553 4  23576105.591    23576102.169    23576104.646
        29.500          24.200
 -20284463.451 7 -15806071.354 6  21166991.566    21166987.515    21166990.576
        44.300          37.900
 -21267409.817 7 -16572001.325 7  20690896.290    20690893.180    20690895.377
        46.700          43.100
 -17350087.956 7 -13519545.724 8  20400720.934    20400716.715    20400720.061
        42.800          49.600
  -2581741.355 4  -2011744.045 3  24070975.057    24070973.250    24070974.035
        24.600          19.300
 -15400532.456 7 -12000411.923 6  21777541.960    21777536.510    21777541.343
        43.100          39.000
    723430.783 3    563711.215 2  24635250.072    24635247.473    24635249.245
        21.600          17.000
  -5010544.674 4  -3904318.834 4  23815897.357    23815894.242    23815896.023
        28.100          25.300
 -10737760.381 6  -8367076.079 5  22637937.344    22637933.574    22637936.794
        36.700          34.300
   -692498.852 4   -539609.349 3  24670764.159    24670758.553    24670762.107
        24.900          23.000
  -5330741.237 4  -4153815.179 4  23472655.534    23472652.790    23472655.120
        27.100          24.200
 08  1  1  2  5 30.0000000  0 11G14G21G 9G18G24G22G 3G32G15G19G26
  -6475231.358 4  -5045632.160 4  23558904.952    23558901.614    23558904.064
        29.700          25.300
 -20210753.517 7 -15748635.054 6  21181018.200    21181014.135    21181017.197
        44.100          38.000
 -21314257.000 7 -16608505.605 7  20681981.460    20681978.450    20681980.673
        47.000          43.200
 -17360184.946 7 -13527413.510 8  20398799.802    20398795.340    20398798.753
        42.800          49.700
  -2474036.027 3  -1927817.861 3  24091469.494    24091469.628    24091468.786
        20.500          21.100
 -15468702.451 7 -12053531.396 6  21764569.661    21764564.225    21764569.022
        43.100          39.100
    770499.374 3    600388.030 2  24644206.912    24644204.428    24644205.848
        21.100          12.600
  -5091673.584 4  -3967536.157 4  23800458.828    23800456.106    23800457.673
        28.600          24.200
 -10651758.866 5  -8300061.917 5  22654302.400    22654299.259    22654302.112
        35.900          34.400
   -707644.415 4   -551411.120 3  24667882.001    24667876.428    24667880.382
        26.200          22.600
  -5221109.378 4  -4068387.765 3  23493518.230    23493514.986    23493517.573
        27.100          23.000
 08  1  1  2  6  0.0000000  0 11G14G21G 9G18G24G22G 3G32G15G19G26
  -6565425.197 4  -5115913.039 3  23541741.345    23541738.227    23541740.637
        27.400          23.000
 -20136572.170 7 -15690831.435 6  21195134.339    21195130.396    21195133.368
        44.100          37.700
 -21360453.300 7 -16644502.715 7  20673190.566    20673187.551    20673189.804
        47.100          43.300
 -17369933.132 7 -13535009.503 8  20396944.666    20396940.394    20396943.732
        43.100          49.700
  -2366218.330 3  -1843804.120 3  24111988.077    24111986.124    24111986.557
        23.000          19.300
 -15536680.922 7 -12106501.628 6  21751633.568    21751628.326    21751632.961
        42.800          39.200
    817975.123 3    637382.104 2  24653241.396    24653238.974    24653240.467
        22.600          15.100
  -5172745.796 4  -4030709.301 4  23785031.342    23785028.732    23785030.285
        28.800          25.600
 -10565601.895 6  -8232926.612 5  22670697.490    22670694.086    22670697.421
        36.100          34.300
   -722256.322 4   -562796.993 3  24665101.389    24665095.700    24665099.568
        26.200          23.000
  -5111406.964 4  -3982905.343 3  23514393.672    23514390.679    23514393.065
        25.600          23.000
 08  1  1  2  6 30.0000000  0 11G14G21G 9G18G24G22G 3G32G15G19G26
  -6655421.974 4  -5186040.378 4  23524615.890    23524612.233    23524614.754
        26.200          24.900
 -20061921.462 7 -15632662.074 6  21209340.077    21209336.015    21209338.980
        44.000          37.600
 -21405997.242 7 -16679991.494 7  20664523.814    20664520.839    20664522.982
        47.000          43.400
 -17379331.579 7 -13542332.968 8  20395156.431    20395151.973    20395155.415
        43.100          49.800
  -2258289.983 3  -1759704.142 3  24132525.103    24132524.412    24132524.630
        23.800          18.600
 -15604466.301 7 -12159321.397 6  21738734.479    21738729.126    21738733.970
        43.100          39.100
    865856.052 3    674691.903 2  24662353.004    24662349.854    24662352.038
        23.400          13.900
  -5253760.702 5  -4093837.765 4  23769615.086    23769612.040    23769614.012
        30.400          26.200
 -10479291.324 5  -8165671.627 5  22687121.945    22687118.353    22687121.579
        35.600          33.900
   -736334.175 4   -573766.764 3  24662422.349    24662417.006    24662420.767
        25.300          22.100
  -5001635.932 3  -3897369.492 3  23535282.246    23535279.367    23535281.515
        22.600          23.400
 08  1  1  2  7  0.0000000  0 11G14G21G 9G18G24G22G 3G32G15G19G26
  -6745220.910 4  -5256013.567 3  23507527.244    23507523.751    23507526.169
        26.500          23.400
 -19986803.577 7 -15574128.681 6  21223634.611    21223630.425    21223633.440
        43.800          37.600
 -21450887.019 7 -16714970.528 7  20655981.775    20655978.558    20655980.765
        46.800          43.500
 -17388379.618 7 -13549383.391 8  20393434.537    20393430.143    20393433.606
        43.200          49.700
  -2150253.498 4  -1675519.881 3  24153084.313    24153083.304    24153083.516
        25.300          21.600
 -15672057.691 7 -12211990.013 6  21725872.734    21725866.902    21725871.996
        43.400          39.100
    914139.578 3    712315.428 2  24671541.300    24671538.756    24671540.220
        23.000          15.100
  -5334717.438 5  -4156920.937 4  23754209.537    23754206.443    23754208.292
        30.100          24.900
 -10392828.508 5  -8098298.006 5  22703575.884    22703572.035    22703575.302
        35.700          34.000
   -749877.753 3   -584320.154 3  24659845.199    24659839.571    24659843.433
        23.800          22.100
  -4891798.228 4  -3811781.679 3  23556183.926    23556180.387    23556183.227
        24.900          22.100
 08  1  1  2  7 30.0000000  0 11G14G21G 9G18G24G22G 3G32G15G19G26
  -6834820.961 4  -5325831.776 3  23490476.772    23490473.421    23490475.853
        25.600          21.600
 -19911220.609 7 -15515232.884 6  21238017.396    21238013.355    21238016.400
        43.800          37.200
 -21495120.827 7 -16749438.411 7  20647564.084    20647561.075    20647563.289
        47.000          43.300
 -17397076.184 7 -13556159.936 8  20391779.658    20391775.231    20391778.689
        43.100          49.800
  -2042110.845 4  -1591252.904 2  24173663.220    24173661.776    24173662.335
        24.600          17.000
 -15739453.818 7 -12264506.477 6  21713047.462    21713041.900    21713046.718
        43.200          39.300
    962823.658 3    750251.060 1  24680805.451    24680802.349    24680804.488
        21.600          11.000
  -5415615.355 5  -4219958.259 4  23738814.952    23738812.230    23738813.927
        30.400          25.600
 -10306215.005 5  -8030806.962 5  22720057.356    22720053.946    22720057.068
        35.900          33.900
   -762886.891 3   -594457.173 3  24657369.658    24657364.194    24657368.037
        23.800          23.000
  -4781895.866 4  -3726143.482 3  23577097.646    23577094.335    23577097.360
        26.500          21.100
 08  1  1  2  8  0.0000000  0 11G14G21G 9G18G24G22G 3G32G15G19G26
  -6924221.180 4  -5395494.273 3  23473464.918    23473461.024    23473463.838
        27.900          20.500
 -19835174.652 7 -15455976.313 6  21252488.463    21252484.401    21252487.442
        43.500          37.200
 -21538696.685 7 -16783393.610 7  20639271.663    20639268.867    20639271.107
        47.300          43.500
 -17405420.738 7 -13562662.188 8  20390191.501    20390187.335    20390190.562
        43.000          49.800
  -1933864.129 3  -1506904.805 3  24194260.463    24194260.695    24194260.565
        21.600          19.300
 -15806653.640 7 -12316869.965 6  21700259.597    21700254.251    21700258.871
        43.000          39.600
   1011905.685 3    788496.780 2  24690144.999    24690142.621    24690143.988
        19.900          13.900
  -5496453.833 4  -4282949.281 4  23723431.629    23723428.959    23723430.479
        29.700          25.600
 -10219452.424 5  -7963199.760 5  22736567.656    22736564.417    22736567.397
        35.500          34.300
   -775361.603 4   -604177.725 4  24654995.828    24654990.295    24654994.076
        25.300          24.200
  -4671930.747 4  -3640456.366 3  23598023.313    23598019.896    23598022.660
        25.300          20.500
 08  1  1  2  8 30.0000000  0 10G14G21G 9G18G24G22G32G15G19G26
  -7013420.857 4  -5465000.495 3  23456490.678    23456487.001    23456489.750
        28.600          21.100
 -19758667.912 7 -15396360.697 6  21267047.082    21267043.319    21267046.258
        43.900          36.900
 -21581613.312 7 -16816835.128 7  20631105.638    20631102.117    20631104.547
        47.300          43.400
 -17413412.405 7 -13568889.465 8  20388670.894    20388666.575    20388669.872
        42.900          49.800
  -1825515.417 3  -1422477.286 3  24214879.273    24214878.749    24214878.901
        22.600          19.900
 -15873655.964 7 -12369079.566 6  21687509.417    21687504.114    21687508.807
        43.000          39.800
  -5577232.262 4  -4345893.483 4  23708060.090    23708057.438    23708058.815
        28.600          25.600
 -10132542.447 5  -7895477.710 5  22753106.081    22753102.788    22753105.849
        35.700          34.000
   -787301.715 4   -613481.730 3  24652723.754    24652718.137    24652722.036
        26.800          20.500
  -4561904.577 4  -3554721.693 3  23618960.097    23618957.450    23618959.707
        24.200          22.100
 08  1  1  2  9  0.0000000  0 10G14G21G 9G18G24G22G32G15G19G26
  -7102419.427 4  -5534350.031 3  23439554.270    23439551.282    23439553.569
        27.600          21.100
 -19681702.585 7 -15336387.730 6  21281693.253    21281689.369    21281692.244
        43.600          36.800
 -21623869.042 7 -16849761.653 7  20623064.128    20623061.082    20623063.332
        47.300          43.500
 -17421050.180 7 -13574840.982 8  20387217.541    20387213.157    20387216.549
        43.200          49.800
  -1717067.088 3  -1337972.168 3  24235516.173    24235516.372    24235515.836
        20.500          23.000
 -15940459.431 7 -12421134.214 6  21674797.230    21674791.737    21674796.585
        43.500          39.700
  -5657949.738 4  -4408790.199 4  23692700.589    23692697.146    23692699.291
        28.800          25.300
 -10045486.584 5  -7827641.978 5  22769672.415    22769668.760    22769671.957
        35.200          33.200
   -798707.125 4   -622369.063 3  24650553.204    24650547.573    24650551.686
        25.300          21.100
  -4451819.427 3  -3468941.056 3  23639908.149    23639906.032    23639907.882
        23.000          21.600
 08  1  1  2  9 30.0000000  0 10G14G21G 9G18G24G22G32G15G19G26
  -7191215.849 4  -5603542.019 4  23422657.311    23422653.885    23422656.341
        27.600          24.200
 -19604280.374 7 -15276058.767 6  21296426.101    21296422.344    21296425.165
        43.300          36.800
 -21665461.717 7 -16882171.511 7  20615149.035    20615146.232    20615148.299
        47.000          43.600
 -17428333.270 7 -13580516.117 8  20385831.580    20385827.199    20385830.636
        43.200          49.900
  -1608521.317 3  -1253391.102 3  24256172.516    24256171.680    24256171.411
        20.500          21.600
 -16007062.550 7 -12473032.749 6  21662122.915    21662117.594    21662122.293
        43.400          39.500
  -5738605.690 5  -4471638.996 4  23677352.393    23677348.940    23677351.126
        30.600          25.900
  -9958286.493 5  -7759693.867 5  22786266.553    22786262.529    22786265.818
        35.100          33.600
   -809578.025 3   -630839.870 3  24648484.209    24648478.960    24648482.405
        23.000          20.500
  -4341676.926 4  -3383115.747 3  23660868.437    23660865.797    23660868.008
        24.900          23.000
 08  1  1  2 10  0.0000000  0 10G14G21G 9G18G24G22G32G15G19G26
  -7279809.166 4  -5672575.755 4  23405798.598    23405795.138    23405797.776
        27.900          24.900
 -19526403.989 7 -15215375.893 6  21311245.833    21311241.713    21311244.690
        43.300          36.700
 -21706389.934 7 -16914063.620 7  20607360.854    20607357.923    20607360.051
        47.300          43.600
 -17435260.916 7 -13585914.284 8  20384513.269    20384508.915    20384512.307
        43.100          49.800
  -1499880.009 3  -1168735.590 3  24276846.037    24276845.256    24276845.281
        20.500          19.900
 -16073464.517 7 -12524774.539 6  21649487.174    21649481.733    21649486.443
        43.300          39.700
  -5819199.498 4  -4534439.339 4  23662015.088    23662012.368    23662013.907
        28.600          26.200
  -9870943.893 5  -7691634.697 5  22802887.012    22802883.362    22802886.465
        35.800          33.600
   -819914.371 4   -638894.196 3  24646517.182    24646512.058    24646515.703
        24.600          21.600
  -4231479.060 3  -3297247.298 3  23681838.251    23681835.394    23681837.877
        23.000          22.100
 08  1  1  2 10 30.0000000  0 10G14G21G 9G18G24G22G32G15G19G26
  -7368198.651 4  -5741450.658 4  23388978.563    23388974.806    23388977.609
        27.100          24.600
 -19448075.562 7 -15154340.771 6  21326151.417    21326147.079    21326150.257
        43.200          36.200
 -21746652.160 7 -16945436.778 7  20599699.315    20599696.272    20599698.419
        47.100          43.700
 -17441832.009 7 -13591034.619 8  20383262.778    20383258.496    20383261.819
        43.100          49.800
  -1391145.352 3  -1084007.312 2  24297537.818    24297536.663    24297537.085
        19.300          17.000
 -16139664.158 7 -12576358.670 6  21636889.605    21636884.310    21636889.020
        43.300          39.800
  -5899730.374 4  -4597190.665 4  23646690.898    23646687.571    23646689.600
        28.100          25.600
  -9783460.134 5  -7623465.539 5  22819534.299    22819530.891    22819533.995
        35.300          33.100
   -829715.956 4   -646531.800 3  24644652.877    24644647.019    24644650.990
        27.100          23.400
  -4121227.664 4  -3211337.126 3  23702818.312    23702815.228    23702817.668
        24.900          19.900
 08  1  1  2 11  0.0000000  0 10G14G21G 9G18G24G22G32G15G19G26
  -7456383.138 4  -5810165.802 4  23372197.390    23372194.149    23372196.335
        26.500          25.300
 -19369296.978 7 -15092954.892 6  21341142.030    21341138.209    21341141.229
        43.200          36.400
 -21786246.738 7 -16976289.675 7  20592164.600    20592161.591    20592163.787
        47.400          43.600
 -17448046.225 7 -13595876.865 8  20382080.484    20382075.971    20382079.530
        43.200          49.800
  -1282319.598 3   -999208.050 2  24318248.041    24318245.510    24318246.110
        21.600          12.600
 -16205660.306 7 -12627784.237 6  21624331.004    21624325.654    21624330.432
        43.600          39.900
  -5980197.570 4  -4659892.365 4  23631378.132    23631375.512    23631376.982
        29.700          24.900
  -9695836.552 5  -7555187.436 5  22836208.618    22836205.019    22836208.279
        35.600          33.000
   -838983.002 4   -653752.873 3  24642888.971    24642883.442    24642887.005
        25.600          21.100
  -4010924.492 4  -3125386.611 3  23723808.415    23723805.514    23723807.907
        24.200          19.300
 08  1  1  2 11 30.0000000  0 10G14G21G 9G18G24G22G32G15G19G26
  -7544362.260 4  -5878720.932 4  23355456.182    23355452.255    23355454.973
        29.500          25.300
 -19290070.665 7 -15031220.124 6  21356218.765    21356214.425    21356217.541
        42.700          36.200
 -21825172.303 7 -17006621.266 7  20584757.376    20584754.234    20584756.516
        47.600          43.600
 -17453902.764 7 -13600440.405 8  20380966.263    20380961.442    20380965.126
        43.100          49.800
  -1173404.853 4   -914339.430 3  24338973.926    24338971.512    24338972.391
        24.600          18.600
 -16271451.569 7 -12679050.152 6  21611811.522    21611806.002    21611810.850
        43.500          40.100
  -6060600.360 4  -4722543.878 4  23616077.908    23616075.404    23616076.686
        27.900          26.200
  -9608075.074 5  -7486801.858 5  22852908.656    22852905.453    22852908.360
        34.600          32.100
   -847715.429 4   -660557.401 3  24641227.218    24641221.444    24641225.530
        24.900          19.900
  -3900571.395 4  -3039397.183 3  23744808.013    23744805.484    23744807.478
        24.900          22.100
