     2.10           OBSERVATION DATA    G (GPS)             RINEX VERSION / TYPE
teqc  2007Feb5      UNAVCO Archive Ops  20070222 10:18:25UTCPGM / RUN BY / DATE
Solaris 5.10|UltraSparc IIIi|cc -xarch=v9 SC5.8|=+-|*Sparc  COMMENT
BIT 2 OF LLI FLAGS DATA COLLECTED UNDER A/S CONDITION       COMMENT
ALAM                                                        MARKER NAME
                                                            MARKER NUMBER
Wernicke, Brian     CALTECH                                 OBSERVER / AGENCY
3847A24878          TRIMBLE 4000SSI     7.19b               REC # / TYPE / VERS
0220143802          TRM29659.00     SCIS                    ANT # / TYPE
 -2158287.5021 -4595239.5611  3849706.7364                  APPROX POSITION XYZ
        0.1283        0.0000        0.0000                  ANTENNA: DELTA H/E/N
     1     1                                                WAVELENGTH FACT L1/2
     7    L1    L2    C1    P2    P1    S1    S2            # / TYPES OF OBSERV
    30.0000                                                 INTERVAL
RINEX file created by UNAVCO GPS Archive.                   COMMENT
For more information contact archive@unavco.org             COMMENT
Monument ID: EJEHTC9Q-13478-1999a                           COMMENT
UNAVCO 4-char name:   ALAM                                  COMMENT
4-char name from Log or data file: ALAM                     COMMENT
Monument location: 37.35795833 -115.15845821 1090.0161      COMMENT
Visit ID: 53696                                             COMMENT
                                                            COMMENT
NOTICE: If using these data for scientific purposes,        COMMENT
please acknowledge: R.A. Bennett, B.P. Wernicke, and        COMMENT
J.L. Davis; see also:                                       COMMENT
    http://cfa-www.harvard.edu/space_geodesy/BARGEN/Data    COMMENT
                                                            COMMENT
End of DB comments                                          COMMENT
 SNR is mapped to RINEX snr flag value [1-9]                COMMENT
  L1: 3 -> 1; 8 -> 5; 40 -> 9                               COMMENT
  L2: 1 -> 1; 5 -> 5; 60 -> 9                               COMMENT
  2002    12    26     0     0   30.0000000     GPS         TIME OF FIRST OBS
                                                            END OF HEADER
 02 12 26  0  0 30.0000000  0  8G30G 4G10G 5G 9G24G 6G 7
  -4882307.22256  -3747851.26655  23119753.8984   23119760.4264
        13.5004         11.2504
    743902.41858    778123.62356  21445866.9534   21445871.6054
        31.0004         25.0004
  -3343364.22855  -2494481.57655  24055342.2034   24055352.0634
         8.2504          7.7504
  -8925531.28958  -3442062.66157  20849945.7814   20849950.7854
        34.0004         31.7504
   8899384.51556   6989679.81056  22838592.9144   22838599.4184
        19.7504         16.2504
  -8217568.01758  -6277293.77757  20585824.4694   20585829.9304
        33.5004         30.7504
    -17379.83253                  25433134.5704
         5.5004
  29417610.42755   3051777.96655  24179171.1094   24179179.4924
         8.2504          7.7504
 02 12 26  0  1  0.0000000  0  8G30G 4G10G 5G 9G24G 6G 7
  -4931179.17846  -3785933.12245  23110453.6954   23110460.2234
        14.0004         11.5004
    856420.01348    865799.68746  21467278.2734   21467283.1724
        30.7504         24.7504
  -3400636.48244  -2539108.93745  24044442.2894   24044452.4184
         7.7504          8.0004
  -8919553.69048  -3437404.72947  20851083.1644   20851088.2384
        34.0004         31.5004
   9026024.68146   7088360.40746  22862691.7814   22862698.5554
        19.5004         16.2504
  -8165351.06848  -6236605.21147  20595760.9304   20595766.4144
        33.2504         30.7504
    -48030.88242                  25427296.8364
         4.0004
  29533268.38645   3141901.00845  24201180.9614   24201186.2934
         9.5004          7.2504
 02 12 26  0  1 30.0000000  0  8G30G 4G10G 5G 9G24G 6G 7
  -4979883.38946  -3823884.29545  23101185.2974   23101191.3794
        14.2504         11.0004
    969319.88748    953773.63046  21488762.3134   21488767.0824
        31.2504         24.7504
  -3457854.25545  -2583693.79945  24033555.5704   24033567.3054
         9.0004          8.0004
  -8913144.12548  -3432410.19547  20852302.8054   20852307.8324
        34.0004         31.7504
   9152962.66246   7187273.05346  22886847.3054   22886854.0434
        19.0004         15.7504
  -8112629.11348  -6195523.13247  20605793.5944   20605798.9844
        33.2504         30.7504
    -11229.98253                  25421472.0004
         6.2504
  29648984.12845   3232069.13645  24223203.8444   24223209.9844
        10.0004          7.7504
 02 12 26  0  2  0.0000000  0  8G30G 4G10G 5G 9G24G 6G 7
  -5028424.11246  -3861708.04245  23091948.3984   23091955.2074
        14.2504         11.5004
   1082592.81548   1042038.27046  21510317.5634   21510322.1684
        31.2504         24.7504
  -3515020.99945  -2628238.90945  24022675.7344   24022684.8094
         9.0004          9.0004
  -8906307.51148  -3427082.89547  20853603.7344   20853608.8094
        34.0004         32.0004
   9280188.52646   7286410.01546  22911057.0864   22911063.6954
        18.5004         15.7504
  -8059409.85748  -6154053.54147  20615921.0634   20615926.5704
        33.2504         30.7504
    -41849.87342                  25415640.6484
         4.7504
  29764750.98145   3322277.08945  24245232.0314   24245239.5234
         9.2504          8.0004
 02 12 26  0  2 30.0000000  0  8G30G 4G10G 5G 9G24G 6G 7
  -5076797.82646  -3899401.68845  23082743.9224   23082750.1804
        14.7504         11.5004
   1196237.68748   1130592.73646  21531943.6564   21531948.3914
        31.0004         24.7504
  -3572132.00945  -2672740.55345  24011808.4224   24011818.0004
         9.7504          8.5004
  -8899040.63848  -3421420.32947  20854986.5394   20854991.5204
        34.0004         32.0004
   9407700.70146   7385770.08546  22935322.3984   22935329.2704
        18.2504         15.5004
  -8005693.23648  -6112196.39147  20626142.7734   20626148.3054
        33.2504         30.7504
    -72456.16544          .08854  25409821.7194   25409834.7424
         7.7504          4.7504
  29880570.17345   3412525.76645  24267270.4144   24267275.9104
         9.2504          7.2504
 02 12 26  0  3  0.0000000  0  8G30G 4G10G 5G 9G24G 6G 7
  -5125006.00446  -3936966.35245  23073569.6254   23073575.7544
        15.0004         11.7504
   1310248.17948   1219432.10646  21553638.6644   21553643.4574
        30.7504         24.5004
  -3629188.21645  -2717199.51545  24000949.8134   24000960.8674
         9.7504          8.5004
  -8891345.39248  -3415423.97147  20856450.6174   20856455.6334
        34.0004         31.7504
   9535492.39146   7485347.94346  22959640.5864   22959647.1954
        18.2504         15.2504
  -7951484.04448  -6069955.41447  20636458.3524   20636463.8244
        33.2504         30.5004
   -103052.77444    -23841.04145  25404001.5704   25404013.1174
         7.7504          5.5004
  29996438.16245   3502812.55745  24289321.6644   24289329.9774
         9.2504          7.7504
 02 12 26  0  3 30.0000000  0  8G30G 4G10G 5G 9G24G 6G 7
  -5173032.99346  -3974389.83846  23064429.7034   23064436.7624
        14.7504         12.0004
   1424635.05748   1308564.76946  21575405.8984   21575410.7504
        30.5004         24.5004
  -3686172.99045  -2761602.82745  23990105.1884   23990116.0784
         9.0004          8.7504
  -8883206.60448  -3409081.99947  20857999.5554   20858004.4414
        34.0004         32.0004
   9663574.14046   7585151.83446  22984013.5394   22984020.4224
        17.7504         15.2504
  -7896770.26248  -6027321.25747  20646870.0944   20646875.5204
        33.2504         30.7504
   -133626.28443    -47664.21845  25398179.2664   25398191.5744
         6.0004          5.0004
  30112368.11544   3593147.61945  24311379.8054   24311387.4964
         7.7504          7.5004
 02 12 26  0  4  0.0000000  0  8G30G 4G10G 5G 9G24G 6G 7
  -5220876.93146  -4011670.67645  23055325.5864   23055331.9144
        14.7504         11.7504
   1539395.39748   1397988.43746  21597243.9384   21597248.9884
        30.2504         24.2504
  -3743083.38345  -2805948.20745  23979275.9844   23979286.7704
        10.0004          9.0004
  -8874623.18848  -3402393.56147  20859632.8134   20859637.7584
        34.0004         32.0004
   9791942.59646   7685179.12846  23008441.1414   23008447.4344
        17.5004         15.0004
  -7841553.51948  -5984295.17547  20657377.6254   20657383.0744
        33.5004         31.0004
   -164177.19443    -71469.81845  25392364.6254   25392372.5744
         6.7504          5.0004
  30228359.89845   3683530.80645  24333454.2274   24333461.1454
         8.2504          7.7504
 02 12 26  0  4 30.0000000  0  8G30G 4G10G 5G 9G24G 6G 7
  -5268535.15446  -4048806.79545  23046256.0474   23046262.2814
        14.5004         11.5004
   1654527.01648   1487701.40946  21619152.6804   21619157.5664
        30.5004         24.0004
  -3799915.88245  -2850232.90845  23968460.2274   23968469.7704
        10.0004          9.0004
  -8865593.09848  -3395357.06647  20861351.1174   20861356.0514
        34.0004         32.0004
   9920594.68346   7785427.42546  23032922.9064   23032929.9414
        17.5004         15.0004
  -7785834.53748  -5940877.74347  20667980.5784   20667985.9924
        33.7504         31.0004
   -194705.53742    -95257.81245  25386552.4064   25386564.9844
         4.5004          5.0004
                                  24355536.0004
         6.5004
 02 12 26  0  5  0.0000000  0  8G30G 4G10G 5G 9G24G 6G 7
  -6891425.50346  -5313396.53445  22737430.7274   22737437.1604
        14.7504         11.7504
    194612.43948    350105.66546  21341340.2034   21341345.1724
        30.5004         24.0004
  -5432088.36145  -4122055.29045  23657867.8984   23657875.8714
         9.0004          9.0004
 -10431532.76648  -4615569.73747  20563362.6024   20563367.5704
        34.0004         32.0004
   8474113.30846   6658298.99946  22757666.6174   22757673.6294
        17.2504         14.5004
  -9305031.18448  -7124667.29347  20378886.8204   20378892.0824
        33.7504         31.2504
  -1800630.67943  -1346627.77845  25080954.7504   25080964.8794
         5.5004          5.0004
  -1463173.10945   2636846.45745  24077842.3054   24077849.2934
         8.2504          7.5004
 02 12 26  0  5 30.0000000  0  8G30G 4G10G 5G 9G24G 6G 7
  -6938713.33846  -5350244.03445  22728431.6094   22728438.2774
        15.0004         11.7504
    310470.91048    440385.02346  21363387.3594   21363392.3404
        30.2504         24.0004
  -5488764.11745  -4166217.86645  23647082.8134   23647092.0274
         9.5004          8.7504
 -10421611.96448  -4607839.18147  20565250.4454   20565255.4614
        34.0004         32.0004
   8603316.05646   6758976.39646  22782253.4844   22782260.3164
        17.0004         14.7504
  -9248319.12548  -7080476.03647  20389679.0004   20389684.2854
        33.7504         31.2504
  -1831121.38744  -1370386.45544  25075156.4064   25075168.3524
         7.0004          4.5004
  -1347003.05044   2727368.46745  24099948.6414   24099953.2934
         7.5004          7.0004
 02 12 26  0  6  0.0000000  0  8G30G 4G10G 5G 9G24G 6G 7
  -6985815.30246  -5386946.71145  22719468.5084   22719475.0234
        15.0004         11.7504
    426686.01548    530942.28046  21385502.5084   21385507.3244
        30.2504         23.7504
  -5545359.41545  -4210317.82645  23636313.6174   23636322.3754
         9.7504          9.0004
 -10411246.08448  -4599761.81647  20567222.8444   20567227.8954
        34.0004         32.0004
   8732786.66746   6859862.50946  22806890.7664   22806898.3524
        16.7504         14.5004
  -9191114.83348  -7035901.22247  20400564.4064   20400569.7734
        33.5004         31.0004
  -1861596.22042  -1394132.82145  25069353.8674   25069360.0904
         4.7504          5.5004
  -1559924.64353                  24122062.5784
         6.5004
 02 12 26  0  6 30.0000000  0  8G30G 4G10G 5G 9G24G 6G 7
  -7032721.74046  -5423497.03546  22710542.4304   22710548.8404
        15.0004         12.2504
    543262.72448    621781.30146  21407686.1024   21407690.8714
        30.0004         23.7504
  -5601863.51345  -4254346.71145  23625560.3834   23625570.3954
         9.0004          9.0004
 -10400425.97348  -4591330.50847  20569281.8914   20569286.9184
        34.0004         32.2504
   8862529.44846   6960960.70546  22831579.5004   22831586.4534
        16.5004         14.2504
  -9133412.58648  -6990938.39647  20411544.7424   20411550.1914
        33.5004         31.0004
  -1892047.56043  -1417860.74844  25063559.2344   25063570.3714
         5.7504          4.7504
  -1443636.43444                  24144198.3204
         7.7504
 02 12 26  0  7  0.0000000  0  8G30G 4G10G 5G 9G24G 6G 7
  -7079431.94646  -5459894.42146  22701653.4774   22701659.5594
        15.2504         12.2504
    660196.64748    712898.66646  21429937.9144   21429942.7424
        29.7504         23.7504
  -5658275.09245  -4298303.56545  23614825.5704   23614833.5664
         9.5004          9.0004
 -10389151.59048  -4582545.21847  20571427.2344   20571432.2504
        34.0004         32.5004
   8992539.93546   7062267.49146  22856319.9304   22856327.1174
        16.2504         14.0004
  -9075215.46748  -6945589.95347  20422619.2734   20422624.6644
        33.5004         31.0004
  -1922477.37043  -1441572.02345  25057767.4774   25057780.6644
         5.0004          5.5004
  -1327287.20643                  24166331.4224
         6.0004
 02 12 26  0  7 30.0000000  0  8G30G 4G10G 5G 9G24G 6G 7
  -7125945.76346  -5496138.82446  22692801.9144   22692807.8554
        15.2504         12.5004
    777483.19648    804290.80546  21452256.7664   21452261.4064
        29.2504         23.2504
  -5714592.76845  -4342187.26645  23604108.7974   23604117.7544
        10.0004          9.5004
 -10377423.20948  -4573406.16647  20573659.1024   20573664.0354
        34.0004         32.5004
   9122813.01046   7163778.91446  22881110.0004   22881117.2114
        16.2504         14.0004
  -9016526.58548  -6899858.31947  20433787.3754   20433792.8364
        33.2504         31.0004
  -1952887.53743  -1465267.89945  25051980.9304   25051990.2854
         5.0004          5.2504
  -1210878.68645  -1173174.27855  24188490.4614   24188498.9384
         9.0004          6.7504
 02 12 26  0  8  0.0000000  0  8G30G 4G10G 5G 9G24G 6G 7
  -7172265.11646  -5532231.67946  22683987.8674   22683993.8794
        15.5004         12.5004
    895115.60248    895952.43446  21474641.4534   21474646.2934
        29.0004         23.0004
  -5770817.97945  -4385998.95845  23593409.1644   23593418.0394
         9.7504         10.0004
 -10365243.79548  -4563915.66147  20575976.8984   20575981.7274
        34.0004         32.7504
   9253341.06346   7265488.99946  22905948.6484   22905956.2814
        16.5004         14.5004
  -8957351.89048  -6853748.13747  20445047.9924   20445053.2304
        33.2504         30.7504
  -1983282.59543  -1488951.95745  25046199.8984   25046208.4454
         6.7504          5.0004
  -1094415.47943  -1082423.67445  24210644.9304   24210653.8404
         6.0004          7.0004
 02 12 26  0  8 30.0000000  0  8G30G 4G10G 5G 9G24G 6G 7
  -7218375.58846  -5568161.75446  22675212.9064   22675218.7774
        15.7504         12.5004
   1013103.26348    987890.88946  21497093.7504   21497098.6024
        28.7504         23.0004
  -5826934.97545  -4429726.31245  23582731.0784   23582737.9844
        10.5004          9.0004
 -10352599.46648  -4554062.88647  20578382.9844   20578387.8834
        34.0004         32.7504
   9384133.30146   7367404.95946  22930838.0554   22930845.5004
        17.0004         14.5004
  -8897680.18148  -6807250.66847  20456403.1254   20456408.4104
        33.2504         31.0004
  -2013650.60043  -1512614.98244  25040420.0554   25040426.3594
         6.5004          4.2504
   -977885.23643   -991620.87245  24232821.3284   24232829.9104
         6.0004          6.7504
 02 12 26  0  9  0.0000000  0  8G30G 4G10G 5G 9G24G 6G 7
  -7264279.72746  -5603931.06946  22666477.8444   22666483.6914
        16.0004         12.5004
   1131438.64148   1080100.29146  21519612.2504   21519616.8324
        28.7504         23.2504
  -5882945.76945  -4473370.93945  23572071.1334   23572079.7974
         9.7504          9.7504
 -10339493.49548  -4543850.39147  20580876.7424   20580881.5824
        34.0004         32.7504
   9515181.71346   7469520.53546  22955776.4844   22955783.2234
        17.2504         14.7504
  -8837517.79748  -6760370.85847  20467851.5634   20467856.8714
        33.5004         30.7504
  -2043996.44543  -1536260.92745  25034641.4224   25034654.2344
         5.7504          5.7504
   -861292.92343   -900769.69245  24255010.2814   24255020.5514
         6.7504          7.2504
 02 12 26  0  9 30.0000000  0  8G30G 4G10G 5G 9G24G 6G 7
  -7309980.03546  -5639541.54946  22657781.1414   22657787.5044
        16.0004         13.2504
   1250114.50448   1172574.99746  21542195.3284   21542200.4264
        28.5004         23.0004
  -5938851.86645  -4516933.96845  23561433.6334   23561443.2934
        11.0004         10.0004
 -10325929.15048  -4533280.71847  20583457.9844   20583462.8244
        34.0004         32.5004
   9646478.16546   7571829.39446  22980760.9144   22980768.1604
        17.5004         14.7504
  -8776870.89848  -6713113.49947  20479392.2194   20479397.4574
        33.2504         30.7504
  -2074325.05143  -1559893.25345  25028870.3204   25028883.7894
         5.5004          5.7504
   -744643.41745   -809873.96045  24277209.8914   24277217.6994
         8.7504          6.7504
 02 12 26  0 10  0.0000000  0  8G30G 4G10G 5G 9G24G 6G 7
  -7355470.79646  -5674988.76046  22649124.7814   22649130.4774
        16.2504         13.2504
   1369131.58248   1265315.59346  21564843.6644   21564848.7734
        28.5004         22.7504
  -5994646.67645  -4560410.32445  23550814.8284   23550822.0044
        10.2504         10.0004
 -10311901.44648  -4522349.99047  20586127.3364   20586132.2114
        34.0004         32.5004
   9778023.00046   7674331.79346  23005793.5784   23005800.7774
        17.7504         14.5004
  -8715737.75448  -6665477.24947  20491025.2194   20491030.5274
        33.2504         30.7504
  -2104632.99844  -1583509.52045  25023105.4144   25023114.3594
         7.0004          5.5004
   -627933.21545   -718930.90745  24299418.7584   24299429.4844
         8.5004          7.0004
 02 12 26  0 10 30.0000000  0  8G30G 4G10G 5G 9G24G 6G 7
  -7400745.74546  -5710267.82046  22640508.6334   22640514.4924
        16.5004         12.7504
   1488490.99748   1358322.94346  21587557.1174   21587561.8284
        28.5004         22.7504
  -6050323.04245  -4603794.30345  23540221.0474   23540230.2624
        11.2504         10.5004
 -10297404.84648  -4511053.89347  20588885.8284   20588890.6804
        34.0004         32.5004
   9909817.13446   7777028.45146  23030872.7584   23030879.7344
        17.7504         14.7504
  -8654115.81348  -6617460.11947  20502751.6644   20502757.0434
        33.2504         30.7504
  -2134916.46844  -1607106.73045  25017342.7894   25017352.6724
         7.5004          6.0004
   -511158.42443   -627937.48145  24321635.0474   24321645.1054
         5.7504          7.5004
 02 12 26  0 11  0.0000000  0  8G30G 4G10G 5G 9G24G 6G 7
  -7445807.53546  -5745380.75846  22631933.4224   22631938.6254
        16.5004         13.2504
   1608185.51348   1451591.41046  21610333.9534   21610338.8284
        28.2504         22.7504
  -6105882.60045  -4647087.31745  23529647.1954   23529655.2274
        10.5004         10.0004
 -10282442.87548  -4499395.16947  20591733.0634   20591737.7974
        34.0004         32.5004
  10041852.31146   7879912.94546  23055999.2194   23056005.7344
        17.7504         14.7504
  -8592011.21448  -6569066.89047  20514569.7974   20514575.2584
        33.2504         30.7504
  -2165180.41343  -1630688.78045  25011583.5084   25011592.4884
         6.5004          6.2504
   -394323.81543   -536897.47045  24343867.5234   24343874.4534
         6.0004          6.5004
 02 12 26  0 11 30.0000000  0  8G30G 4G10G 5G 9G24G 6G 7
  -7490655.33846  -5780326.95846  22623399.0784   22623404.6914
        16.5004         13.5004
   1728210.64548   1545117.49846  21633174.0634   21633179.0314
        28.0004         22.5004
  -6161323.98346  -4690288.19045  23519098.8364   23519107.3714
        12.0004         10.0004
 -10267015.64248  -4487373.90447  20594668.6094   20594673.4264
        34.0004         32.7504
  10174123.81646   7982981.58246  23081169.1804   23081176.1094
        17.0004         14.2504
  -8529427.05648  -6520299.97847  20526479.0704   20526484.3674
        33.5004         31.0004
  -2195426.62145  -1654256.98845  25005830.1954   25005841.9884
         8.2504          5.7504
   -277431.32643   -445812.39845  24366113.2974   24366122.8284
         6.7504          6.2504
 02 12 26  0 12  0.0000000  0  8G30G 4G10G 5G 9G24G 6G 7
  -7535284.63246  -5815102.90046  22614906.5864   22614913.1024
        16.5004         12.7504
   1848566.04148   1638900.93746  21656076.9694   21656081.9024
        28.0004         22.2504
  -6216641.48045  -4733392.56545  23508571.6484   23508579.3874
        11.5004          9.7504
 -10251119.17848  -4474987.00647  20597693.5554   20597698.4304
        34.0004         32.7504
  10306631.15946   8086233.97646  23106384.3674   23106391.0704
        16.7504         14.2504
  -8466362.64148  -6471158.83647  20538479.6724   20538485.0394
        33.5004         31.0004
  -2225652.98543  -1677809.77445  25000075.5944   25000086.0864
         6.0004          6.2504
   -160478.47345   -354680.28645  24388372.3914   24388384.6764
         8.0004          6.7504
 02 12 26  0 12 30.0000000  0  8G30G 4G10G 5G 9G24G 6G 7
  -7579692.44546  -5849706.26246  22606456.0864   22606461.8984
        17.0004         13.5004
   1969249.79747   1732940.24646  21679042.0474   21679046.9924
        27.7504         22.2504
  -6271831.19345  -4776397.35245  23498069.0084   23498077.5904
        11.5004         10.5004
 -10234751.39148  -4462232.84347  20600808.1564   20600812.8444
        34.0004         32.7504
  10439371.76646   8189668.15746  23131643.7034   23131650.2894
        16.0004         13.7504
  -8402818.65748  -6421644.00847  20550571.9224   20550577.1134
        33.7504         31.2504
  -2255858.66243  -1701346.44945  24994324.5474   24994333.5164
         5.7504          6.0004
    -43464.59542   -263500.48445  24410635.7114   24410646.5084
         4.2504          6.7504
 02 12 26  0 13  0.0000000  0  8G30G 4G10G 5G 9G24G 6G 7
  -7623878.33046  -5884136.68446  22598047.5944   22598053.8054
        17.5004         13.2504
   2090257.43047   1827231.92246  21702069.1484   21702073.8134
        27.2504         22.0004
  -6326891.79146  -4819301.50945  23487592.0634   23487600.7504
        12.2504         10.5004
 -10217912.59548  -4449111.66447  20604012.4844   20604017.2304
        34.0004         33.0004
  10572340.62546   8293280.16446  23156946.7974   23156953.7734
        15.7504         13.2504
  -8338798.59548  -6371758.20447  20562754.4454   20562759.5314
        33.5004         31.2504
  -2286045.64743  -1724868.58645  24988579.0004   24988591.2034
         5.7504          6.5004
     73608.22844   -172275.01745  24432915.0394   24432924.3134
         7.0004          5.5004
 02 12 26  0 13 30.0000000  0  8G30G 4G10G 5G 9G24G 6G 7
  -7667841.39946  -5918393.48546  22589681.5474   22589687.5234
        17.5004         13.5004
   2211584.85347   1921772.78146  21725157.1174   21725161.8284
        27.2504         21.7504
  -6381821.96445  -4862104.05045  23477137.9384   23477145.5354
        11.7504         10.2504
 -10200602.77048  -4435623.45147  20607306.5704   20607311.4694
        34.0004         32.7504
  10705533.06246   8397066.41946  23182292.7974   23182300.0904
        15.5004         13.0004
  -8274305.39648  -6321503.72547  20575027.0084   20575032.2344
        33.5004         31.2504
  -2316215.55643  -1748377.35545  24982839.7734   24982850.3594
         6.2504          6.2504
    190738.74543    -81004.32445  24455204.0474   24455208.8634
         6.7504          5.5004
 02 12 26  0 14  0.0000000  0  8G30G 4G10G 5G 9G24G 6G 7
  -7711581.13446  -5952476.24846  22581358.4454   22581364.3984
        17.5004         13.5004
   2333227.56147   2016559.32646  21748305.0234   21748309.7114
        27.2504         22.0004
  -6436620.35446  -4904803.87845  23466710.2194   23466717.6524
        12.2504         10.2504
 -10182822.44448  -4421768.61247  20610689.9224   20610694.6454
        34.0004         33.2504
  10838944.01746   8501022.93246  23207680.0704   23207686.1054
        15.2504         12.5004
  -8209342.36848  -6270883.13647  20587389.0634   20587394.1024
        33.5004         31.0004
  -2346370.24443  -1771874.34545  24977101.2814   24977110.1564
         6.7504          6.0004
                                  24477510.5164
         8.0004
 02 12 26  0 14 30.0000000  0  8G30G 4G10G 5G 9G24G 6G 7
  -7755086.65746  -5986376.51446  22573078.8444   22573084.6684
        17.5004         13.7504
   2455191.26347   2111595.99646  21771513.9064   21771518.5474
        27.5004         21.7504
  -6491274.72646  -4947391.50345  23456309.8444   23456318.0394
        12.5004         10.2504
 -10164561.24548  -4407539.07047  20614165.1254   20614169.7194
        34.0004         33.5004
  10972579.09946   8605154.09646  23233110.0704   23233117.0474
        15.5004         12.7504
  -8143902.58348  -6219891.05647  20599841.7504   20599846.8594
        33.5004         31.0004
  -2376501.07545  -1795352.58145  24971370.1724   24971381.4494
         8.5004          6.5004
  -1462081.17043    101672.92245  24499815.5704   24499826.2734
         5.5004          6.2504
 02 12 26  0 15  0.0000000  0  8G30G 4G10G 5G 9G24G 6G 7
  -7798360.51146  -6020096.25246  22564844.4384   22564850.3554
        17.5004         14.0004
   2577468.70247   2206877.13346  21794782.3754   21794786.9224
        27.2504         21.7504
  -6545786.86345  -4989868.30945  23445935.7974   23445942.6414
        11.7504         10.5004
 -10145822.96248  -4392937.77047  20617730.8054   20617735.3404
        34.0004         33.5004
  11106430.16746   8709453.56846  23258580.7584   23258587.3094
        15.7504         12.7504
  -8077992.36748  -6168532.39847  20612384.0164   20612389.2194
        33.5004         31.2504
  -2406613.18344  -1818816.33945  24965637.6254   24965646.7464
         7.7504          6.0004
  -1344771.12642    193083.51145  24522135.4694   24522143.7234
         4.2504          6.0004
 02 12 26  0 15 30.0000000  0  8G30G 4G10G 5G 9G24G 6G 7
  -7841399.05346  -6053632.62446  22556653.9224   22556659.6054
        17.5004         14.0004
   2700058.18747   2302401.42146  21818110.4454   21818115.0634
        27.2504         21.5004
  -6600152.50546  -5032230.95145  23435590.5394   23435596.6454
        12.5004         10.7504
 -10126604.81148  -4377962.54947  20621387.8984   20621392.3634
        34.0004         33.7504
  11240495.28746   8813919.81846  23284093.3754   23284099.7734
        16.2504         12.7504
  -8011612.32148  -6116807.64447  20625015.6254   20625020.8874
        33.5004         31.2504
  -2436705.35345  -1842264.49545  24959912.1484   24959923.5904
         8.2504          7.0004
  -1227400.42044    284541.23945  24544475.9534   24544484.2194
         7.5004          7.0004
 02 12 26  0 16  0.0000000  0  8G30G 4G10G 5G 9G24G 6G 7
  -7884195.06046  -6086980.01946  22548510.0314   22548515.4694
        17.5004         14.0004
   2822962.46247   2398171.00046  21841498.3984   21841502.7814
        27.0004         21.5004
  -6654363.30346  -5074472.93045  23425274.5784   23425282.3404
        12.2504         10.5004
 -10106900.46648  -4362608.48147  20625137.5004   20625141.9654
        34.0004         34.0004
  11374776.26146   8918554.29546  23309646.1484   23309652.5354
        16.2504         13.2504
  -7944758.82548  -6064713.96747  20637737.5394   20637742.6844
        33.7504         31.2504
  -2466772.64045  -1865693.30445  24954191.5084   24954203.2894
         8.7504          7.2504
  -1109964.15342    376050.09445  24566825.9384   24566831.7274
         4.5004          6.2504
 02 12 26  0 16 30.0000000  0  8G30G 4G10G 5G 9G24G 6G 7
  -7926749.92446  -6120139.51346  22540412.2344   22540417.6254
        17.5004         14.2504
   2946174.78247   2494180.62146  21864944.7974   21864949.2384
        26.7504         21.2504
  -6708419.85845  -5116594.71945  23414986.8204   23414994.5354
        11.5004         10.5004
 -10086712.41948  -4346877.49747  20628979.1094   20628983.6334
        34.0004         34.0004
  11509266.12146   9023351.51546  23335239.2734   23335246.0594
        16.7504         13.5004
  -7877437.37648  -6012255.64647  20650548.4224   20650553.4964
        33.7504         31.2504
  -2496818.94145  -1889105.74945  24948472.3754   24948483.8984
         8.2504          6.5004
  -1508835.76654                  24589182.8054
         7.5004
 02 12 26  0 17  0.0000000  0  8G30G 4G10G 5G 9G24G 6G 7
  -7969065.96946  -6153112.90246  22532359.5004   22532365.1724
        17.7504         14.2504
   3069688.04747   2590424.73146  21888448.5864   21888453.2854
        26.5004         21.0004
  -6762323.68345  -5158597.53145  23404729.5314   23404736.3634
        11.7504         11.2504
 -10066044.01048  -4330772.20547  20632912.0164   20632916.6914
        34.0004         33.7504
  11643957.28346   9128305.59046  23360869.7894   23360876.8954
        16.5004         13.2504
  -7809654.39948  -5959437.69647  20663447.0944   20663452.2274
        34.0004         31.5004
  -2526849.12945  -1912505.62545  24942758.5704   24942769.9654
         8.7504          6.7504
  -1391280.33445                  24611555.3364
         9.2504
 02 12 26  0 17 30.0000000  0  8G30G 4G10G 5G 9G24G 6G 7
  -8011135.46446  -6185894.18946  22524353.7274   22524359.1884
        18.0004         14.5004
   3193504.69147   2686905.25846  21912010.1954   21912014.7304
        26.5004         20.7504
  -6816066.13746  -5200474.58845  23394503.6254   23394511.8554
        13.5004         11.0004
 -10044888.45348  -4314287.31747  20636937.8754   20636942.6334
        34.0004         33.7504
  11778851.76446   9233418.11546  23386539.6484   23386546.5434
        16.5004         13.7504
  -7741405.84548  -5906256.95647  20676434.3834   20676439.4104
        33.7504         31.5004
  -2556857.96345  -1935888.83745  24937046.5944   24937058.2584
         8.0004          6.7504
  -1273662.38643  -1151224.62055  24633931.7664   24633940.3834
         6.2504          7.5004
 02 12 26  0 18  0.0000000  0  8G30G 4G10G 5G 9G24G 6G 7
  -8052958.42446  -6218483.37946  22516395.1484   22516400.5514
        18.2504         14.7504
   3317620.01847   2783618.52046  21935628.4384   21935632.8324
        26.5004         21.0004
  -6869646.12846  -5242225.06745  23384307.8594   23384315.4224
        14.0004         11.5004
 -10023246.53448  -4297423.44347  20641056.0234   20641060.8524
        34.0004         33.7504
  11913944.05946   9338684.77146  23412246.3444   23412252.8484
        16.2504         13.7504
  -7672695.68148  -5852716.52547  20689509.3914   20689514.2194
        34.0004         31.7504
  -2586847.71845  -1959257.22145  24931340.4454   24931350.4224
         8.5004          7.0004
  -1155984.18943  -1059527.23445  24656326.9534   24656335.4774
         6.0004          5.2504
 02 12 26  0 18 30.0000000  0  8G30G 4G10G 5G 9G24G 6G 7
  -8094534.32246  -6250880.05446  22508483.3134   22508488.8674
        18.5004         15.0004
   3442029.35347   2880560.87146  21959302.7194   21959307.2544
        26.5004         20.7504
  -6923062.85746  -5283848.33245  23374141.2974   23374149.4104
        12.5004         11.7504
 -10001119.22448  -4280181.34447  20645266.6174   20645271.3524
        34.0004         33.7504
  12049228.98946   9444101.53746  23437991.1414   23437998.0704
        16.0004         13.7504
  -7603527.94248  -5798819.54247  20702671.5394   20702676.4264
        34.0004         32.0004
  -2616820.43345  -1982612.29945  24925637.5864   24925646.8714
         8.7504          7.5004
  -1038247.89645   -967784.66845  24678733.2274   24678740.8594
         9.2504          7.2504
 02 12 26  0 19  0.0000000  0  8G30G 4G10G 5G 9G24G 6G 7
  -8135856.46546  -6283079.00746  22500620.1414   22500625.7664
        18.7504         14.7504
   3566734.54247   2977733.76546  21983033.3594   21983037.5784
        26.5004         20.7504
  -6976308.72846  -5325338.46145  23364009.2344   23364016.3874
        12.7504         11.0004
  -9978500.70648  -4262556.48147  20649570.7814   20649575.4344
        34.0004         33.7504
  12184707.99846   9549669.51546  23463771.5004   23463778.5944
        15.7504         13.5004
  -7533899.83448  -5744563.83347  20715921.3364   20715926.3054
        34.0004         32.0004
  -2646771.68244  -2005950.68345  24919934.0234   24919942.6764
         7.0004          7.7504
   -920448.95043   -875993.18045  24701144.7584   24701154.7704
         6.0004          7.2504
 02 12 26  0 19 30.0000000  0  8G30G 4G10G 5G 9G24G 6G 7
  -8176928.58246  -6315083.12646  22492804.2974   22492808.9494
        19.0004         15.2504
   3691726.77647   3075130.33746  22006818.6254   22006823.2544
        26.5004         21.0004
  -7029386.23046  -5366697.39945  23353909.6254   23353917.8204
        13.2504         11.7504
  -9955395.67848  -4244552.52047  20653967.5164   20653972.0514
        34.0004         33.7504
  12320371.89846   9655381.56146  23489587.2034   23489594.6374
        15.0004         13.2504
  -7463818.75848  -5689955.16647  20729257.2814   20729262.3324
        33.7504         31.7504
  -2676707.66344  -2029277.14145  24914238.3914   24914249.2114
         7.7504          7.0004
   -802593.38545   -784157.60645  24723576.5784   24723587.9264
         8.7504          7.7504
 02 12 26  0 20  0.0000000  0  8G30G 4G10G 5G 9G24G 6G 7
  -8217746.49246  -6346889.16846  22485036.5314   22485042.1684
        18.7504         15.2504
   3817005.03847   3172749.78446  22030658.3914   22030662.6334
        26.5004         20.7504
  -7082290.61546  -5407921.45346  23343841.3674   23343849.1054
        13.0004         12.0004
  -9931801.19548  -4226167.16247  20658457.4064   20658461.9414
        34.0004         33.7504
  12456218.92246   9761236.30846  23515438.4774   23515446.0514
        14.7504         13.2504
  -7393285.21048  -5634993.91947  20742679.3444   20742684.3834
        34.0004         31.7504
  -2706626.97044  -2052590.58945  24908543.6644   24908553.2424
         7.2504          7.5004
   -684679.66945   -692276.75345  24746016.2114   24746025.7664
         9.5004          7.5004
 02 12 26  0 20 30.0000000  0  8G30G 4G10G 5G 9G24G 6G 7
  -8258309.43446  -6378496.52446  22477317.8754   22477323.8524
        18.7504         15.0004
   3942565.46847   3270589.09746  22054551.6884   22054556.1524
        26.2504         20.7504
  -7135019.93946  -5449009.09346  23333807.2344   23333815.3594
        13.2504         12.2504
  -9907717.24248  -4207400.40147  20663040.5004   20663044.9304
        34.0004         34.0004
  12592244.79546   9867230.40946  23541321.9614   23541329.1954
        14.2504         13.0004
  -7322301.89648  -5579682.21647  20756186.9384   20756192.0124
        34.0004         31.7504
  -2736530.77044  -2075892.00345  24902854.5634   24902863.4384
         7.7504          7.2504
   -566709.06743   -600351.49345  24768461.9144   24768471.9614
         6.7504          7.2504
 02 12 26  0 21  0.0000000  0  8G30G 4G10G 5G 9G24G 6G 7
  -8298602.82246  -6409893.85746  22469650.1334   22469655.4414
        19.0004         15.2504
   4068417.25447   3368655.44346  22078500.6094   22078505.1214
        26.2504         20.7504
  -7187559.33246  -5489948.72346  23323810.4384   23323817.8594
        14.7504         12.5004
  -9883130.72848  -4188242.02847  20667719.0474   20667723.4654
        34.0004         34.2504
  12728458.18346   9973370.63146  23567243.3594   23567251.3794
        14.5004         13.0004
  -7250858.36848  -5524011.90347  20769782.0944   20769787.1214
        34.0004         31.7504
  -2766407.26044  -2099172.13945  24897169.9384   24897178.8954
         7.7504          7.7504
   -448669.85544   -508372.83045  24790923.3984   24790930.9614
         7.2504          7.5004
 02 12 26  0 21 30.0000000  0  8G30G 4G10G 5G 9G24G 6G 7
  -8338619.02746  -6441075.20646  22462035.0084   22462040.3404
        19.2504         16.0004
   4194563.11547   3466950.94146  22102505.4064   22102510.3634
        25.7504         20.5004
  -7239899.80046  -5530733.34646  23313848.7504   23313856.4774
        13.2504         12.2504
  -9858035.05948  -4168686.91147  20672494.6564   20672499.1564
        34.0004         34.0004
  12864861.47846  10079658.85346  23593200.3914   23593207.4144
        14.7504         13.0004
  -7178951.59748  -5467980.61947  20783465.5474   20783470.4924
        34.0004         32.0004
  -2796251.14944  -2122426.84745  24891489.6884   24891497.0394
         7.5004          7.0004
   -330556.49245   -416336.34745  24813400.8284   24813407.6134
         8.0004          7.2504
 02 12 26  0 22  0.0000000  0  8G30G 4G10G 5G 9G24G 6G 7
  -9953788.54046  -7699648.73346  22154678.5474   22154683.9964
        19.2504         15.5004
   2745573.21247   2337867.91946  21826771.6334   21826776.1454
        25.5004         20.2504
  -8867471.33646  -6798970.71946  23004132.7274   23004140.1844
        13.2504         12.2504
 -11407859.70548  -5376342.42947  20377572.6334   20377577.0864
        34.0004         34.2504
  11426024.53446   8958487.11446  23319398.7344   23319405.4734
        14.7504         12.7504
  -8682012.11348  -6639196.58047  20497442.5474   20497447.4804
        34.0004         31.7504
  -4401494.83944  -3373265.81545  24586022.6094   24586032.0354
         7.2504          7.0004
  -1787796.40143  -1551847.81745  24536093.7664   24536104.0004
         5.0004          7.0004
 02 12 26  0 22 30.0000000  0  8G30G 4G10G 5G 9G24G 6G 7
  -9993270.29446  -7730413.61846  22147165.5234   22147170.8204
        19.5004         16.0004
   2872272.39447   2436594.57746  21850881.4144   21850886.0084
        25.2504         20.2504
  -8919431.45046  -6839458.93746  22994245.1804   22994252.6844
        14.2504         12.2504
 -11381769.17448  -5356012.09847  20382537.4064   20382541.8364
        34.0004         34.2504
  11562770.89746   9065042.65246  23345420.6484   23345427.5434
        14.5004         12.7504
  -8609210.56848  -6582468.07447  20511296.3054   20511301.2974
        34.0004         31.5004
  -4431300.78844  -3396490.98245  24580349.2734   24580359.0984
         7.0004          7.7504
  -1669561.79642  -1459716.94845  24558594.1024   24558602.8484
         4.5004          5.7504
 02 12 26  0 23  0.0000000  0  8G30G 4G10G 5G 9G24G 6G 7
 -10032482.78846  -7760968.68246  22139703.4774   22139708.8094
        19.7504         15.7504
   2999242.95047   2535532.69346  21875043.2034   21875047.7504
        25.0004         20.2504
  -8971198.15146  -6879796.46046  22984393.1484   22984401.6604
        12.7504         12.2504
 -11355180.83548  -5335293.85947  20387596.9454   20387601.3284
        34.0004         34.5004
  11699682.61646   9171727.03046  23371474.0084   23371481.4184
        14.5004         12.5004
  -8535965.89048  -6525394.27347  20525234.0554   20525238.9184
        34.0004         31.7504
  -4461089.19844  -3419702.45445  24574681.2274   24574689.3984
         7.5004          7.0004
  -3131124.22153                  24581104.0944
         5.2504
 02 12 26  0 23 30.0000000  0  8G30G 4G10G 5G 9G24G 6G 7
 -10071419.60347  -7791308.94246  22132293.9534   22132299.0634
        20.0004         16.2504
   3126485.90147   2634683.05446  21899256.6884   21899261.2934
        25.0004         19.7504
  -9022764.57746  -6919977.88846  22974581.2974   22974589.4574
        14.2504         12.2504
 -11328089.58048  -5314183.74747  20392752.2894   20392756.7544
        34.0004         34.5004
  11836760.51146   9278540.89246  23397559.2274   23397566.6844
        14.2504         12.5004
  -8462275.83348  -6467973.42247  20539256.9844   20539261.9064
        33.7504         31.5004
  -4490856.29344  -3442897.39545  24569015.7974   24569024.6954
         7.5004          7.2504
  -3012767.49943                  24603627.9384
         5.0004
 02 12 26  0 24  0.0000000  0  8G30G 4G10G 5G 9G24G 6G 7
 -10110071.51647  -7821427.19446  22124938.7584   22124943.8204
        20.0004         16.5004
   3254005.93847   2734049.33646  21923522.9534   21923527.5824
        24.7504         20.0004
  -9074120.42346  -6959995.24246  22964807.2664   22964815.4494
        13.0004         12.5004
 -11300487.42048  -5292675.52347  20398004.7584   20398009.2344
        34.0004         34.5004
  11974008.19146   9385487.06546  23423676.6174   23423684.3674
        14.2504         12.5004
  -8388135.46448  -6410201.67647  20553365.3364   20553370.4804
        33.7504         31.2504
  -4520595.14044  -3466070.28345  24563355.2584   24563363.2424
         7.2504          6.7504
  -2894341.00745                  24626167.6174
         8.7504
 02 12 26  0 24 30.0000000  0  8G30G 4G10G 5G 9G24G 6G 7
 -10148448.13047  -7851330.93246  22117635.5474   22117640.3874
        20.5004         16.0004
   3381788.06047   2833619.83946  21947839.0004   21947843.4534
        24.7504         19.5004
  -9125274.17346  -6999855.10046  22955073.2194   22955081.1334
        13.7504         12.7504
 -11272385.06248  -5270777.53647  20403352.5234   20403357.0124
        34.0004         34.5004
  12111410.64446   9492553.82446  23449822.9614   23449830.0314
        14.0004         12.5004
  -8313558.14048  -6352089.44847  20567556.8754   20567561.9144
        33.7504         31.2504
  -4550317.66544  -3489230.47345  24557699.7274   24557708.1334
         7.7504          7.2504
  -3107392.61155                  24648716.3594
         9.0004
 02 12 26  0 25  0.0000000  0  8G30G 4G10G 5G 9G24G 6G 7
 -10186540.50647  -7881013.17846  22110386.9224   22110391.5984
        21.0004         16.5004
   3509836.40347   2933397.78246  21972205.8834   21972210.2304
        24.5004         19.7504
  -9176216.33946  -7039550.10146  22945379.2664   22945387.4024
        14.2504         12.7504
 -11243775.10048  -5248484.01447  20408796.7504   20408801.2384
        34.0004         34.7504
  12248971.11946   9599743.71846  23476000.1334   23476007.4614
        14.0004         12.7504
  -8238539.54248  -6293633.37047  20581832.3674   20581837.3714
        33.7504         31.5004
  -4580017.54545  -3512373.05645  24552049.6414   24552059.8284
         8.5004          7.5004
  -3131081.78055  -2424404.93155  24671274.4614   24671283.4064
         9.2504          6.0004
 02 12 26  0 25 30.0000000  0  8G30G 4G10G 5G 9G24G 6G 7
 -10224346.99447  -7910472.66046  22103192.7424   22103197.3714
        21.5004         16.5004
   3638147.36047   3033380.36246  21996622.6334   21996626.9924
        24.5004         19.5004
  -9226944.27646  -7079078.15146  22935726.7894   22935733.8244
        15.2504         13.0004
 -11214657.09648  -5225794.61847  20414337.6254   20414342.0434
        34.0004         34.7504
  12386685.73546   9707053.72546  23502207.4454   23502215.3134
        14.2504         12.5004
  -8163082.30748  -6234835.49647  20596191.3524   20596196.2504
        34.0004         31.5004
  -4609695.74845  -3535498.67945  24546401.6724   24546409.9494
         8.5004          7.5004
  -3107346.37954                  24693844.7114
         7.0004
 02 12 26  0 26  0.0000000  0  8G30G 4G10G 5G 9G24G 6G 7
 -10261867.87847  -7939709.59746  22096052.3444   22096057.3244
        21.7504         16.7504
   3766716.04547   3133563.77046  22021088.6884   22021092.9654
        24.2504         19.2504
  -9277457.40246  -7118438.85746  22926113.3284   22926120.4694
        14.2504         13.2504
 -11185032.58548  -5202710.54547  20419974.9454   20419979.4694
        34.0004         34.5004
  12524548.67746   9814479.31146  23528440.7894   23528448.0594
        14.0004         12.7504
  -8087190.74448  -6175699.18347  20610633.1484   20610638.0124
        34.0004         31.5004
  -4639354.90944  -3558609.54745  24540756.1484   24540766.1724
         7.7504          7.7504
  -2988673.09744                  24716424.5004
         7.0004
 02 12 26  0 26 30.0000000  0  8G30G 4G10G 5G 9G24G 6G 7
 -10299098.47247  -7968720.32646  22088967.6564   22088972.1214
        22.2504         17.0004
   3895542.07347   3233947.70246  22045603.3054   22045607.5474
        23.7504         19.2504
  -9327750.23346  -7157627.87946  22916543.0554   22916551.4734
        15.0004         13.2504
 -11154898.09348  -5179229.08347  20425709.2974   20425713.7734
        34.0004         34.7504
  12662559.20246   9922019.88946  23554703.8914   23554710.9964
        13.5004         12.0004
  -8010864.46448  -6116224.12747  20625157.5554   20625162.4774
        34.0004         31.5004
  -4668992.59645  -3581703.62445  24535117.4774   24535126.5164
         8.7504          7.5004
  -2869936.56643  -2449033.81555  24739018.9924   24739025.4024
         6.2504          5.2504
 02 12 26  0 27  0.0000000  0  8G30G 4G10G 5G 9G24G 6G 7
 -10336037.32747  -7997503.72946  22081938.0784   22081942.7424
        22.2504         17.2504
   4024621.37247   3334528.99146  22070166.1724   22070170.5554
        23.5004         19.0004
  -9377820.77346  -7196643.70646  22907014.4144   22907021.7664
        14.5004         13.5004
 -11124253.81848  -5155350.38947  20431540.8524   20431545.1644
        34.0004         34.7504
  12800712.95646  10029672.07946  23580994.3594   23581002.7544
        13.5004         12.2504
  -7934106.26948  -6056412.51047  20639764.1564   20639769.0434
        34.0004         31.7504
  -4698609.86045  -3604781.85145  24529480.2344   24529490.3404
         8.0004          7.7504
  -2751137.90844  -2356463.30045  24761629.0634   24761636.7074
         7.2504          6.2504
 02 12 26  0 27 30.0000000  0  8G30G 4G10G 5G 9G24G 6G 7
 -10372677.80047  -8026054.62946  22074965.9064   22074970.5704
        22.7504         17.5004
   4153956.07947   3435309.29546  22094777.9384   22094782.7774
        23.2504         18.7504
  -9427661.62746  -7235480.55446  22897530.6414   22897537.9804
        15.7504         13.0004
 -11093094.33548  -5131070.23847  20437470.1024   20437474.3914
        34.0004         35.0004
  12939011.27346  10137436.89346  23607311.3674   23607319.7034
        13.2504         12.2504
  -7856913.94348  -5996262.61047  20654453.3204   20654458.2074
        34.0004         31.5004
  -4728202.58945  -3627840.86345  24523849.5234   24523856.8164
         8.2504          8.2504
                                  24784249.8984
         7.7504
 02 12 26  0 28  0.0000000  0  8G30G 4G10G 5G 9G24G 6G 7
 -10409027.27047  -8054378.77846  22068048.6484   22068053.3484
        23.0004         17.2504
   4283533.71547   3536278.89946  22119435.6254   22119439.6914
        23.2504         18.7504
  -9477279.14046  -7274143.38946  22888088.1024   22888094.9844
        14.7504         13.2504
 -11061428.27248  -5106395.34847  20443496.0164   20443500.3284
        34.0004         35.0004
  13077441.35246  10245304.39246  23633653.5314   23633661.9614
        13.0004         12.0004
  -7779299.14348  -5935783.50047  20669222.9224   20669227.8674
        34.0004         31.5004
  -4757780.30345  -3650888.20345  24518220.8984   24518228.6374
         8.2504          8.2504
  -3035885.69643                  24806875.1024
         6.2504
 02 12 26  0 28 30.0000000  0  8G30G 4G10G 5G 9G24G 6G 7
 -10445101.18847  -8082488.19246  22061183.8984   22061187.9884
        22.7504         17.5004
   4413333.94247   3637421.95946  22144135.7974   22144139.8754
        23.0004         18.5004
  -9526687.86746  -7312643.53246  22878685.9064   22878693.0234
        15.2504         13.5004
 -11029272.45948  -5081338.83247  20449614.9694   20449619.2704
        34.0004         35.0004
  13215982.08146  10353258.13146  23660017.5474   23660025.3914
        13.0004         12.0004
  -7701281.22648  -5874990.27647  20684069.1174   20684073.8754
        34.0004         31.5004
  -4787360.97345  -3673937.79745  24512590.2504   24512598.4694
         8.2504          8.0004
  -2916924.82243  -2449022.49055  24829513.5314   24829515.9224
         6.2504          5.2504
 02 12 26  0 29  0.0000000  0  8G30G 4G10G 5G 9G24G 6G 7
 -10480869.76847  -8110359.69746  22054377.2114   22054381.7234
        22.7504         18.0004
   4543381.40247   3738757.66446  22168882.8984   22168887.1764
        22.7504         18.2504
  -9575857.15246  -7350957.10246  22869329.3524   22869336.7624
        15.7504         12.7504
 -10996598.49548  -5055878.56247  20455832.7194   20455836.9844
        34.0004         35.0004
  13354657.65746  10461316.93946  23686406.2114   23686413.6804
        12.7504         12.0004
  -7622835.14948  -5813863.41647  20698997.0004   20699001.8874
        34.0004         31.5004
  -4816917.13645  -3696968.25745  24506966.2274   24506977.0004
         8.2504          8.0004
  -2797897.78643  -2356274.07644  24852163.4534   24852168.7734
         6.2504          4.7504
 02 12 26  0 29 30.0000000  0  8G30G 4G10G 5G 9G24G 6G 7
 -10516333.74047  -8137993.83546  22047628.5164   22047633.3094
        22.5004         17.7504
   4673670.36547   3840281.54746  22193676.1174   22193680.4654
        22.5004         17.7504
  -9624786.87446  -7389083.99646  22860017.1254   22860024.5004
        14.2504         13.5004
 -10963408.68048  -5030016.33147  20462148.4064   20462152.7424
        34.0004         35.0004
  13493461.76846  10569475.89746  23712819.9304   23712828.6414
        12.7504         12.2504
  -7543965.88848  -5752406.80147  20714005.1564   20714009.9844
        34.0004         31.5004
  -4846452.25144  -3719982.34245  24501344.9924   24501352.9414
         7.7504          7.5004
  -2678807.86142  -2263476.59245  24874820.4304   24874826.3954
         4.2504          5.5004
 02 12 26  0 30  0.0000000  0  8G30G 4G10G 5G 9G24G 6G 7
 -10551490.13947  -8165388.31246  22040937.8364   22040942.6644
        22.0004         18.0004
   4804198.90747   3941992.12346  22218514.8594   22218519.1604
        22.2504         18.0004
  -9673473.25846  -7427021.26046  22850753.1414   22850760.1174
        15.7504         13.2504
 -10929701.52648  -5003750.97647  20468562.6644   20468566.9654
        34.0004         35.0004
  13632391.90046  10677733.05145  23739257.4064   23739264.9924
        13.0004         11.7504
  -7464674.63148  -5690621.35547  20729093.7194   20729098.5234
        34.0004         31.7504
  -4875965.64945  -3742979.49745  24495729.2894   24495739.5704
         8.2504          8.0004
  -2559654.20843  -2170629.35945  24897497.8134   24897511.0944
         5.2504          5.2504
 02 12 26  0 30 30.0000000  0  8G30G 4G10G 5G 9G24G 6G 7
 -10586336.18447  -8192540.95546  22034307.1804   22034311.9964
        22.0004         17.7504
   4934964.91647   4043887.74246  22243398.4924   22243403.0634
        22.2504         18.0004
  -9721912.79846  -7464766.19746  22841534.9144   22841542.5594
        14.7504         13.5004
 -10895475.58548  -4977081.37147  20475075.5164   20475079.8284
        34.0004         35.0004
  13771445.36546  10786086.30445  23765718.4924   23765726.8284
        12.7504         11.2504
  -7384962.83348  -5628508.21147  20744262.3914   20744267.2664
        34.0004         31.7504
  -4905456.88645  -3765959.38845  24490115.7974   24490123.8984
         8.0004          8.2504
  -2440436.63043  -2077732.48545  24920185.7734   24920192.1604
         6.7504          6.2504
 02 12 26  0 31  0.0000000  0  8G30G 4G10G 5G 9G24G 6G 7
 -10620859.83847  -8219442.36646  22027737.1954   22027742.2114
        22.0004         17.7504
   5065975.48647   4145973.92746  22268329.2974   22268333.9734
        22.2504         18.0004
  -9770092.80746  -7502308.88246  22832366.4454   22832372.8094
        15.0004         13.5004
 -10860720.50148  -4949999.44647  20481689.1414   20481693.3714
        34.0004         35.0004
  13910628.80546  10894540.83245  23792204.0474   23792211.8324
        13.0004         11.5004
  -7304823.05648  -5566061.58147  20759512.4774   20759517.2934
        34.0004         31.7504
  -4934916.40445  -3788914.59345  24484512.3054   24484520.5824
         8.7504          8.2504
  -2321145.49643  -1984778.24445  24942885.1724   24942892.8164
         6.2504          5.7504
 02 12 26  0 31 30.0000000  0  8G30G 4G10G 5G 9G24G 6G 7
 -10655064.46047  -8246095.20046  22021228.3594   22021232.9304
        22.2504         18.0004
   5197222.18247   4248244.11246  22293304.4694   22293308.7344
        22.2504         18.0004
  -9818015.45846  -7539651.03546  22823247.0004   22823254.3754
        14.7504         13.5004
 -10825441.11548  -4922508.97747  20488402.6884   20488407.0124
        34.0004         35.0004
  14049933.29846  11003089.68045  23818714.1174   23818721.8914
        13.0004         11.2504
  -7224262.94248  -5503287.41147  20774842.4844   20774847.2074
        34.0004         31.7504
  -4964350.03845  -3811849.59845  24478908.2344   24478917.2504
         8.0004          8.5004
  -2201786.65143  -1891771.36844  24965597.9844   24965597.7034
         6.2504          4.7504
 02 12 26  0 32  0.0000000  0  8G30G 4G10G 5G 9G24G 6G 7
 -10688954.85747  -8272503.17446  22014778.8914   22014783.8834
        22.0004         18.2504
   5328695.03347   4350690.51946  22318323.0314   22318327.4964
        22.2504         18.2504
  -9865685.12746  -7576796.05546  22814174.7814   22814181.5084
        15.0004         13.7504
 -10789643.62448  -4894614.78847  20495214.6414   20495218.8364
        34.0004         35.2504
  14189348.20346  11111724.55345  23845242.3984   23845249.3874
        12.7504         11.0004
  -7143291.55948  -5440192.77347  20790250.8054   20790255.6094
        34.0004         31.7504
  -4993764.97745  -3834770.04445  24473313.2584   24473321.1954
         8.7504          8.5004
  -2082367.13245  -1798717.10445  24988324.7974   24988335.6994
         8.0004          8.0004
 02 12 26  0 32 30.0000000  0  8G30G 4G10G 5G 9G24G 6G 7
 -10722529.20547  -8298664.88846  22008390.0394   22008394.5634
        22.5004         18.2504
   5460391.33747   4453311.04946  22343384.0164   22343388.4344
        22.0004         18.2504
  -9913099.09946  -7613741.82346  22805153.8284   22805160.4614
        16.5004         13.7504
 -10753327.47548  -4866316.45447  20502125.3834   20502129.4614
        34.0004         35.2504
  14328870.03846  11220442.77745  23871794.3984   23871801.0084
        13.0004         11.2504
  -7061911.46348  -5376779.65847  20805736.7664   20805741.3834
        34.0004         31.7504
  -5023161.60545  -3857676.27045  24467718.1954   24467726.4144
         9.0004          7.5004
  -1962887.48543  -1705615.88445  25011057.1414   25011068.1024
         5.0004          6.5004
 02 12 26  0 33  0.0000000  0  8G30G 4G10G 5G 9G24G 6G 7
 -10755783.43247  -8324577.15446  22002061.9534   22002066.8754
        22.7504         18.5004
   5592310.09647   4556104.93046  22368487.3054   22368491.8524
        21.7504         18.0004
  -9960252.45146  -7650484.51746  22796179.9774   22796186.3754
        15.7504         13.7504
 -10716490.34848  -4837612.16447  20509135.2504   20509139.3634
        34.0004         35.2504
  14468497.12746  11329242.98545  23898363.7274   23898371.8984
        13.0004         10.7504
  -6980122.99748  -5313048.33347  20821300.5234   20821305.1414
        34.0004         31.7504
  -5052538.53745  -3880567.19845  24462127.6254   24462135.7854
         8.2504          8.0004
  -1843346.54543  -1612466.99445  25033806.7664   25033813.3634
         6.7504          5.7504
 02 12 26  0 33 30.0000000  0  8G30G 4G10G 5G 9G24G 6G 7
 -10788712.32947  -8350235.92046  21995795.6414   21995800.1764
        22.7504         18.2504
   5724451.44147   4659072.24446  22393632.8754   22393637.5984
        21.5004         18.2504
 -10007139.19246  -7687019.46546  22787257.0004   22787264.0474
        16.2504         14.5004
 -10679128.73448  -4808499.18447  20516244.9774   20516248.9964
        34.0004         35.5004
  14608229.40746  11438125.18145  23924954.4064   23924961.5124
        13.0004         10.7504
  -6897925.38048  -5248998.18847  20836942.2424   20836946.9304
        34.0004         31.7504
  -5081892.73745  -3903440.45045  24456541.9144   24456550.1564
         8.7504          7.7504
  -1723741.09843  -1519267.86745  25056567.9224   25056574.1454
         6.7504          5.0004
 02 12 26  0 34  0.0000000  0  8G30G 4G10G 5G 9G24G 6G 7
 -10821316.70447  -8375641.81646  21989591.0944   21989595.8054
        23.0004         18.7504
   5856809.63447   4762208.55046  22418819.5314   22418824.0084
        21.2504         17.5004
 -10053759.30246  -7723346.63746  22778385.3204   22778392.0704
        16.2504         14.7504
 -10641244.98748  -4778979.34247  20523453.8984   20523457.9884
        34.0004         35.5004
  14748060.60846  11547084.44945  23951563.5004   23951571.3674
        13.0004         10.7504
  -6815323.62448  -5184633.13447  20852660.7664   20852665.5004
        34.0004         31.5004
  -5111227.47845  -3926298.51845  24450959.9774   24450968.0664
         9.0004          7.7504
  -1604074.40344  -1426020.91745  25079338.9844   25079346.2894
         7.0004          5.2504
 02 12 26  0 34 30.0000000  0  8G30G 4G10G 5G 9G24G 6G 7
 -10853592.61847  -8400791.76746  21983449.1334   21983453.5164
        23.5004         19.0004
   5989383.67147   4865513.04346  22444047.5554   22444052.0204
        21.2504         17.5004
 -10100108.14646  -7759462.42946  22769566.0474   22769572.6564
        16.7504         14.7504
 -10602836.58648  -4749050.67847  20530762.8674   20530766.8284
        34.0004         35.5004
  14887989.06146  11656119.50845  23978190.6564   23978198.3014
        13.2504         11.0004
  -6732318.32748  -5119953.63647  20868455.9694   20868460.6564
        34.0004         31.5004
  -5140541.22845  -3949140.24645  24445381.2034   24445389.4104
         8.7504          8.2504
  -1484345.01544  -1332725.15145  25102124.5234   25102133.8324
         7.7504          5.7504
 02 12 26  0 35  0.0000000  0  8G30G 4G10G 5G 9G24G 6G 7
 -10885533.41447  -8425680.59846  21977370.9694   21977375.2584
        23.7504         19.0004
   6122175.47547   4968987.22046  22469317.0004   22469321.2664
        21.0004         17.0004
 -10146178.15346  -7795360.95646  22760798.6884   22760804.9804
        17.0004         14.2504
 -10563898.62748  -4718709.37147  20538172.4534   20538176.4734
        34.0004         35.5004
  15028016.05346  11765231.36045  24004836.8754   24004843.5084
        13.0004         10.7504
  -6648907.05448  -5054957.79347  20884328.6644   20884333.4924
        34.0004         31.2504
  -5169829.63145  -3971962.30645  24439808.5234   24439816.3554
         9.0004          8.2504
  -1364548.74643  -1239377.33145  25124917.1884   25124924.0314
         6.5004          6.2504
 02 12 26  0 35 30.0000000  0  8G30G 4G10G 5G 9G24G 6G 7
 -10917137.29147  -8450306.88546  21971356.9384   21971361.3914
        24.0004         19.0004
   6255181.73347   5072628.51746  22494627.0004   22494631.7704
        20.5004         17.0004
 -10191966.87346  -7831040.29146  22752085.3594   22752091.9924
        17.0004         15.0004
 -10524430.93648  -4687955.28447  20545682.7664   20545686.7034
        34.0004         35.7504
  15168137.74046  11874416.99145  24031500.7504   24031508.1374
        12.7504         11.2504
  -6565092.76848  -4989647.91947  20900277.9614   20900282.6604
        34.0004         31.2504
  -5199093.34245  -3994765.08645  24434238.5164   24434247.1804
         9.0004          8.2504
  -1244686.12842  -1145977.75744  25147724.9694   25147727.7344
         4.2504          4.2504
 02 12 26  0 36  0.0000000  0  8G30G 4G10G 5G 9G24G 6G 7
 -10948404.60947  -8474670.93746  21965406.9454   21965411.2704
        24.5004         19.2504
   6388397.18247   5176432.80546  22519977.0004   22519981.1844
        20.5004         16.5004
 -10237473.72146  -7866499.98346  22743425.5474   22743431.9694
        17.0004         15.0004
 -10484435.56548  -4656790.02147  20553293.6884   20553297.6724
        34.0004         35.5004
  15308348.31346  11983671.89545  24058182.1804   24058190.6564
        12.2504         11.0004
  -6480880.18848  -4924027.68747  20916303.2504   20916307.9264
        34.0004         31.5004
  -5228335.06045  -4017550.72945  24428673.3054   24428681.4184
         8.7504          7.7504
  -1124760.09143  -1052528.75845  25170547.6564   25170554.8204
         6.0004          6.0004
 02 12 26  0 36 30.0000000  0  8G30G 4G10G 5G 9G24G 6G 7
 -10979328.39047  -8498767.28546  21959522.0704   21959526.5354
        24.5004         19.2504
   6521824.06847   5280401.86946  22545367.6254   22545372.3364
        20.2504         16.2504
 -10282690.75146  -7901733.83746  22734820.7814   22734826.7464
        17.5004         15.2504
 -10443907.17848  -4625209.41547  20561005.9224   20561009.8484
        34.0004         35.5004
  15448649.22145  12092997.18245  24084880.8674   24084888.3134
        11.7504         11.0004
  -6396266.62848  -4858095.00247  20932404.6254   20932409.2074
        34.0004         31.2504
  -5257549.95145  -4040315.43245  24423115.1644   24423122.7854
         9.2504          8.7504
  -1004765.91045   -959026.68645  25193383.9454   25193386.6884
         8.0004          5.5004
 02 12 26  0 37  0.0000000  0  8G30G 4G10G 5G 9G24G 6G 7
 -11009910.12347  -8522597.10946  21953702.3914   21953706.7384
        24.5004         19.2504
   6655455.85847   5384530.58746  22570796.8834   22570801.4884
        20.0004         16.2504
 -10327619.00646  -7936742.68746  22726271.3754   22726278.1134
        17.7504         15.0004
 -10402849.11948  -4593216.08347  20568818.9454   20568822.8954
        34.0004         35.5004
  15589033.66745  12202387.54945  24111595.5634   24111604.1684
        11.5004         11.0004
  -6311257.93348  -4791854.42247  20948581.2344   20948585.7934
        34.0004         31.5004
  -5286741.96145  -4063062.32845  24417560.1804   24417567.2854
         9.5004          7.5004
   -884707.53443   -865474.43245  25216226.7114   25216235.6914
         5.0004          5.2504
 02 12 26  0 37 30.0000000  0  8G30G 4G10G 5G 9G24G 6G 7
 -11040149.29747  -8546159.99946  21947948.1024   21947952.1214
        24.7504         19.2504
   6789288.20347   5488815.57346  22596264.0394   22596268.5984
        20.0004         16.2504
 -10372257.15946  -7971525.47646  22717776.3914   22717783.0124
        17.2504         15.2504
 -10361262.56548  -4560810.93247  20576732.5554   20576736.5984
        34.0004         35.2504
  15729496.50845  12311839.00945  24138323.9614   24138331.9224
        11.0004         10.0004
  -6225858.07548  -4725309.03547  20964832.2664   20964837.0124
        34.0004         31.2504
  -5315912.94545  -4085792.78445  24412007.8444   24412014.2894
         9.5004          8.0004
   -764586.86943   -771873.93344  25239086.6644   25239092.3594
         5.2504          4.7504
 02 12 26  0 38  0.0000000  0  8G30G 4G10G 5G 9G24G 6G 7
 -11070056.71147  -8569464.38446  21942257.0944   21942261.2304
        24.7504         19.2504
   6923305.24947   5593244.49446  22621766.7584   22621771.2464
        20.0004         16.0004
 -10416615.25046  -8006090.02946  22709335.5474   22709341.6054
        17.5004         14.7504
 -10319160.09848  -4528003.77147  20584744.3914   20584748.4224
        34.0004         35.5004
  15870021.38245  12421338.81545  24165066.1024   24165074.5904
        11.0004         10.5004
  -6140082.27348  -4658470.70947  20981154.7734   20981159.3674
        34.0004         31.0004
  -5345076.13945  -4108517.15045  24406458.4454   24406467.0744
         9.5004          8.0004
   -644417.40243   -678235.25945  25261956.3204   25261963.2734
         6.7504          5.5004
 02 12 26  0 38 30.0000000  0  8G30G 4G10G 5G 9G24G 6G 7
 -11099614.26747  -8592496.13946  21936632.1334   21936636.0354
        24.7504         19.5004
   7057520.63746   5697827.94546  22647306.6094   22647311.5314
        19.7504         16.0004
 -10460674.28246  -8040421.56446  22700951.0314   22700957.8054
        17.5004         15.0004
 -10276525.21048  -4494781.73947  20592857.4924   20592861.5234
        34.0004         35.2504
  16010621.03645  12530896.88445  24191821.1724   24191830.0124
        11.0004         10.2504
  -6053916.97248  -4591328.87747  20997551.3594   20997555.9884
        34.0004         31.0004
  -5374215.62445  -4131223.05945  24400913.7894   24400922.1024
         9.5004          8.7504
   -524183.18043   -584546.10945  25284834.7114   25284844.7234
         5.7504          5.0004
 02 12 26  0 39  0.0000000  0  8G30G 4G10G 5G 9G24G 6G 7
 -12704236.40447  -9842850.96346  21631282.8594   21631287.0314
        25.2504         20.0004
   5616520.46946   4574970.70846  22373093.9694   22373098.4224
        19.7504         16.5004
 -12079848.33746  -9302115.43646  22392832.6094   22392839.0434
        17.7504         15.2504
 -11808771.51848  -5688739.85747  20301280.7114   20301284.7304
        34.0004         35.5004
  14575881.54045  11412917.96245  23918798.7344   23918807.0824
        10.7504         10.0004
  -7542776.80348  -5751479.35047  20714230.6564   20714235.3554
        34.0004         30.7504
  -6978748.17145  -5381508.08545  24095581.0314   24095589.0984
         9.5004          8.7504
  -1979295.90642  -1718400.01244  25007934.7584   25007942.6254
         4.5004          4.7504
 02 12 26  0 39 30.0000000  0  8G30G 4G10G 5G 9G24G 6G 7
 -12733072.40447  -9865320.47146  21625795.3834   21625799.5434
        25.2504         20.0004
   5751139.30846   4679868.55546  22398710.8754   22398715.5044
        19.7504         16.2504
 -12123285.01646  -9335962.02346  22384566.6484   22384573.3284
        17.5004         15.0004
 -11765055.13548  -5654675.09947  20309599.5314   20309603.5864
        34.0004         35.2504
  14716636.53445  11522597.08545  23945585.2114   23945592.9844
        11.0004         10.2504
  -7455823.79448  -5683723.71447  20730777.2194   20730782.0004
        33.7504         30.5004
  -7007825.59445  -5404165.42745  24090047.5944   24090054.6174
         9.2504          8.7504
  -1858917.59243  -1624598.58545  25030842.3364   25030850.0044
         5.7504          6.2504
 02 12 26  0 40  0.0000000  0  7G30G 4G10G 5G 9G24G 6
 -12761553.54447  -9887513.47046  21620375.7504   21620379.8874
        25.7504         20.7504
   5885946.47946   4784913.12946  22424363.8054   22424368.3284
        19.7504         16.2504
 -12166415.22246  -9369569.78746  22376358.8284   22376365.4844
        17.5004         15.2504
 -11720806.76748  -5620195.80647  20318019.7114   20318023.7304
        34.0004         35.0004
  14857455.01345  11632325.66545  23972380.8914   23972388.3834
        10.7504         10.0004
  -7368489.29148  -5615670.80447  20747396.3444   20747401.1134
        33.7504         30.2504
  -7036881.26145  -5426805.95445  24084518.2974   24084524.5784
         9.5004          8.2504
 02 12 26  0 40 30.0000000  0  7G30G 4G10G 5G 9G24G 6
 -12789672.66847  -9909424.38046  21615024.8674   21615028.9454
        26.2504         20.7504
   6020944.57046   4890106.48746  22450053.3364   22450057.4614
        19.7504         16.0004
 -12209231.06846  -9402932.60746  22368211.0944   22368217.3754
        17.5004         15.7504
 -11676021.05548  -5585297.80547  20326542.0944   20326546.1724
        34.0004         35.0004
  14998338.66845  11742105.02445  23999190.2274   23999197.7074
        10.7504         10.2504
  -7280770.80648  -5547318.68447  20764088.5704   20764093.3164
        33.7504         30.5004
  -7065910.58245  -5449425.97245  24078993.4304   24079000.8754
         9.2504          7.5004
 02 12 26  0 41  0.0000000  0  7G30G 4G10G 5G 9G24G 6
 -12817429.84047  -9931053.25546  21609742.7814   21609746.5664
        26.5004         20.7504
   6156128.66146   4995444.76846  22475777.6724   22475782.0084
        19.2504         16.0004
 -12251731.98746  -9436050.02746  22360123.4384   22360129.4734
        17.7504         15.5004
 -11630699.79248  -5549982.49347  20335166.3364   20335170.4494
        34.0004         35.0004
  15139282.05245  11851930.93045  24026011.9064   24026018.5634
        11.0004          9.7504
  -7192673.14448  -5478671.10747  20780853.1094   20780857.7974
        34.0004         30.2504
  -7094915.79745  -5472027.21645  24073474.4774   24073481.1454
         9.5004          8.7504
 02 12 26  0 41 30.0000000  0  7G30G 4G10G 5G 9G24G 6
 -12844814.32147  -9952391.71846  21604531.7424   21604535.4694
        26.5004         21.0004
   6291504.78146   5100932.68846  22501538.9774   22501543.0554
        19.2504         15.7504
 -12293906.33846  -9468912.98346  22352098.2274   22352104.5084
        18.0004         15.2504
 -11584834.17648  -5514243.00947  20343894.2194   20343898.2504
        34.0004         35.0004
  15280290.43345  11961807.50745  24052843.9774   24052851.0944
        11.2504          9.2504
  -7104189.75148  -5409722.95447  20797690.6484   20797695.2664
        33.7504         30.2504
  -7123888.58145  -5494603.15945  24067961.7974   24067968.4414
         9.5004          8.5004
 02 12 26  0 42  0.0000000  0  7G30G 4G10G 5G 9G24G 6
 -12871832.70947  -9973444.91846  21599390.2114   21599394.2304
        26.7504         21.2504
   6427061.21246   5206561.10646  22527334.6954   22527338.9144
        19.2504         15.5004
 -12335760.12746  -9501526.14346  22344132.9774   22344139.5394
        17.7504         15.5004
 -11538432.57948  -5478085.88147  20352724.1334   20352728.2344
        34.0004         34.7504
  15421351.72445  12071725.28445  24079687.3834   24079693.6294
        11.0004          9.5004
  -7015331.86848  -5340482.99347  20814599.8134   20814604.5474
        33.7504         30.0004
  -7152837.79245  -5517160.78845  24062451.4844   24062456.7584
         9.5004          9.0004
 02 12 26  0 42 30.0000000  0  7G30G 4G10G 5G 9G24G 6
 -12898485.55547  -9994213.26546  21594318.1644   21594322.1844
        26.7504         21.2504
   6562793.04546   5312326.19346  22553163.0474   22553167.0314
        18.7504         15.2504
 -12377293.07346  -9533889.31646  22336228.8984   22336235.1684
        17.2504         15.7504
 -11491497.31348  -5441512.90747  20361655.7584   20361659.7894
        34.0004         35.0004
  15562460.10645  12181679.74745  24106539.2114   24106546.7034
        10.7504          9.2504
  -6926104.30348  -5270954.96847  20831579.1644   20831583.8054
        33.7504         30.0004
  -7181766.01045  -5539702.04345  24056946.6414   24056955.0944
         9.5004          9.0004
 02 12 26  0 43  0.0000000  0  7G30G 4G10G 5G 9G24G 6
 -12924760.97647 -10014687.52746  21589318.0314   21589322.1454
        26.7504         20.7504
   6698706.87546   5418233.11746  22579027.0474   22579031.3834
        18.2504         15.5004
 -12418492.61746  -9565992.68446  22328388.9694   22328395.0984
        17.7504         15.5004
 -11444018.73848  -5404516.57447  20370690.5394   20370694.5234
        34.0004         34.7504
  15703621.84445  12291675.80545  24133400.9064   24133407.6564
        10.5004          9.2504
  -6836499.44548  -5201132.94747  20848630.4844   20848635.1954
        33.7504         30.2504
  -7210663.86145  -5562219.65345  24051447.4774   24051454.0274
         9.7504          9.0004
 02 12 26  0 43 30.0000000  0  7G30G 4G10G 5G 9G24G 6
 -12950660.55247 -10034868.91546  21584389.4144   21584393.3054
        26.7504         21.0004
   6834796.71746   5524277.17846  22604923.7814   22604927.8014
        18.0004         15.0004
 -12459359.51146  -9597836.84946  22320612.3834   22320618.3134
        18.5004         16.0004
 -11396000.17048  -5367099.46747  20379828.2274   20379832.1414
        34.0004         34.7504
  15844830.19745  12401708.17345  24160274.3914   24160281.5314
        11.0004          8.5004
  -6746523.90148  -5131022.08647  20865752.3204   20865756.7974
        34.0004         30.2504
  -7239535.10545  -5584716.56145  24045953.7814   24045960.4144
        10.0004          8.7504
 02 12 26  0 44  0.0000000  0  7G30G 4G10G 5G 9G24G 6
 -12976178.55347 -10054752.97446  21579533.3134   21579537.5204
        26.7504         21.2504
   6971063.21246   5630458.89446  22630854.5554   22630858.7384
        17.7504         14.7504
 -12499887.08446  -9629416.61546  22312900.1724   22312906.5594
        19.2504         16.0004
 -11347437.92548  -5329258.71647  20389069.3754   20389073.2774
        34.0004         35.0004
  15986085.31845  12511777.00345  24187152.6094   24187159.5044
        10.7504          8.5004
  -6656176.00748  -5060621.08447  20882944.9774   20882949.4534
        34.0004         30.2504
  -7268376.34445  -5607190.04445  24040465.5394   24040473.5004
        10.0004          8.7504
 02 12 26  0 44 30.0000000  0  7G30G 4G10G 5G 9G24G 6
 -13001320.23847 -10074343.79646  21574748.8364   21574752.6684
        26.7504         21.2504
   7107496.74646   5736770.78546  22656817.1174   22656821.0904
        17.7504         14.5004
 -12540080.01547  -9660735.61946  22305252.0944   22305258.0004
        20.2504         16.5004
 -11298338.78748  -5290999.60747  20398412.4454   20398416.2664
        34.0004         34.7504
  16127376.71845  12621874.11245  24214040.4304   24214046.9804
        11.0004          8.0004
  -6565465.43848  -4989937.47547  20900206.5634   20900210.9344
        34.0004         30.2504
  -7297195.03345  -5629646.00145  24034980.2034   24034986.8714
        10.0004          9.2504
 02 12 26  0 45  0.0000000  0  7G30G 4G10G 5G 9G24G 6
 -13026082.13447 -10093638.67746  21570036.6644   21570040.6254
        26.7504         21.2504
   7244095.72146   5843211.58146  22682810.2734   22682814.1884
        17.5004         14.7504
 -12579933.90047  -9691790.42746  22297668.0004   22297673.9184
        20.0004         16.7504
 -11248701.42148  -5252321.09947  20407858.2274   20407862.0004
        34.0004         34.7504
  16268702.58845  12731998.09245  24240932.3914   24240939.8834
        10.5004          8.5004
  -6474393.43248  -4918972.23047  20917537.0704   20917541.2774
        34.0004         30.2504
  -7325989.91245  -5652083.35645  24029501.3984   24029507.2344
        10.2504          9.0004
 02 12 26  0 45 30.0000000  0  7G30G 4G10G 5G 9G24G 6
 -13050455.26047 -10112630.62946  21565398.6884   21565402.5904
        26.7504         21.2504
   7380864.50046   5949784.70146  22708837.0314   22708841.6604
        17.7504         14.7504
 -12619439.27147  -9722573.67646  22290150.8054   22290156.7114
        20.5004         16.5004
 -11198518.88948  -5213217.78947  20417407.6254   20417411.2934
        34.0004         35.0004
  16410066.56845  12842151.77045  24267833.9304   24267840.6094
        10.5004          8.5004
  -6382955.44848  -4847721.81347  20934937.1484   20934941.3554
        34.0004         30.2504
  -7354754.33245  -5674497.00545  24024027.2424   24024033.2304
        10.2504          9.2504
 02 12 26  0 46  0.0000000  0  7G30G 4G10G 5G 9G24G 6
 -13074442.84147 -10131322.15346  21560833.7664   21560837.6454
        27.0004         21.2504
   7517795.37346   6056484.12946  22734894.1254   22734898.4734
        17.5004         14.7504
 -12658598.66147  -9753087.32446  22282698.5634   22282704.3754
        21.0004         17.0004
 -11147796.19748  -5173693.57347  20427059.7664   20427063.5984
        34.0004         35.0004
  16551460.15045  12952328.49345  24294740.6414   24294749.3754
        10.2504          8.7504
  -6291159.09348  -4776192.14947  20952405.1644   20952409.4414
        34.0004         30.2504
  -7383493.62045  -5696891.01245  24018558.1024   24018564.1254
        10.5004          9.2504
 02 12 26  0 46 30.0000000  0  7G30G 4G10G 5G 9G24G 6
 -13098039.74247 -10149709.24446  21556343.2974   21556347.1294
        27.0004         21.5004
   7654888.35746   6163309.88146  22760981.9614   22760985.9804
        17.5004         15.2504
 -12697405.95347  -9783326.61946  22275313.3054   22275319.3524
        20.2504         16.7504
 -11096530.33248  -5133746.10647  20436815.2504   20436819.1174
        34.0004         35.0004
  16692882.86445  13062527.92845  24321652.4844   24321660.4924
         9.7504          8.7504
  -6199003.46948  -4704382.53747  20969941.8284   20969945.9534
        34.0004         30.2504
  -7412204.95145  -5719263.28445  24013094.0864   24013100.8244
        10.5004          9.7504
 02 12 26  0 47  0.0000000  0  7G30G 4G10G 5G 9G24G 6
 -13121238.54047 -10167786.13246  21551928.7034   21551932.7114
        27.0004         21.2504
   7792146.49146   6270264.33046  22787101.0944   22787105.5124
        17.7504         14.7504
 -12735853.22047  -9813285.37646  22267996.9844   22268002.8204
        20.2504         16.7504
 -11044715.94148  -5093371.21647  20446675.2424   20446679.0164
        34.0004         35.0004
  16834336.61045  13172751.55945  24348570.0314   24348577.5594
         9.5004          9.0004
  -6106485.89448  -4632290.88647  20987547.2974   20987551.7034
        34.0004         30.0004
  -7440883.13245  -5741609.67745  24007637.1334   24007644.0274
        11.0004         10.0004
 02 12 26  0 47 30.0000000  0  7G30G 4G10G 5G 9G24G 6
 -13144049.90847 -10185561.12446  21547587.6724   21547591.4694
        27.0004         21.5004
   7929554.33746   6377335.42246  22813249.1094   22813253.3874
        17.7504         14.5004
 -12773950.29647  -9842971.25346  22260747.0944   22260752.8014
        20.0004         17.0004
 -10992365.65548  -5052578.74547  20456637.0634   20456640.9064
        34.0004         35.2504
  16975806.01645  13282987.34945  24375491.4144   24375501.0984
         9.0004          9.5004
  -6013621.39748  -4559928.90947  21005218.8364   21005222.9734
        34.0004         30.0004
  -7469540.85345  -5763940.11145  24002183.4694   24002189.2934
        11.0004          9.5004
 02 12 26  0 48  0.0000000  0  7G30G 4G10G 5G 9G24G 6
 -13166470.37647 -10203031.51746  21543321.2114   21543324.9144
        27.0004         21.5004
   8067110.73346   6484522.27246  22839425.2424   22839429.4734
        17.5004         14.5004
 -12811692.73047  -9872380.78546  22253564.8054   22253570.6414
        20.0004         17.0004
 -10939478.37848  -5011367.84147  20466701.0864   20466704.9534
        34.0004         35.2504
  17117288.96145  13393233.72645  24402411.2424   24402419.2974
         8.2504          8.5004
  -5920411.30948  -4487297.63947  21022956.1644   21022960.3714
        34.0004         29.7504
  -7498177.14345  -5786253.85645  23996734.3444   23996742.0474
        11.0004          9.5004
 02 12 26  0 48 30.0000000  0  7G30G 4G10G 5G 9G24G 6
 -13188482.77747 -10220183.93846  21539132.1414   21539135.8444
        27.2504         22.0004
   8204828.02546   6591834.50446  22865631.6174   22865635.8834
        17.5004         14.7504
 -12849062.72847  -9901500.11646  22246453.3834   22246459.4884
        20.2504         17.0004
 -10886039.01648  -4969726.73947  20476870.3524   20476874.2894
        34.0004         35.0004
  17258797.47145  13503500.01545  24429343.7034   24429353.0944
         9.2504          8.7504
  -5826842.46848  -4414386.82147  21040761.7194   21040765.8674
        34.0004         29.7504
  -7526776.94045  -5808539.16845  23991292.3444   23991299.5904
        11.0004          9.5004
 02 12 26  0 49  0.0000000  0  7G30G 4G10G 5G 9G24G 6
 -13210093.76447 -10237023.56446  21535019.7894   21535023.6454
        27.7504         22.0004
   8342694.88246   6699263.28146  22891867.6484   22891871.5164
        17.5004         14.2504
 -12886066.26547  -9930333.88046  22239411.5004   22239417.4064
        20.5004         17.0004
 -10832056.01848  -4927662.02547  20487142.9064   20487146.7734
        34.0004         35.0004
  17400319.61145  13613776.89545  24456273.9614   24456281.7704
         9.0004          9.0004
  -5732926.25148  -4341205.32347  21058633.3134   21058637.4614
        34.0004         29.7504
  -7555348.86645  -5830802.79445  23985853.7894   23985860.5164
        10.7504          9.7504
 02 12 26  0 49 30.0000000  0  7G30G 4G10G 5G 9G24G 6
 -13231300.65147 -10253548.31146  21530984.2344   21530988.1844
        27.7504         22.5004
   8480709.46846   6806807.16746  22918130.8594   22918135.1024
        17.2504         14.2504
 -12922700.07147  -9958879.54946  22232440.2344   22232445.9414
        20.5004         17.2504
 -10777528.92648  -4885173.34147  20497519.2114   20497522.9144
        34.0004         35.2504
  17541852.51645  13724062.20345  24483206.7424   24483215.4184
         8.7504          8.5004
  -5638664.60248  -4267754.65347  21076570.6334   21076574.9694
        33.7504         29.5004
  -7583892.57945  -5853044.44245  23980421.9614   23980427.6334
        10.5004         10.0004
 02 12 26  0 50  0.0000000  0  7G30G 4G10G 5G 9G24G 6
 -13252100.01348 -10269755.50946  21527026.1484   21527029.9224
        28.0004         22.5004
   8618870.49846   6914465.16346  22944421.9224   22944425.6024
        16.7504         13.7504
 -12958959.83447  -9987133.74646  22225540.4224   22225546.1054
        20.2504         17.5004
 -10722456.27348  -4842259.55047  20507999.1024   20508002.7344
        34.0004         35.0004
  17683394.62745  13834354.64245  24510141.7344   24510150.6454
         9.0004          8.5004
  -5544058.06648  -4194035.23647  21094573.6564   21094578.0164
        34.0004         29.2504
  -7612406.57845  -5875262.89245  23974996.4844   23975002.5434
        10.7504          9.2504
 02 12 26  0 50 30.0000000  0  7G30G 4G10G 5G 9G24G 6
 -13272501.67048 -10285652.80846  21523143.8754   21523147.6484
        28.2504         22.5004
   8757163.82746   7022226.23146  22970738.0164   22970742.2704
        16.5004         13.7504
 -12994854.76047 -10015103.65446  22218709.8594   22218715.8484
        21.0004         17.5004
 -10666850.01848  -4798929.96047  20518580.6174   20518584.2504
        34.0004         35.0004
  17824930.82745  13944642.48445  24537074.5704   24537083.2234
         8.7504          8.0004
  -5449120.98748  -4120058.25247  21112639.6024   21112643.8554
        33.7504         29.2504
  -7640902.87345  -5897467.57845  23969573.0314   23969580.1954
        10.2504          9.5004
 02 12 26  0 51  0.0000000  0  7G30G 4G10G 5G 9G24G 6
 -13292491.38048 -10301229.11246  21519340.0474   21519343.8914
        28.5004         22.7504
   8895599.05846   7130097.88746  22997081.3834   22997085.3914
        16.2504         13.5004
 -13030369.78547 -10042777.53246  22211951.2894   22211957.2194
        20.5004         17.5004
 -10610698.13948  -4755175.20847  20529265.9924   20529269.5314
        34.0004         35.0004
  17966470.11645  14054932.72445  24564009.3364   24564019.4414
         8.5004          8.0004
  -5353843.60148  -4045816.09347  21130770.1174   21130774.4884
        33.7504         29.0004
  -7669369.26445  -5919648.95945  23964156.3054   23964163.0664
        10.5004          9.2504
 02 12 26  0 51 30.0000000  0  7G30G 4G10G 5G 9G24G 6
 -13312059.41748 -10316476.83546  21515616.1724   21515619.5594
        28.7504         22.5004
   9034181.21146   7238084.03546  23023452.0634   23023455.3324
        16.0004         13.2504
 -13065494.41747 -10070147.20146  22205266.8364   22205272.8834
        20.2504         17.2504
 -10553993.18548  -4710989.49347  20540056.5004   20540060.1454
        34.0004         35.0004
  18108016.86445  14165228.78645  24590944.3204   24590953.3134
         9.0004          8.2504
  -5258220.91248  -3971304.86247  21148966.4304   21148970.8134
        33.7504         29.0004
  -7697798.32145  -5941801.26845  23958745.7894   23958753.2934
        10.2504          9.7504
 02 12 26  0 52  0.0000000  0  7G30G 4G10G 5G 9G24G 6
 -13331207.78748 -10331397.54946  21511972.2734   21511975.6484
        28.7504         22.5004
   9172903.63946   7346179.47646  23049850.6024   23049854.5984
        15.7504         13.2504
 -13100230.06047 -10097213.76746  22198657.0234   22198662.7424
        20.2504         17.5004
 -10496739.20248  -4666375.96447  20550951.3984   20550955.0554
        34.0004         35.0004
  18249563.92945  14275525.10645  24617880.1254   24617889.1174
         9.0004          8.5004
  -5162259.08848  -3896529.36847  21167227.4144   21167231.7274
        33.7504         28.7504
  -7726194.07045  -5963927.61945  23953342.2344   23953349.8914
        10.5004          9.7504
 02 12 26  0 52 30.0000000  0  7G30G 4G10G 5G 9G24G 6
 -13349940.57248 -10345994.43446  21508407.6414   21508410.9924
        29.0004         22.5004
   9311757.84046   7454377.59946  23076273.3984   23076277.3244
        15.7504         13.2504
 -13134580.30947 -10123980.02846  22192120.1564   22192126.2274
        20.2504         17.5004
 -10438942.42948  -4621339.48547  20561949.6884   20561953.5434
        34.0004         35.0004
  18391102.02245  14385814.41645  24644814.7114   24644823.2114
         9.7504          8.7504
  -5065966.67248  -3821496.27647  21185551.2504   21185555.5634
        33.5004         28.7504
  -7754562.68445  -5986032.85045  23947943.0554   23947949.8524
        10.5004         10.2504
 02 12 26  0 53  0.0000000  0  7G30G 4G10G 5G 9G24G 6
 -13368252.33448 -10360263.24846  21504922.8524   21504926.0394
        29.0004         22.7504
   9450744.64446   7562679.06546  23102721.7814   23102725.7544
        15.5004         13.0004
 -13168538.88847 -10150441.08846  22185657.6884   22185663.6054
        20.5004         17.5004
 -10380599.96948  -4575877.79547  20573051.8914   20573055.7114
        34.0004         34.7504
  18532631.31045  14496096.89545  24671746.5634   24671756.7154
         9.7504          8.5004
  -4969342.94448  -3746205.01247  21203937.9384   21203942.3554
        33.5004         28.2504
  -7782901.04445  -6008114.51745  23942550.9534   23942557.5864
        10.7504          9.5004
 02 12 26  0 53 30.0000000  0  7G30G 4G10G 5G 9G24G 6
 -13386145.55148 -10374205.93246  21501517.6804   21501520.9494
        29.0004         22.5004
   9589857.12146   7671078.42646  23129194.3674   23129198.5514
        15.7504         12.7504
 -13202107.40447 -10176598.20746  22179270.1724   22179275.7384
        21.2504         17.5004
 -10321716.39648  -4529994.45847  20584257.1094   20584261.0354
        34.0004         34.7504
  18674144.33845  14606366.69745  24698673.2344   24698681.8754
         9.2504          8.7504
  -4872394.45448  -3670660.68647  21222386.6954   21222391.0784
        33.2504         28.2504
  -7811213.54745  -6030176.00845  23937163.1174   23937169.2344
        10.7504         10.0004
 02 12 26  0 54  0.0000000  0  7G30G 4G10G 5G 9G24G 6
 -13403607.10948 -10387812.25246  21498194.8524   21498198.0984
        29.0004         22.5004
   9729103.74146   7779582.33746  23155691.6954   23155696.0554
        15.2504         12.7504
 -13235272.03847 -10202440.61046  22172958.7344   22172964.6294
        21.2504         17.5004
 -10262280.68548  -4483680.88347  20595567.2114   20595571.0664
        34.0004         34.7504
  18815649.01545  14716629.99745  24725603.8284   24725612.5514
        10.0004          8.0004
  -4775112.73048  -3594856.69647  21240898.6644   21240903.0004
        33.2504         28.2504
  -7839489.04645  -6052208.63445  23931782.8204   23931789.0084
        11.0004         10.0004
 02 12 26  0 54 30.0000000  0  7G30G 4G10G 5G 9G24G 6
 -13420640.02048 -10401084.56546  21494953.6484   21494956.8134
        29.0004         22.5004
   9868477.27046   7888185.11546  23182213.3834   23182217.1564
        15.2504         12.7504
 -13268035.14547 -10227970.13346  22166724.3754   22166730.0944
        21.5004         17.5004
 -10202298.20848  -4436941.25847  20606981.3984   20606985.1254
        34.0004         34.7504
  18957137.35545  14826880.59545  24752525.6644   24752537.2114
         9.5004          8.7504
  -4677505.08848  -3518798.74647  21259472.8284   21259477.0004
        33.0004         28.2504
  -7867732.55245  -6074216.37645  23926407.5864   23926415.5944
        11.2504         10.2504
 02 12 26  0 55  0.0000000  0  7G30G 4G10G 5G 9G24G 6
 -13437241.10948 -10414020.39746  21491794.3834   21491797.5944
        29.2504         22.7504
  10007976.42846   7996885.80646  23208759.1024   23208763.1094
        15.2504         12.7504
 -13300393.03447 -10253183.91346  22160566.4144   22160572.0864
        21.5004         17.7504
 -10141767.83048  -4389774.69747  20618500.0474   20618503.7504
        34.0004         34.2504
  19098607.09645  14937116.69345  24779446.1094   24779454.6094
         9.2504          8.0004
  -4579572.54648  -3442487.62447  21278108.6334   21278112.9574
        33.0004         28.0004
  -7895942.85445  -6096198.22745  23921039.1094   23921045.3914
        11.7504         10.2504
 02 12 26  0 55 30.0000000  0  7G30G 4G10G 5G 9G24G 6
 -13453413.47648 -10426622.15746  21488716.9534   21488720.0944
        29.5004         22.7504
  10147593.34946   8105678.24846  23235327.6884   23235331.6484
        15.2504         12.7504
 -13332347.91547 -10278083.64846  22154485.6954   22154491.0394
        21.7504         18.2504
 -10080694.79548  -4342185.28847  20630121.7274   20630125.3834
        34.0004         34.2504
  19240050.29745  15047332.11845  24806362.2584   24806371.6484
         8.7504          7.2504
  -4481322.89648  -3365929.40647  21296805.0164   21296809.4574
        33.2504         28.0004
  -7924125.29246  -6118158.38245  23915676.7974   23915682.8794
        12.0004         10.0004
 02 12 26  0 56  0.0000000  0  7G30G 4G10G 5G 9G24G 6
 -15044574.48448 -11666487.79946  21185928.9774   21185932.2584
        29.7504         23.2504
   8711911.64746   6986965.26846  22962126.2114   22962130.1724
        15.0004         12.7504
 -14939316.94847 -11530267.14846  21848689.3444   21848694.6524
        22.0004         18.2504
 -11594496.45848  -5521770.96847  20342055.0634   20342058.6484
        34.0004         34.2504
  17806049.68545  13929928.95545  24533481.6334   24533489.9694
         8.7504          8.0004
  -5958173.88648  -4516722.33547  21015769.4534   21015773.5904
        33.2504         28.0004
  -9527699.65146  -7367696.67345  23610526.2034   23610532.2734
        12.2504         10.5004
 02 12 26  0 56 30.0000000  0  7G30G 4G10G 5G 9G24G 6
 -15059883.20648 -11678416.59346  21183015.7274   21183018.8674
        30.0004         23.2504
   8851757.53646   7095936.12346  22988738.1094   22988742.3984
        14.7504         12.5004
 -14970457.47147 -11554532.33046  21842763.4924   21842768.3914
        22.5004         18.0004
 -11532339.25448  -5473336.75247  20353883.1024   20353886.6764
        34.0004         34.2504
  17947430.45245  14040095.72345  24560387.0234   24560396.6134
         9.0004          7.5004
  -5859296.54748  -4439675.01047  21034585.2114   21034589.4414
        33.2504         28.0004
  -9555826.06346  -7389613.19645  23605173.7734   23605179.8094
        12.2504         10.2504
 02 12 26  0 57  0.0000000  0  7G30G 4G10G 5G 9G24G 6
 -15074749.02748 -11690000.27146  21180186.6724   21180190.0004
        30.0004         23.5004
   8991722.11046   7204999.45946  23015372.3594   23015376.6604
        14.5004         12.7504
 -15001178.95647 -11578470.99346  21836917.6024   21836922.5004
        23.0004         18.5004
 -11469632.17648  -5424474.06447  20365815.8364   20365819.3634
        34.0004         34.0004
  18088783.33945  14150240.75545  24587283.7034   24587293.0704
         8.0004          7.7504
  -5760100.96148  -4362379.69547  21053461.5084   21053465.5864
        33.5004         28.0004
  -9583916.33146  -7411501.55745  23599828.4224   23599834.7274
        12.5004         10.2504
 02 12 26  0 57 30.0000000  0  7G30G 4G10G 5G 9G24G 6
 -15089166.65548 -11701234.70746  21177443.1094   21177446.6254
        30.0004         23.7504
   9131806.75246   7314156.35646  23042029.1954   23042033.6254
        14.2504         12.2504
 -15031475.29347 -11602078.36846  21831151.9694   21831156.8914
        23.0004         18.7504
 -11406372.22648  -5375180.56847  20377853.8054   20377857.2624
        34.0004         34.2504
  18230108.70145  14260364.33645  24614178.7504   24614188.7274
         8.0004          7.5004
  -5660586.46748  -4284835.88647  21072398.5084   21072402.6914
        33.2504         28.0004
  -9611967.06146  -7433359.08945  23594490.6094   23594496.8794
        12.5004         10.2504
 02 12 26  0 58  0.0000000  0  7G30G 4G10G 5G 9G24G 6
 -15103141.89748 -11712124.42846  21174783.7344   21174787.3094
        29.7504         23.7504
   9272000.97846   7423398.65146  23068707.1484   23068712.0234
        14.0004         12.2504
 -15061351.50547 -11625358.38446  21825466.8204   21825471.6254
        23.2504         18.7504
 -11342567.70048  -5325462.72447  20389995.2664   20389998.7934
        34.0004         34.2504
  18371395.57244  14370457.89345  24641063.4614   24641073.0394
         7.7504          8.0004
  -5560762.97948  -4207051.30347  21091394.2664   21091398.4734
        33.0004         27.7504
  -9639986.01446  -7455191.89245  23589159.4384   23589164.7584
        12.7504         11.0004
 02 12 26  0 58 30.0000000  0  7G30G 4G10G 5G 9G24G 6
 -15116682.26148 -11722675.28246  21172206.9844   21172210.2664
        30.0004         24.0004
   9412292.91546   7532717.05245  23095404.2034   23095408.5634
        14.0004         11.7504
 -15090814.44647 -11648316.37846  21819859.7274   21819864.8594
        23.0004         19.0004
 -11278228.52448  -5275328.26847  20402238.6724   20402242.1414
        34.0004         34.2504
  18512631.73144  14480512.01645  24667938.8754   24667946.4614
         7.5004          7.0004
  -5460642.39148  -4129035.20947  21110446.3674   21110450.6804
        33.0004         27.5004
  -9667982.67946  -7477007.31045  23583830.8674   23583836.3284
        12.7504         10.5004
 02 12 26  0 59  0.0000000  0  7G30G 4G10G 5G 9G24G 6
 -15129763.70348 -11732868.53046  21169717.5004   21169721.1804
        30.0004         24.0004
   9552702.41646   7642127.10446  23122122.8204   23122127.0744
        13.7504         12.2504
 -15119839.50647 -11670933.16246  21814336.6644   21814341.6564
        23.2504         19.5004
 -11213332.85148  -5224760.17847  20414587.8204   20414591.3714
        34.0004         34.5004
  18653836.10444  14590541.28345  24694810.5634   24694819.6954
         7.2504          7.7504
  -5360204.83148  -4050772.12647  21129559.0004   21129563.3014
        33.0004         27.5004
  -9695934.82746  -7498788.07745  23578510.8914   23578516.1994
        12.5004         11.2504
 02 12 26  0 59 30.0000000  0  7G30G 4G10G 5G 9G24G 6
 -15142387.73348 -11742705.35946  21167315.0554   21167318.6294
        30.0004         24.0004
   9693223.60846   7751624.16945  23148863.2814   23148867.4184
        13.5004         11.7504
 -15148427.49547 -11693209.37446  21808896.1954   21808901.2814
        23.2504         19.0004
 -11147884.63248  -5173761.53147  20427042.2424   20427045.9104
        34.0004         34.0004
  18795002.03245  14700540.65645  24721675.1564   24721684.1374
         8.0004          7.7504
  -5259456.44548  -3972266.84447  21148730.6804   21148735.0864
        32.5004         27.2504
  -9723845.84846  -7520536.75145  23573200.8524   23573207.0164
        12.7504         10.5004
 02 12 26  1  0  0.0000000  0  7G30G 4G10G 5G 9G24G 6
 -15154566.43248 -11752195.17746  21164997.6094   21165001.0084
        30.2504         24.2504
   9833840.12446   7861195.51745  23175621.3754   23175625.3714
        13.2504         11.7504
 -15176589.89247 -11715153.96046  21803536.8204   21803542.0234
        23.2504         19.7504
 -11081898.30748  -5122343.57847  20439599.0164   20439602.6844
        34.0004         34.2504
  18936112.98245  14810497.20645  24748527.9064   24748537.2034
         8.2504          7.5004
  -5158413.57848  -3893532.08847  21167958.7114   21167963.1294
        32.7504         27.2504
  -9751729.72046  -7542264.31145  23567893.9384   23567900.0784
        12.5004         11.5004
 02 12 26  1  0 30.0000000  0  7G30G 4G10G 5G 9G24G 6
 -15166291.66448 -11761331.63646  21162766.3524   21162769.7734
        30.5004         24.5004
   9974555.69446   7970844.04045  23202398.7194   23202402.5514
        13.2504         11.2504
 -15204317.74747 -11736759.94446  21798260.4614   21798265.8284
        23.0004         19.2504
 -11015368.08548  -5070501.81347  20452259.1644   20452262.8794
        34.0004         34.0004
  19077171.81344  14920413.15845  24775367.2274   24775375.5634
         7.5004          7.7504
  -5057072.15348  -3814564.69047  21187243.1954   21187247.5084
        33.0004         27.5004
  -9779580.27346                  23562594.1884
        12.7504
 02 12 26  1  1  0.0000000  0  7G30G 4G10G 5G 9G24G 6
 -15177555.25348 -11770108.37546  21160623.0314   21160626.1604
        30.7504         24.2504
  10115374.33346   8080572.90345  23229196.6334   23229200.9344
        13.5004         11.5004
 -15231602.24347 -11758020.44846  21793068.1954   21793073.6334
        22.7504         19.5004
 -10948288.09048  -5018231.65347  20465023.9454   20465027.6134
        34.0004         34.0004
  19218181.70544  15030290.93845  24802202.0004   24802210.5594
         7.5004          7.7504
  -4955428.28148  -3735361.63047  21206585.3984   21206589.7934
        33.0004         27.2504
  -9807391.05846                  23557301.6724
        12.5004
 02 12 26  1  1 30.0000000  0  7G30G 4G10G 5G 9G24G 6
 -15188356.43748 -11778524.79346  21158567.4924   21158570.6914
        31.5004         24.7504
  10256292.50546   8190379.31745  23256011.3754   23256015.0554
        13.2504         11.5004
 -15258442.01547 -11778934.41546  21787960.4224   21787965.9884
        22.7504         19.7504
 -10880660.36748  -4965534.69047  20477893.2034   20477896.8244
        34.0004         34.0004
  19359138.32945  15140127.14045  24829026.5004   24829045.1724
         8.2504          5.2504
  -4853485.89348  -3655925.95247  21225984.3204   21225988.4454
        33.2504         27.2504
  -9835163.27246  -4929154.08455  23552016.5554   23552022.4844
        12.2504         10.5004
 02 12 26  1  2  0.0000000  0  7G30G 4G10G 5G 9G24G 6
 -15198695.63948 -11786581.22946  21156600.0554   21156603.0084
        31.5004         24.7504
  10397305.82746   8300259.83845  23282846.1334   23282849.9414
        13.2504         11.0004
 -15284836.78247 -11799501.62446  21782937.7034   21782943.1524
        23.0004         19.5004
 -10812487.56948  -4912413.00047  20490866.0084   20490869.5944
        34.0004         34.0004
  19500036.76645  15249918.20545  24855839.5634   24855848.7664
         8.0004          7.5004
  -4751249.20548  -3576260.95247  21245439.2664   21245443.2154
        33.2504         27.0004
  -9862899.05446  -4950766.22845  23546738.6254   23546743.4774
        12.2504         10.7504
 02 12 26  1  2 30.0000000  0  7G30G 4G10G 5G 9G24G 6
 -15208570.44248 -11794275.79546  21154720.7584   21154723.8754
        31.7504         25.0004
  10538412.32746   8410213.00545  23309697.8284   23309700.7934
        13.0004         11.0004
 -15310783.44547 -11819719.66346  21778000.1564   21778005.6414
        23.0004         19.5004
 -10743769.80748  -4858866.65947  20503942.4534   20503946.0744
        34.0004         34.0004
  19640874.26244  15359661.68545  24882636.7274   24882647.0314
         7.0004          6.7504
  -4648720.34648  -3496368.29047  21264949.8754   21264953.8014
        33.2504         27.2504
  -9890597.82546  -4972349.51145  23541467.2344   23541473.1884
        12.2504         10.5004
 02 12 26  1  3  0.0000000  0  7G30G 4G10G 5G 9G24G 6
 -15217977.14048 -11801605.60146  21152930.6564   21152933.7504
        31.7504         25.2504
  10679611.57346   8520238.40845  23336566.1884   23336570.4064
        12.7504         11.0004
 -15336277.68547 -11839585.16146  21773148.4844   21773153.8284
        23.0004         20.0004
 -10674505.94148  -4804894.78247  20517122.9614   20517126.4304
        34.0004         34.0004
  19781649.59844  15469356.73645  24909424.3524   24909433.2734
         7.0004          7.2504
  -4545900.07748  -3416248.55447  21284515.9614   21284519.7584
        33.2504         27.2504
  -9918257.83046  -4993902.60745  23536203.3834   23536208.7854
        12.0004         10.7504
 02 12 26  1  3 30.0000000  0  7G30G 4G10G 5G 9G24G 6
 -15226913.55748 -11808568.95146  21151229.9694   21151233.2384
        31.7504         25.0004
  10820901.63646   8630334.59245  23363452.9304   23363456.2814
        12.5004         11.2504
 -15361316.58247 -11859095.84946  21768383.9454   21768389.1254
        23.5004         20.2504
 -10604695.89648  -4750497.31447  20530407.3444   20530410.9654
        34.0004         34.0004
  19922360.21444  15579001.32145  24936203.3914   24936211.3874
         7.5004          6.5004
  -4442790.16748  -3335903.12647  21304137.0864   21304141.0234
        33.0004         26.7504
  -9945878.50646  -5015425.05145  23530947.1884   23530952.2384
        12.2504         10.5004
 02 12 26  1  4  0.0000000  0  8G30G 4G10G 5G 9G24G 6G23
 -15235384.04048 -11815169.24246  21149618.0314   21149621.2194
        31.7504         25.2504
  10962273.86646   8740494.80745  23390356.1094   23390359.9414
        12.7504         11.0004
 -15385903.93547 -11878254.68146  21763704.8134   21763709.9344
        23.7504         20.0004
 -10534346.70148  -4695679.72647  20543794.2664   20543797.8404
        34.0004         34.2504
  20062996.74543  15688588.18245  24962964.4304   24962973.9964
         6.7504          8.2504
  -4339399.17448  -3255338.67547  21323811.7504   21323815.6174
        32.7504         27.0004
  -9973466.04946  -5036921.65445  23525698.2734   23525704.2854
        12.2504         10.5004
  -6311533.75053                  24987858.9774
         5.7504
 02 12 26  1  4 30.0000000  0  8G30G 4G10G 5G 9G24G 6G23
 -15243374.70948 -11821395.64746  21148097.3364   21148100.3364
        32.0004         25.2504
  11103737.99746   8850726.62845  23417275.0944   23417279.0904
        13.0004         10.5004
 -15410025.33647 -11897050.43646  21759114.7194   21759119.7814
        23.7504         20.2504
 -10463446.94948  -4640433.13947  20557286.1254   20557289.6644
        34.0004         34.2504
  20203568.30845  15798124.39145  24989718.1414   24989728.4454
         8.0004          7.0004
  -4235717.71648  -3174547.89047  21343541.6724   21343545.4344
        32.5004         26.7504
 -10001008.28146  -5058382.95545  23520456.7814   23520463.0044
        12.5004         10.5004
  -6370694.55443                  24976599.4224
         5.2504
 02 12 26  1  5  0.0000000  0  8G30G 4G10G 5G 9G24G 6G23
 -15250893.99648 -11827254.74346  21146666.4694   21146669.4224
        32.2504         25.5004
  11245281.77146   8961020.51445  23444209.8914   23444212.6804
        12.5004         11.0004
 -15433688.37747 -11915489.02246  21754611.7664   21754616.3954
        24.2504         20.0004
 -10392007.49948  -4584766.00347  20570880.5554   20570883.9774
        34.0004         34.2504
  20344061.96244  15907599.91845  25016452.1414   25016461.1564
         7.7504          7.0004
  -4131758.32248  -3093540.53847  21363324.2664   21363328.1214
        32.2504         26.7504
 -10028515.27546  -5079816.81445  23515222.0234   23515228.3404
        12.7504         11.2504
  -6429904.09643                  24965333.3834
         5.5004
 02 12 26  1  5 30.0000000  0  8G30G 4G10G 5G 9G24G 6G23
 -15257937.84048 -11832743.36946  21145326.0314   21145328.9384
        32.5004         25.5004
  11386905.13446   9071376.40345  23471160.7274   23471164.6524
        13.0004         10.7504
 -15456888.41947 -11933566.84146  21750196.8054   21750201.3164
        24.2504         20.2504
 -10320026.62048  -4528676.97947  20584578.1174   20584581.5274
        34.0004         34.2504
  20484476.84344  16017014.07645  25043169.2274   25043179.6844
         7.2504          6.2504
  -4027520.98448  -3012316.60947  21383159.9614   21383163.9344
        32.0004         26.7504
 -10055984.63646  -5101221.35145  23509994.2894   23510000.6524
        12.7504         11.0004
  -6489157.65543  -4938105.34055  24954059.3594   24954068.5274
         5.7504          6.0004
 02 12 26  1  6  0.0000000  0  8G30G 4G10G 5G 9G24G 6G23
 -15264495.58148 -11837853.21246  21144078.2814   21144081.0004
        33.0004         25.5004
  11528614.69646   9181799.47945  23498127.9384   23498131.1724
        13.2504         10.7504
 -15479614.25647 -11951275.14246  21745872.0004   21745876.7114
        24.7504         20.7504
 -10247496.33048  -4472159.83947  20598380.2194   20598383.6414
        34.0004         34.0004
  20624818.72644  16126371.28145  25069876.4454   25069885.1564
         7.5004          7.0004
  -3922999.25348  -2930871.07247  21403049.8284   21403053.7664
        32.0004         26.5004
 -10083407.54046  -5122589.68545  23504776.0704   23504781.3444
        13.2504         11.2504
  -6548444.21943  -4984302.30245  24942777.0004   24942786.1684
         6.0004          5.5004
 02 12 26  1  6 30.0000000  0  8G30G 4G10G 5G 9G24G 6G23
 -15270576.10748 -11842591.20746  21142920.8364   21142923.4494
        33.0004         25.7504
  11670397.46646   9292279.58545  23525107.5634   23525110.5274
        13.2504         10.7504
 -15501874.08947 -11968620.33546  21741636.1954   21741640.5784
        25.0004         20.7504
 -10174427.97248  -4415223.42847  20612284.5554   20612287.9774
        34.0004         34.0004
  20765074.17144  16235661.21545  25096565.5004   25096573.7194
         7.2504          6.7504
  -3818206.27148  -2849214.16747  21422991.3524   21422995.3364
        32.0004         26.5004
 -10110794.36146  -5143929.91345  23499564.0554   23499569.9964
        13.2504         11.5004
  -6607772.31643  -5030531.68644  24931484.6884   24931498.1684
         5.5004          4.7504
 02 12 26  1  7  0.0000000  0  8G30G 4G10G 5G 9G24G 6G23
 -15276173.02048 -11846952.35746  21141855.8524   21141858.5354
        33.2504         25.7504
  11812255.77146   9402818.56645  23552101.3754   23552104.9844
        12.5004         11.0004
 -15523660.91947 -11985596.95446  21737490.2274   21737494.6094
        25.5004         20.7504
 -10100817.88348  -4357864.88947  20626292.0004   20626295.4454
        34.0004         33.7504
  20905244.85443  16344885.06245  25123238.1804   25123248.4734
         6.7504          6.5004
  -3713139.72548  -2767344.10247  21442984.6564   21442988.4774
        32.0004         26.5004
 -10138140.52346  -5165238.44745  23494360.3754   23494366.4694
        13.5004         11.2504
  -6667134.98043  -5076787.96145  24920188.5234   24920202.0634
         5.7504          6.0004
 02 12 26  1  7 30.0000000  0  8G30G 4G10G 5G 9G24G 6G23
 -15281288.94348 -11850938.71447  21140882.3914   21140885.1334
        33.2504         26.0004
  11954182.97646   9513411.20445  23579108.8674   23579112.2544
        12.7504         10.5004
 -15544976.78647 -12002206.59046  21733434.0234   21733438.2774
        26.0004         20.7504
 -10026671.10748  -4300088.15647  20640401.5784   20640405.0704
        34.0004         33.7504
  21045323.47845  16454037.21945  25149899.9224   25149909.8984
         8.0004          6.0004
  -3607806.56748  -2685266.28847  21463029.0864   21463033.0594
        32.0004         26.2504
 -10165450.14746  -5186518.54246  23489163.9774   23489169.7894
        14.0004         12.0004
  -6726534.45743  -5123072.85845  24908886.1724   24908893.3244
         5.7504          5.5004
 02 12 26  1  8  0.0000000  0  8G30G 4G10G 5G 9G24G 6G23
 -15285910.21248 -11854539.62447  21140002.6484   21140005.5784
        33.0004         26.0004
  12096189.06746   9624065.33345  23606132.6564   23606135.4344
        13.0004         10.7504
 -15565807.13047 -12018437.90346  21729469.7194   21729474.1484
        26.0004         21.2504
  -9951976.42648  -4241884.48347  20654615.6094   20654618.9844
        34.0004         33.7504
  21185318.98243  16563124.54945  25176537.1954   25176547.7934
         6.7504          6.5004
  -3502197.04648  -2602973.12147  21483125.6644   21483129.5784
        31.7504         26.2504
 -10192711.25046  -5207760.80645  23483975.3054   23483981.4344
        14.0004         11.5004
  -6785956.29543  -5169375.46145  24897577.1564   24897588.5514
         5.7504          6.2504
 02 12 26  1  8 30.0000000  0  8G30G 4G10G 5G 9G24G 6G23
 -15290043.03448 -11857759.93247  21139216.3914   21139219.1564
        32.7504         26.0004
  12238263.50446   9734772.72445  23633168.0084   23633170.8674
        12.2504         10.0004
 -15586158.08747 -12034295.67946  21725596.9774   21725601.2074
        25.5004         21.2504
  -9876742.63748  -4183260.72747  20668932.0394   20668935.4384
        34.0004         33.7504
  21325220.35844  16672138.52745  25203159.5164   25203169.3754
         7.2504          6.5004
  -3396321.60648  -2520472.75047  21503273.1954   21503277.0744
        32.0004         26.2504
 -10219931.68146  -5228971.38845  23478796.0944   23478801.6484
        14.2504         11.7504
  -6845406.05843  -5215699.59245  24886264.1804   24886276.7704
         5.0004          5.5004
 02 12 26  1  9  0.0000000  0  8G30G 4G10G 5G 9G24G 6G23
 -15293689.75348 -11860601.45247  21138522.2344   21138525.2704
        32.5004         26.2504
  12380400.19045   9845528.63645  23660214.5164   23660218.3594
        11.2504         10.2504
 -15606030.99247 -12049780.94546  21721815.1724   21721819.3914
        26.0004         21.2504
  -9800974.47148  -4124220.57347  20683350.2814   20683353.5984
        34.0004         33.7504
  21465020.73243  16781073.81245  25229762.4064   25229770.8014
         6.2504          6.5004
  -3290186.57948  -2437770.09447  21523470.0004   21523473.7624
        32.0004         26.0004
 -10247115.20746  -5250153.21446  23473623.0394   23473628.7464
        14.2504         12.2504
  -6904885.47943  -5262046.82645  24874946.1804   24874953.9064
         5.0004          5.7504
 02 12 26  1  9 30.0000000  0  8G30G 4G10G 5G 9G24G 6G23
 -15296844.59548 -11863059.69547  21137921.7894   21137924.7774
        32.5004         26.2504
  12522601.12846   9956334.59445  23687276.2584   23687280.4184
        12.2504         10.2504
 -15625419.48747 -12064888.75746  21718125.5704   21718129.6724
        26.0004         21.5004
  -9724668.78448  -4064761.56847  20697870.6954   20697873.9414
        34.0004         33.7504
  21604721.44043  16889931.47945  25256346.1174   25256356.4924
         6.0004          6.2504
  -3183790.57848  -2354864.08547  21543716.6334   21543720.4184
        32.0004         26.0004
 -10274257.65946  -5271303.01946  23468457.5864   23468462.8134
        14.2504         12.2504
  -6964388.39443  -5308412.39844  24863623.3914   24863636.8364
         5.7504          4.5004
 02 12 26  1 10  0.0000000  0  8G30G 4G10G 5G 9G24G 6G23
 -15299504.96848 -11865132.63647  21137415.3674   21137418.4024
        32.2504         26.2504
  12664864.81445  10067189.43945  23714345.7974   23714348.6804
        11.0004         10.0004
 -15644320.39647 -12079616.63446  21714528.7814   21714533.0004
        26.2504         21.7504
  -9647825.86248  -4004883.94347  20712493.2894   20712496.6884
        34.0004         33.7504
  21744320.11343  16998709.58645  25282909.5314   25282916.0704
         6.0004          6.2504
  -3077134.81848  -2271755.66146  21564012.3754   21564016.1604
        31.7504         25.7504
 -10301358.03946  -5292420.04846  23463301.1724   23463306.3754
        14.2504         12.2504
  -7023911.73242  -5354793.97545  24852293.4774   24852306.3714
         4.7504          5.5004
 02 12 26  1 10 30.0000000  0  8G30G 4G10G 5G 9G24G 6G23
 -15301665.39848 -11866816.01947  21137004.2114   21137007.3404
        32.2504         26.2504
  12807193.24845  10178094.76045  23741430.7274   23741434.5474
        10.5004          9.5004
 -15662727.59047 -12093959.79746  21711025.9534   21711030.3834
        26.2504         22.0004
  -9570442.73948  -3944585.38047  20727218.8674   20727222.3014
        34.0004         33.7504
  21883817.99143  17107409.13745  25309456.3594   25309464.6724
         6.7504          6.2504
  -2970217.48548  -2188443.42146  21584358.1724   21584361.9924
        31.7504         25.5004
 -10328412.20946  -5313501.06246  23458152.5164   23458158.4224
        14.2504         12.5004
  -7083449.02843  -5401186.28145  24840964.0394   24840977.4024
         5.5004          5.7504
 02 12 26  1 11  0.0000000  0  8G30G 4G10G 5G 9G24G 6G23
 -15303324.72348 -11868108.92247  21136688.3054   21136691.3284
        32.5004         26.5004
  12949583.32645  10289048.10345  23768526.9844   23768531.2504
        11.0004          9.5004
 -15680639.41847 -12107916.96746  21707617.2194   21707621.6134
        26.5004         22.5004
  -9492520.85848  -3883867.00647  20742046.9064   20742050.2814
        34.0004         33.7504
  22023211.61043  17216027.53345  25335979.6804   25335988.0864
         5.2504          6.7504
  -2863042.03548  -2104930.04446  21604752.6484   21604756.5634
        31.5004         25.7504
 -10355420.87946  -5334546.62646  23453012.9844   23453018.1174
        14.0004         12.2504
  -7142998.68843  -5447588.22945  24829633.5634   24829644.8634
         5.5004          6.7504
 02 12 26  1 11 30.0000000  0  8G30G 4G10G 5G 9G24G 6G23
 -15304484.48448 -11869012.56047  21136467.5634   21136470.5394
        32.5004         26.2504
  13092029.93845  10400045.50545  23795634.3914   23795639.0664
        10.5004          9.7504
 -15698056.94347 -12121488.96446  21704302.9844   21704307.7194
        26.5004         22.5004
  -9414064.32948  -3822732.01947  20756976.6564   20756980.0554
        34.0004         33.7504
  22162495.14443  17324560.14845  25362485.7584   25362495.9224
         6.0004          6.7504
  -2755613.69348  -2021219.61646  21625195.5944   21625199.4024
        31.2504         25.5004
 -10382386.58146  -5355558.71146  23447880.7344   23447886.7704
        14.0004         12.2504
  -7202561.44443  -5494000.44145  24818298.0944   24818308.7034
         5.0004          6.0004
 02 12 26  1 12  0.0000000  0  8G30G 4G10G 5G 9G24G 6G23
 -15305145.34348 -11869527.44247  21136341.7344   21136344.6174
        32.5004         26.5004
  13234528.84945  10511083.68945  23822749.6024   23822753.9024
         9.5004          8.7504
 -15714980.03347 -12134675.69646  21701082.5234   21701087.1174
        26.5004         22.5004
  -9335076.44148  -3761182.98947  20772007.4534   20772010.8404
        34.0004         33.7504
  22301663.08242  17433002.62845  25388965.3914   25388976.8794
         4.7504          6.5004
  -2647937.32348  -1937315.91046  21645685.7424   21645689.3984
        31.2504         25.2504
 -10409311.51846  -5376539.01046  23442757.3204   23442763.0274
        13.7504         12.2504
  -7262137.27743  -5540422.80145  24806961.1024   24806968.8874
         6.0004          6.7504
 02 12 26  1 12 30.0000000  0  8G30G 4G10G 5G 9G24G 6G23
 -15305307.36748 -11869653.62447  21136310.9224   21136313.8404
        32.5004         26.5004
  13377075.68345  10622159.16245  23849876.9144   23849880.8284
        11.0004          9.5004
 -15731408.00647 -12147476.61846  21697956.0864   21697960.4574
        26.5004         22.5004
  -9255559.76748  -3699221.91847  20787139.0554   20787142.4884
        34.0004         33.7504
  22440711.07543  17541351.73045  25415426.8984   25415437.3324
         5.5004          6.0004
  -2540017.03748  -1853222.14246  21666222.0944   21666225.9494
        30.7504         25.2504
 -10436197.30646  -5397488.79746  23437641.4304   23437646.4454
        14.0004         12.7504
  -7321725.77643  -5586855.06745  24795623.9774   24795632.8164
         6.7504          6.0004
 02 12 26  1 13  0.0000000  0  8G30G 4G10G 5G 9G24G 6G23
 -16880382.16048 -13096984.55847  20836584.0634   20836587.0394
        33.0004         26.5004
  11944260.22645   9505679.62745  23577220.2504   23577224.5514
        10.0004          9.5004
 -17322752.52947 -13387485.24446  21395133.4614   21395137.7034
        26.5004         22.5004
 -10750926.14148  -4864442.44247  20502580.1644   20502583.6334
        34.0004         33.7504
  -7826176.46353  16422013.84345  25142075.3524   25142084.3794
         5.5004          6.2504
  -4007265.23648  -2996532.38946  21387014.0314   21387017.8634
        30.5004         25.0004
 -12038457.95346  -6646003.40646  23132740.8284   23132746.3014
        14.2504         13.0004
  -8956739.75843  -6860891.63045  24484487.5864   24484497.3984
         6.0004          7.0004
 02 12 26  1 13 30.0000000  0  8G30G 4G10G 5G 9G24G 6G23
 -16879526.04848 -13096317.38447  20836746.8754   20836749.8054
        33.0004         26.5004
  12086913.01945   9616837.70545  23604366.1174   23604369.3524
        10.5004          9.2504
 -17338168.45847 -13399497.56346  21392199.4924   21392203.8754
        26.2504         22.5004
 -10670339.56748  -4801647.68347  20517915.2034   20517918.6954
        34.0004         33.5004
  -7687361.19643  16530181.45045  25168492.1564   25168506.1764
         6.0004          6.2504
  -3898848.80948  -2912052.01646  21407644.9144   21407648.9924
        30.5004         25.0004
 -12065249.20046  -6666879.51546  23127642.4454   23127647.7194
        14.5004         12.5004
  -9016330.77343  -6907325.90945  24473149.4844   24473159.2624
         6.0004          6.7504
 02 12 26  1 14  0.0000000  0  8G30G 4G10G 5G 9G24G 6G23
 -16878154.75948 -13095248.77647  20837007.8754   20837010.6884
        33.2504         26.7504
  12229619.16745   9728037.33745  23631521.7034   23631526.5434
        10.7504          9.5004
 -17353071.25347 -13411110.04146  21389363.4064   21389367.7894
        26.2504         22.2504
 -10589215.55748  -4738434.14547  20533352.6724   20533356.2464
        34.0004         33.7504
  -7548662.82942  16638258.13445  25194881.3284   25194889.3244
         4.7504          6.0004
  -3790183.53548  -2827377.73446  21428323.2894   21428327.1454
        30.5004         25.0004
 -12091988.99246  -6687715.54046  23122553.9924   23122559.8054
        14.5004         12.7504
  -9075915.55643  -6953755.33245  24461808.3444   24461817.9574
         5.7504          7.0004
 02 12 26  1 14 30.0000000  0  8G30G 4G10G 5G 9G24G 6G23
 -16876271.83548 -13093781.49347  20837366.1724   20837368.9144
        33.5004         27.0004
  12372371.61845   9839273.05345  23658687.4224   23658691.3834
        11.2504         10.0004
 -17367464.00147 -13422325.08246  21386624.7814   21386629.3284
        26.2504         22.5004
 -10507560.50948  -4674806.81247  20548891.0314   20548894.3714
        34.0004         33.5004
  -7410089.57543  16746237.31445  25221255.7424   25221268.7894
         5.7504          6.5004
  -3681277.29948  -2742515.69446  21449047.4064   21449051.1564
        30.2504         25.0004
 -12118682.23846  -6708515.29746  23117474.2734   23117479.7704
        14.7504         12.7504
  -9135497.11043  -7000182.33845  24450471.8364   24450480.3134
         6.2504          7.7504
 02 12 26  1 15  0.0000000  0  8G30G 4G10G 5G 9G24G 6G23
 -16873872.29248 -13091911.64847  20837822.6254   20837825.1454
        33.5004         27.0004
  12515171.82345   9950545.99145  23685861.0314   23685864.8054
        11.0004          9.7504
 -17381341.31747 -13433138.48646  21383984.0944   21383988.5704
        26.5004         22.5004
 -10425372.04648  -4610763.82647  20564530.9844   20564534.2774
        34.0004         33.5004
  -7271640.90243  16854119.28545  25247600.7584   25247608.8134
         6.2504          5.5004
  -3572129.07048  -2657465.08646  21469817.5164   21469821.1254
        30.2504         24.7504
 -12145325.49046  -6729276.07646  23112403.9384   23112409.4344
        15.0004         12.7504
  -9195069.60343  -7046602.24145  24439134.9614   24439144.9024
         6.5004          6.5004
 02 12 26  1 15 30.0000000  0  8G30G 4G10G 5G 9G24G 6G23
 -16870956.73048 -13089639.71547  20838377.5944   20838380.1134
        33.7504         27.2504
  12658015.13245  10061852.50345  23713044.7504   23713048.1024
        11.5004         10.0004
 -17394703.25047 -13443550.29646  21381441.0634   21381445.2234
        26.7504         22.7504
 -10342653.53948  -4546307.82447  20580271.9144   20580275.2074
        34.0004         33.5004
  -7133321.69943  16961900.41745  25273920.1484   25273929.5744
         5.2504          6.0004
  -3462743.40848  -2572229.46646  21490633.1644   21490636.9614
        30.2504         24.7504
 -12171920.71946  -6749999.47646  23107343.0084   23107348.4344
        15.0004         13.0004
  -9254632.76143  -7093014.82645  24427800.8284   24427809.4454
         6.7504          7.0004
 02 12 26  1 16  0.0000000  0  8G30G 4G10G 5G 9G24G 6G23
 -16867520.65348 -13086962.18347  20839031.5234   20839034.0554
        33.7504         27.2504
  12800902.90045  10173193.69545  23740235.9384   23740240.1684
        11.2504         10.0004
 -17407544.28547 -13453556.21046  21378997.5164   21379001.6644
        26.7504         22.7504
 -10259403.02348  -4481437.26647  20596113.7584   20596117.0044
        34.0004         33.2504
  -6995131.54943  17069581.07945  25300215.9304   25300224.1724
         5.5004          6.5004
  -3353119.08848  -2486807.88146  21511494.0084   21511497.7464
        30.0004         24.7504
 -12198464.55046  -6770682.82446  23102291.3984   23102296.4024
        15.2504         12.7504
  -9314181.31143  -7139416.00445  24416467.7504   24416476.6954
         6.7504          7.2504
 02 12 26  1 16 30.0000000  0  9G30G 4G10G 5G 9G24G 6G23G17
 -16863568.73648 -13083882.70247  20839783.2734   20839785.7464
        33.7504         27.2504
  12943826.83045  10284563.01345  23767432.6094   23767436.3714
        11.0004         10.0004
 -17419868.75047 -13463159.59946  21376652.2814   21376656.3484
        27.0004         23.0004
 -10175627.82148  -4416157.86747  20612055.7504   20612058.9844
        34.0004         33.5004
  -6857079.40043  17177154.00845  25326486.5234   25326496.6644
         5.2504          7.0004
  -3243265.01448  -2401207.25946  21532398.2424   21532401.8284
        29.7504         24.2504
 -12224962.99246  -6791330.80646  23097249.0314   23097253.7194
        15.2504         13.0004
  -9373718.92044  -7185808.69545  24405140.0314   24405145.3634
         7.0004          6.7504
  -7912164.59352                  25511163.2114
         4.5004
 02 12 26  1 17  0.0000000  0  9G30G 4G10G 5G 9G24G 6G23G17
 -16859095.17248 -13080396.74347  20840634.6334   20840637.1414
        33.7504         27.5004
  13086789.08545  10395962.23445  23794634.9534   23794640.2504
        10.0004          9.5004
 -17431670.47347 -13472355.65546  21374406.3834   21374410.4844
        27.2504         23.0004
 -10091325.09648  -4350467.40247  20628098.1724   20628101.4884
        34.0004         33.2504
  -6719163.74343  17284620.60345  25352733.0944   25352744.6884
         5.5004          5.7504
  -3133179.29848  -2315426.14046  21553346.9304   21553350.5984
        29.5004         24.2504
 -12251411.34846  -6811939.76346  23092216.2274   23092221.2424
        15.5004         13.2504
  -9433239.03844  -7232187.64545  24393814.1804   24393818.0004
         7.5004          6.5004
  -7957816.61743                  25502479.2814
         6.5004
 02 12 26  1 17 30.0000000  0  9G30G 4G10G 5G 9G24G 6G23G17
 -16854095.15948 -13076500.56647  20841585.9694   20841588.4184
        33.7504         27.5004
  13229791.05845  10507392.38145  23821848.1094   23821852.1174
         9.7504          9.0004
 -17442944.02647 -13481140.14646  21372261.1094   21372265.0234
        27.0004         23.5004
 -10006492.50048  -4284364.05447  20644241.2504   20644244.6134
        34.0004         33.2504
  -6581383.75343  17391981.62645  25378950.4534   25378957.8984
         5.7504          6.0004
  -3022860.72748  -2229463.57546  21574339.8284   21574343.4384
        29.5004         24.0004
 -12277806.00746  -6832506.86646  23087193.0004   23087197.8054
        15.2504         13.5004
  -9492735.86344  -7278548.46045  24382491.8284   24382502.6134
         7.5004          7.0004
  -8003367.16342  -6145092.10554  25493805.5394   25493814.2624
         4.5004          4.5004
 02 12 26  1 18  0.0000000  0  9G30G 4G10G 5G 9G24G 6G23G17
 -16848574.17248 -13072198.44247  20842636.5234   20842638.9964
        33.7504         27.5004
  13372823.80145  10618846.52145  23849066.9224   23849071.3634
         9.2504          8.7504
 -17453694.23547 -13489516.84446  21370215.2974   21370219.3404
        27.2504         23.2504
  -9921138.23348  -4217854.21147  20660483.4694   20660486.7274
        34.0004         33.2504
  -7854175.56751                  25405139.0314
         3.7504
  -2912318.83948  -2143326.99646  21595375.1884   21595378.9614
        29.0004         24.2504
 -12304153.79146  -6853037.46746  23082179.0634   23082183.2114
        15.2504         13.2504
  -9552214.05843  -7324894.77945  24371170.6484   24371179.7814
         6.7504          7.5004
  -8048822.50843  -6180511.60443  25485162.9224   25485171.1174
         5.7504          3.7504
 02 12 26  1 18 30.0000000  0  9G30G 4G10G 5G 9G24G 6G23G17
 -16842526.93548 -13067486.25047  20843787.1804   20843789.7344
        33.7504         28.0004
  13515889.02145  10730325.97245  23876291.8204   23876296.9304
         9.0004          8.0004
 -17463915.18947 -13497481.12846  21368270.0704   21368274.2894
        27.5004         23.7504
  -9835259.51848  -4150935.70647  20676825.6174   20676828.9454
        34.0004         33.2504
  -7716685.99742                  25431302.2034
         4.0004
  -2801551.84748  -2057015.01446  21616453.2584   21616457.1374
        29.0004         24.0004
 -12330450.45846  -6873528.22946  23077175.3984   23077180.2974
        15.7504         13.2504
  -9611667.35343  -7371221.70345  24359856.5554   24359863.4844
         6.5004          6.0004
  -8094177.98343  -6215852.78144  25476525.9774   25476530.1024
         5.0004          4.0004
 02 12 26  1 19  0.0000000  0  9G30G 4G10G 5G 9G24G 6G23G17
 -16835960.18848 -13062369.24647  20845036.9614   20845039.3984
        34.0004         28.0004
  13658976.66645  10841822.86245  23903520.4384   23903524.0594
         9.2504          8.5004
 -17473613.02047 -13505037.78746  21366424.6954   21366428.6804
        27.7504         23.7504
  -9748865.83448  -4083615.92547  20693265.6724   20693269.0594
        34.0004         33.0004
  -7579352.24642                  25457442.0164
         4.2504
  -2690570.03148  -1970535.63846  21637572.4454   21637576.4184
        29.0004         24.0004
 -12356703.92946  -6893985.33146  23072179.2584   23072183.5234
        16.0004         13.5004
  -9671101.69843  -7417533.92945  24348545.1804   24348553.2584
         6.5004          7.0004
                                  25467922.3054
         5.7504
 02 12 26  1 19 30.0000000  0  9G30G 4G10G 5G 9G24G 6G23G17
 -16828858.49948 -13056835.40847  20846388.1804   20846390.8754
        34.0004         28.0004
  13802098.84145  10953346.65545  23930755.5234   23930758.4064
         9.0004          8.5004
 -17482771.87848 -13512174.46646  21364681.8284   21364685.8244
        28.0004         23.7504
  -9661944.54048  -4015885.02247  20709806.4614   20709809.8484
        34.0004         33.0004
  -7442162.68243                  25483550.3754
         6.2504
  -2579362.22748  -1883880.16646  21658734.5474   21658738.3674
        29.0004         24.0004
 -12382899.82146  -6914397.57946  23067193.9224   23067198.3054
        16.0004         13.7504
  -9730500.57344  -7463818.55245  24337242.8134   24337248.2854
         7.2504          5.7504
  -7920748.59743                  25459320.3054
         5.5004
 02 12 26  1 20  0.0000000  0  9G30G 4G10G 5G 9G24G 6G23G17
 -16821219.63248 -13050882.99147  20847841.7974   20847844.3754
        34.0004         28.2504
  13945254.17145  11064896.30345  23957993.8674   23957996.9144
         8.0004          8.0004
 -17491389.12748 -13518889.11746  21363042.0554   21363046.1094
        28.7504         23.7504
  -9574495.99848  -3947743.27747  20726447.0314   20726450.3834
        34.0004         33.0004
  -7305119.00343  -6116654.96155  25509626.1414   25509629.4104
         5.5004          5.5004
  -2467929.59048  -1797049.49346  21679939.5394   21679943.2894
        29.2504         23.7504
 -12409037.03746  -6934764.08746  23062220.2194   23062224.4734
        16.0004         13.7504
  -9789860.91244  -7510073.09445  24325947.5004   24325956.4224
         7.5004          7.0004
  -7965797.18643                  25450751.5164
         6.7504
 02 12 26  1 20 30.0000000  0  8G30G 4G10G 5G 9G24G 6G23
 -16813048.57748 -13044515.88447  20849396.7344   20849399.1724
        34.0004         28.2504
  14088434.55345  11176465.52045  23985244.4144   23985248.7154
         9.5004          8.7504
 -17499469.27848 -13525185.25246  21361504.3364   21361508.0394
        29.0004         24.0004
  -9486528.02948  -3879196.78847  20743186.6644   20743189.9574
        34.0004         32.7504
  -7168230.46744  -6009988.58645  25535678.7974   25535689.5824
         7.5004          5.7504
  -2356280.74948  -1710050.35546  21701185.8284   21701189.4264
        29.2504         23.7504
 -12435121.79246  -6955089.72546  23057256.1484   23057260.9414
        16.0004         13.2504
  -9849186.52845  -7556300.72345  24314660.5474   24314668.6604
         8.0004          7.2504
 02 12 26  1 21  0.0000000  0  9G30G 4G10G 5G 9G24G 6G23G17
 -16804342.89548 -13037732.18647  20851053.3134   20851055.9384
        34.0004         28.5004
  14231638.81845  11288053.29745  24012493.3594   24012498.8674
         9.5004          7.7504
 -17507009.08648 -13531060.33746  21360069.5084   21360073.1994
        29.2504         24.2504
  -9398040.92748  -3810245.78147  20760025.2664   20760028.5704
        34.0004         32.5004
                                  25561703.4144
         9.5004
  -2244416.83748  -1622883.62846  21722472.5394   21722476.2894
        29.0004         23.5004
 -12461152.55646  -6975373.29246  23052302.7894   23052306.8554
        15.7504         13.5004
  -9908474.06844  -7602498.68245  24303376.3834   24303383.6524
         7.5004          7.0004
  -7911468.80353                  25433661.6094
         5.0004
 02 12 26  1 21 30.0000000  0  9G30G 4G10G 5G 9G24G 6G23G17
 -16795097.66148 -13030528.06147  20852812.6884   20852815.3134
        34.0004         28.7504
  14374869.00945  11399661.28345  24039748.2894   24039751.2544
         8.7504          8.5004
 -17514003.00248 -13536510.05646  21358738.8524   21358742.3094
        29.7504         24.7504
  -9309032.09948  -3740888.23347  20776963.2274   20776966.4844
        34.0004         32.5004
  -7854353.96455                  25587690.7894
         8.2504
  -2132336.57948  -1535548.32046  21743800.4844   21743804.3984
        29.0004         23.2504
 -12487125.42846  -6995611.75846  23047360.4924   23047364.6884
        16.0004         13.7504
  -9967717.24444  -7648662.01445  24292103.3204   24292109.5314
         7.5004          7.0004
  -7956202.46542                  25425145.9924
         4.2504
 02 12 26  1 22  0.0000000  0  9G30G 4G10G 5G 9G24G 6G23G17
 -16785319.42048 -13022908.60547  20854673.2034   20854675.6884
        34.0004         28.5004
  14518115.15345  11511281.68245  24067008.0474   24067010.6954
         9.5004          8.2504
 -17520457.28348 -13541539.28446  21357510.3754   21357513.8794
        29.5004         24.5004
  -9219510.97848  -3671131.49447  20793998.5634   20794001.8444
        34.0004         32.2504
  -7717944.54244                  25613652.2504
         7.7504
  -2020050.23548  -1448052.42946  21765168.1564   21765171.5434
        28.7504         23.2504
 -12513047.98146  -7015811.01646  23042426.9694   23042431.6564
        16.0004         13.7504
 -10026921.84044  -7694795.28445  24280835.4924   24280844.8244
         7.2504          7.7504
  -8000835.09643                  25416657.9924
         6.2504
 02 12 26  1 22 30.0000000  0  9G30G 4G10G 5G 9G24G 6G23G17
 -16774998.81548 -13014866.52547  20856637.1484   20856639.7734
        34.0004         29.0004
  14661383.04145  11622919.05445  24094272.0004   24094276.8874
         9.5004          8.5004
 -17526362.15148 -13546140.39846  21356386.1254   21356389.8874
        29.2504         24.5004
  -9129470.94948  -3600970.41247  20811132.4304   20811135.6994
        34.0004         32.5004
  -7772661.10252                  25639567.4384
         4.2504
  -1907552.25248  -1360391.62546  21786575.6484   21786579.1644
        28.5004         23.2504
 -12538911.76546  -7035964.48546  23037505.6884   23037510.1054
        16.5004         14.2504
 -10086077.22944  -7740890.21545  24269578.4924   24269585.4694
         7.2504          7.7504
  -8045357.54843                  25408188.4694
         6.5004
 02 12 26  1 23  0.0000000  0  9G30G 4G10G 5G 9G24G 6G23G17
 -16764133.37948 -13006399.90447  20858704.8524   20858707.4184
        34.0004         28.7504
  14804672.29545  11734573.10545  24121538.1024   24121542.4024
         8.7504          8.0004
 -17531714.49148 -13550310.97246  21355367.8444   21355371.8284
        29.0004         24.5004
  -9038912.34048  -3530405.23847  20828365.1254   20828368.2894
        34.0004         32.2504
  -7636575.56541                  25665456.0314
         3.2504
  -1794843.27848  -1272566.41146  21808023.1024   21808026.6054
        28.2504         23.0004
 -12564715.15246  -7056070.88446  23032594.7974   23032599.2624
        16.5004         14.0004
 -10145179.78644  -7786943.92345  24258333.3674   24258342.3714
         7.5004          7.5004
  -8089768.20743  -6165676.24255  25399732.4064   25399744.5164
         5.7504          5.2504
 02 12 26  1 23 30.0000000  0  9G30G 4G10G 5G 9G24G 6G23G17
 -16752724.34448 -12997509.69547  20860875.8984   20860878.5354
        34.0004         29.0004
  14947978.36245  11846240.22545  24148806.3134   24148810.6954
         8.0004          8.0004
 -17536515.11748 -13554051.63746  21354454.2584   21354458.3364
        29.0004         24.5004
  -8947838.88148  -3459438.87747  20845695.9064   20845699.0824
        34.0004         32.2504
  -7500657.75942                  25691327.0784
         4.2504
  -1681928.40848  -1184580.75946  21829510.3134   21829513.8054
        28.0004         22.7504
 -12590460.41746  -7076131.99346  23027695.8914   23027700.2734
        16.7504         14.2504
 -10204229.47944  -7832956.37345  24247095.9924   24247103.3444
         7.5004          7.7504
  -8134069.07643  -6200196.24645  25391304.7194   25391319.2074
         6.7504          5.0004
 02 12 26  1 24  0.0000000  0  8G30G 4G10G 5G24G 6G23G17
 -16740768.00548 -12988193.01947  20863150.9614   20863153.2584
        34.0004         29.0004
  15091302.04645  11957921.03445  24176085.5004   24176087.4804
        10.7504          8.0004
 -17540759.51648 -13557358.88346  21353646.3364   21353650.4964
        28.7504         24.5004
  -8856249.68348  -3388070.64447  20863124.7664   20863127.9534
        34.0004         32.0004
  -1568807.32247  -1096434.42546  21851036.2814   21851039.7974
        27.5004         22.5004
 -12616144.68746  -7096145.58746  23022808.3284   23022812.6294
        16.7504         14.0004
 -10263221.68343  -7878924.05245  24235866.9224   24235873.4384
         6.5004          7.7504
  -8178257.04843  -6234628.43845  25382892.1334   25382900.6334
         6.2504          5.7504
 02 12 26  1 24 30.0000000  0  9G30G 4G10G 5G 9G24G 6G23G17
 -16728266.29848 -12978451.37847  20865530.1564   20865532.4774
        34.0004         29.0004
  15234638.19744  12069611.59645  24203357.3364   24203361.1214
         7.5004          7.7504
 -17544449.42248 -13560234.05246  21352944.1804   21352948.1644
        29.0004         24.7504
  -8764149.46748  -3316304.22047  20880650.9614   20880654.2074
        34.0004         32.2504
  -7773179.74054                  25742963.7424
         7.2504
  -1455485.53547  -1008131.70346  21872600.8284   21872604.5084
        27.2504         22.2504
 -12641770.71846  -7116113.79746  23017931.5634   23017936.2274
        16.7504         14.5004
 -10322157.03644  -7924847.37245  24224653.9304   24224659.6844
         7.5004          6.7504
  -8222334.91945  -6268974.68145  25374508.2974   25374516.0124
         8.2504          5.5004
 02 12 26  1 25  0.0000000  0  9G30G 4G10G 5G 9G24G 6G23G17
 -16715221.15648 -12968286.27747  20868012.4064   20868014.5394
        34.0004         29.0004
  15377981.38945  12181307.64845  24230631.5234   24230634.5594
         8.0004          8.0004
 -17547586.13848 -13562678.16746  21352347.2344   21352351.0314
        29.2504         24.7504
  -8671542.68548  -3244143.06047  20898273.3834   20898276.6414
        34.0004         32.0004
  -7637782.79042                  25768722.0944
         4.0004
  -1341968.42847   -919676.78346  21894202.3834   21894206.0744
        27.2504         22.2504
 -12667341.52646  -7136038.96846  23013065.3754   23013070.1564
        16.5004         14.2504
 -10381036.37944  -7970727.05145  24213449.1254   24213456.0084
         7.5004          8.2504
  -8266305.20344  -6303237.19045  25366141.4454   25366147.5984
         7.7504          6.0004
 02 12 26  1 25 30.0000000  0  9G30G 4G10G 5G 9G24G 6G23G17
 -16701625.18648 -12957691.96247  20870599.5704   20870601.6804
        34.0004         29.0004
  15521336.40045  12293012.86145  24257913.5394   24257917.5234
         8.2504          7.0004
 -17550161.78148 -13564685.08246  21351857.1804   21351860.7074
        29.7504         25.0004
  -8578424.88348  -3171583.69647  20915993.0634   20915996.2504
        34.0004         32.2504
  -7502562.07843                  25794457.3054
         5.0004
  -1228252.11047   -831066.64046  21915841.9924   21915845.4384
        27.0004         22.0004
 -12692850.53746  -7155915.99146  23008210.9844   23008215.2854
        16.5004         14.2504
 -10439851.16544  -8016556.38545  24202256.8984   24202263.9924
         7.5004          8.0004
  -8310160.73444  -6337410.23045  25357792.1414   25357801.1214
         7.7504          6.2504
 02 12 26  1 26  0.0000000  0  9G30G 4G10G 5G 9G24G 6G23G17
 -16687475.87948 -12946666.47447  20873292.0314   20873294.3164
        34.0004         28.7504
  15664702.63644  12404726.84345  24285194.4304   24285197.4414
         7.5004          7.2504
 -17552173.15748 -13566252.30746  21351474.5864   21351478.3014
        29.7504         25.2504
  -8484796.20248  -3098626.24947  20933810.0704   20933813.2814
        34.0004         32.2504
  -7367518.60942                  25820153.6414
         4.0004
  -1114337.36647   -742301.87746  21937519.2504   21937522.6604
        27.0004         22.0004
 -12718295.81146  -7175743.32946  23003368.8984   23003373.7274
        16.2504         14.2504
 -10498597.34645  -8062332.25945  24191078.1174   24191085.7734
         8.0004          8.0004
  -8353899.66144  -6371492.30445  25349467.6334   25349477.8554
         7.2504          6.5004
 02 12 26  1 26 30.0000000  0  9G30G 4G10G 5G 9G24G 6G23G17
 -16672774.74648 -12935210.99147  20876089.4064   20876091.7854
        34.0004         28.7504
  15808075.27243  12516445.83345  24312476.1884   24312481.3914
         6.5004          7.2504
 -17553621.56548 -13567380.84946  21351198.9614   21351202.7464
        29.7504         25.0004
  -8390660.93448  -3025274.06947  20951723.3594   20951726.5944
        34.0004         32.0004
  -7232657.85842  -6071465.18055  25845818.5554   25845826.4574
         4.5004          5.5004
  -1000228.93747   -653386.19346  21959233.2664   21959236.4774
        27.0004         22.0004
 -12743679.78946  -7195522.91346  22998538.5234   22998543.3054
        16.5004         14.5004
 -10557275.51745  -8108055.10045  24179911.5164   24179921.1884
         8.0004          8.0004
  -8397523.85445  -6405484.92545  25341170.9384   25341178.4774
         9.2504          6.2504
 02 12 26  1 27  0.0000000  0  9G30G 4G10G 5G 9G24G 6G23G17
 -16657517.30348 -12923322.01547  20878992.8134   20878995.1334
        34.0004         28.7504
  15951456.55045  12628171.53945  24339765.6564   24339770.7774
         8.7504          8.0004
 -17554501.88548 -13568066.72446  21351031.0164   21351034.7194
        29.5004         25.0004
  -8296016.93948  -2951525.47647  20969733.4694   20969736.7274
        34.0004         32.0004
                                  25871447.1884
         3.7504
   -885925.95647   -564318.91246  21980984.5864   21980988.0554
        27.0004         22.2504
 -12768998.45946  -7215251.60446  22993720.4144   22993724.7974
        16.7504         14.5004
 -10615879.69645  -8153720.31245  24168759.1954   24168765.8404
         8.2504          7.5004
  -8441029.26745  -6439384.90145  25332891.5634   25332903.1334
         9.2504          6.2504
 02 12 26  1 27 30.0000000  0  8G30G 4G10G 5G24G 6G23G17
 -16641698.74248 -12910995.81147  20882002.7974   20882005.1294
        34.0004         29.0004
  16094847.43943  12739904.76145  24367046.1334   24367050.8094
         6.7504          7.7504
 -17554809.09648 -13568306.02246  21350972.3984   21350975.9384
        29.5004         25.0004
  -8200862.45348  -2877379.10147  20987840.5314   20987843.9414
        34.0004         31.7504
   -771427.01847   -475098.94246  22002772.9534   22002776.2584
        27.0004         22.0004
 -12794248.00046  -7234926.42646  22988915.1724   22988919.8134
        17.0004         14.7504
 -10674403.82845  -8199323.08445  24157621.9694   24157627.7344
         8.5004          8.0004
  -8484412.22744  -6473189.42945  25324633.8364   25324639.4384
         7.7504          6.2504
 02 12 26  1 28  0.0000000  0  8G30G 4G10G 5G24G 6G23G17
 -16625320.06748 -12898233.15047  20885119.6414   20885121.9384
        34.0004         28.7504
  16238244.60445  12851642.81745  24394336.8914   24394339.2344
         8.5004          7.7504
 -17554543.30448 -13568098.81546  21351022.9304   21351026.5744
        29.5004         24.7504
  -8105200.85648  -2802837.57347  21006044.4224   21006047.7384
        34.0004         31.7504
   -656735.96147   -385729.25746  22024597.9774   22024601.3284
        26.7504         22.0004
 -12819430.02046  -7254548.64046  22984123.1024   22984127.1564
        17.2504         15.0004
 -10732847.62645  -8244863.28345  24146500.3754   24146508.6994
         8.5004          7.7504
  -8527674.30744  -6506899.72445  25316399.3914   25316404.8054
         7.5004          6.0004
 02 12 26  1 28 30.0000000  0  8G30G 4G10G 5G24G 6G23G17
 -16608379.96948 -12885033.01647  20888343.2734   20888345.4184
        34.0004         29.0004
  16381646.27645  12963384.46045  24421625.2814   24421629.4884
         8.2504          7.7504
 -17553702.98848 -13567443.93846  21351182.9064   21351186.8204
        29.2504         24.7504
  -8009033.94648  -2727902.29047  21024344.3364   21024347.5234
        34.0004         31.5004
   -541855.17947   -296211.74846  22046458.9844   22046462.2664
        27.0004         22.0004
 -12844543.70146  -7274117.60046  22979344.4454   22979348.3714
        17.7504         15.2504
 -10791208.53345  -8290338.92545  24135393.1094   24135400.1684
         8.7504          8.2504
  -8570814.22345  -6540514.79245  25308192.9614   25308201.7424
         8.0004          6.0004
 02 12 26  1 29  0.0000000  0  8G30G 4G10G 5G24G 6G23G17
 -16590889.81548 -12871404.27047  20891671.3754   20891673.5084
        34.0004         28.7504
  16525038.21944  13075118.47645  24448909.9614   24448914.6844
         7.2504          8.0004
 -17552298.93548 -13566349.77846  21351449.9454   21351453.6024
        29.2504         25.0004
  -7912375.89348  -2652584.31047  21042737.6804   21042740.8674
        34.0004         31.5004
   -426799.39847   -206557.86646  22068353.4454   22068356.8324
        27.0004         22.0004
 -12869601.30146  -7293642.86946  22974575.8054   22974579.4144
        18.0004         14.7504
 -10849496.58645  -8335757.81245  24124304.1804   24124312.3054
         9.0004          8.2504
  -8613844.19143  -6574044.17044  25300000.5234   25300012.3874
         6.5004          4.2504
 02 12 26  1 29 30.0000000  0  8G30G 4G10G 5G24G 6G23G17
 -16572831.65748 -12857332.92347  20895107.8754   20895109.9264
        34.0004         29.0004
  16668435.50645  13186856.65445  24476200.2584   24476203.5044
         8.7504          7.5004
 -17550313.00648 -13564802.21246  21351827.7814   21351831.4964
        29.0004         25.0004
  -7815211.26148  -2576871.58947  21061227.6644   21061230.6884
        34.0004         31.2504
   -311554.06747   -116756.28646  22090283.6564   22090286.9964
        26.7504         22.0004
 -12894585.45146  -7313110.90546  22969821.5164   22969825.4304
        18.2504         15.5004
 -10907692.31245  -8381104.76645  24113227.5314   24113235.1884
         9.0004          8.2504
  -8656746.80343  -6607474.34345  25291835.1884   25291841.0004
         5.5004          5.7504
 02 12 26  1 30  0.0000000  0  8G30G 4G10G 5G24G 6G23G17
 -18129626.72848 -14070419.93847  20598859.4454   20598861.3324
        34.0004         29.0004
  15236418.42645  12070999.23745  24203697.2344   24203699.9064
         9.5004          7.7504
 -19123166.22748 -14790402.04146  21052523.5164   21052527.3364
        29.0004         24.7504
  -9292961.30548  -3728365.11147  20780021.0554   20780024.0664
        34.0004         31.2504
  -1771539.83847  -1254407.51546  21812457.8524   21812461.2624
        26.5004         21.7504
 -14494919.31446  -8560124.18446  22665288.0704   22665292.3954
        18.2504         15.5004
 -12541218.02845  -9653981.63345  23802378.0554   23802385.7584
         9.0004          8.5004
 -10274945.80043  -7868408.22345  24983905.5944   24983912.5124
         6.0004          5.5004
 02 12 26  1 30 30.0000000  0  8G30G 4G10G 5G24G 6G23G17
 -18110442.75148 -14055471.32947  20602509.9844   20602512.0354
        34.0004         29.0004
  15379808.27944  12182731.67045  24230980.3984   24230982.3444
         7.2504          8.0004
 -19120024.61948 -14787953.95346  21053121.3054   21053125.0904
        29.0004         25.0004
  -9194801.75448  -3651877.12747  20798700.1884   20798703.1994
        34.0004         31.2504
  -1655934.53447  -1164325.43246  21834456.6174   21834460.2384
        26.2504         21.7504
 -14519768.15846  -8579486.79546  22660559.2274   22660563.4804
        18.5004         15.7504
 -12599234.87845  -9699189.28545  23791338.7664   23791345.9654
         9.2504          8.7504
 -10317605.28243  -7901648.96245  24975784.7664   24975802.8634
         5.5004          5.0004
 02 12 26  1 31  0.0000000  0  8G30G 4G10G 5G24G 6G23G17
 -18090698.92748 -14040086.47647  20606267.1644   20606269.1454
        34.0004         29.0004
  15523187.01545  12294455.43045  24258266.9694   24258270.8714
         8.5004          6.7504
 -19116307.64248 -14785057.53046  21053828.5784   21053832.4924
        29.0004         25.2504
  -9096151.78348  -3575006.99547  20817472.7194   20817475.7664
        34.0004         31.2504
  -1540156.86047  -1074109.03746  21856488.4224   21856491.9494
        26.2504         21.5004
 -14544553.23346  -8598799.73746  22655842.9224   22655846.4384
        18.5004         16.0004
 -12657163.25045  -9744327.92845  23780313.8914   23780320.6644
         9.2504          9.0004
 -10360146.94543  -7934797.94045  24967693.3054   24967701.0434
         6.7504          5.7504
 02 12 26  1 31 30.0000000  0  8G30G 4G10G 5G24G 6G23G17
 -18070381.61248 -14024254.74547  20610133.3674   20610135.3134
        34.0004         29.2504
  15666565.34345  12406178.80645  24285552.8524   24285556.2034
         9.2504          7.5004
 -19112001.39248 -14781701.93246  21054647.9384   21054651.6524
        29.0004         25.2504
  -8997000.49948  -3497746.23747  20836340.6094   20836343.7854
        34.0004         31.0004
  -1424196.57347   -983750.33846  21878554.8284   21878558.1214
        25.7504         21.5004
 -14569261.53146  -8618052.84846  22651141.3054   22651145.0904
        18.7504         16.0004
 -12714988.21745  -9789386.04245  23769311.2974   23769317.9534
         9.5004          8.5004
 -10402557.50142  -7967844.84945  24959616.0704   24959626.9144
         4.7504          6.2504
 02 12 26  1 32  0.0000000  0  8G30G 4G10G 5G24G 6G23G17
 -18049488.20148 -14007974.11147  20614109.3134   20614111.3634
        34.0004         29.2504
  15809943.81745  12517902.32645  24312836.1334   24312839.3204
         8.7504          7.7504
 -19107102.63948 -14777884.65546  21055580.2034   21055583.9414
        29.5004         25.5004
  -8897347.86748  -3420094.81947  20855303.7974   20855306.9384
        34.0004         31.0004
  -1308054.02447   -893249.62546  21900656.0864   21900659.6024
        25.5004         21.2504
 -14593890.71446  -8637244.32346  22646454.0864   22646457.9184
        18.7504         16.0004
 -12772705.44245  -9834360.19445  23758325.8054   23758331.3364
         9.5004          9.0004
 -10444834.65843  -8000787.76044  24951576.8284   24951587.8594
         6.0004          4.7504
 02 12 26  1 32 30.0000000  0  8G30G 4G10G 5G24G 6G23G17
 -18028028.90848 -13991252.52747  20618192.7974   20618194.8594
        34.0004         29.5004
  15953309.16845  12629615.64045  24340118.2664   24340119.4614
        10.2504          7.7504
 -19101621.17148 -14773613.31646  21056623.1724   21056626.8404
        29.7504         25.5004
  -8797206.99948  -3342062.95947  20874359.8594   20874363.0944
        34.0004         31.0004
  -1191742.89247   -802617.54346  21922788.9924   21922792.5314
        25.0004         21.2504
 -14618451.56946  -8656382.54846  22641780.4924   22641784.4064
        19.2504         16.2504
 -12830323.81945  -9879257.29545  23747362.2734   23747368.5784
         9.5004          9.2504
 -10486989.41643  -8033635.52545  24943552.4064   24943557.9144
         5.7504          5.2504
 02 12 26  1 33  0.0000000  0  8G30G 4G10G 5G24G 6G23G17
 -18006000.64448 -13974087.59447  20622384.3444   20622386.4184
        34.0004         29.2504
  16096661.94944  12741319.19845  24367394.6564   24367396.0274
         7.2504          7.7504
 -19095553.54448 -14768885.22246  21057777.9774   21057781.5164
        29.7504         25.5004
  -8696577.37548  -3263650.24147  20893509.0084   20893512.1844
        34.0004         31.0004
  -1075262.94947   -711853.92146  21944954.5704   21944958.4264
        25.0004         20.7504
 -14642941.38046  -8675465.42546  22637119.9534   22637123.5864
        19.5004         16.5004
 -12887838.67445  -9924073.73945  23736415.7194   23736423.0474
         9.2504          8.7504
 -10529019.02243  -8066385.69145  24935552.8364   24935564.1604
         5.5004          5.0004
 02 12 26  1 33 30.0000000  0  8G30G 4G10G 5G24G 6G23G17
 -17983395.52348 -13956473.16247  20626686.0634   20626688.2074
        34.0004         29.5004
  16240007.59445  12853017.11845  24394673.9614   24394677.9104
         8.0004          7.2504
 -19088891.12748 -14763693.66546  21059045.6564   21059049.2894
        29.7504         25.5004
  -8595453.71148  -3184852.55647  20912752.2584   20912755.4574
        34.0004         30.7504
   -958609.22747   -620954.88146  21967152.8754   21967156.4614
        24.7504         20.7504
 -14667352.52946  -8694487.01046  22632474.7034   22632478.1844
        19.7504         16.2504
 -12945240.40545  -9968802.00345  23725492.4844   23725500.0124
         9.2504          8.7504
 -10570915.96043  -8099032.50245  24927581.1644   24927593.6024
         6.2504          6.0004
 02 12 26  1 34  0.0000000  0  8G30G 4G10G 5G24G 6G23G17
 -17960223.25448 -13938416.79547  20631095.4144   20631097.5124
        34.0004         29.5004
  16383333.75244  12964699.86145  24421945.9774   24421946.5394
         7.0004          6.7504
 -19081643.55848 -14758046.14146  21060424.8284   21060428.3674
        30.0004         25.7504
  -8493848.36048  -3105679.52947  20932086.9064   20932090.1994
        34.0004         30.7504
   -841794.19347   -529930.15346  21989382.2114   21989385.9144
        24.7504         20.5004
 -14691695.16346  -8713455.20546  22627842.5554   22627845.8364
        19.7504         16.2504
 -13002537.07445 -10013448.40945  23714588.2034   23714593.4304
         9.2504          8.7504
 -10612689.91844  -8131583.54645  24919633.1724   24919637.7194
         7.0004          6.5004
 02 12 26  1 34 30.0000000  0  8G30G 4G10G 5G24G 6G23G17
 -17936472.10748 -13919909.35947  20635615.0164   20635617.1024
        34.0004         29.5004
  16526649.53745  13076374.53645  24449221.6484   24449221.6954
         8.7504          7.5004
 -19073798.50648 -14751933.05046  21061917.5234   21061920.9574
        30.0004         25.7504
  -8391752.50048  -3026124.29347  20951515.1954   20951518.4534
        34.0004         30.5004
   -724809.48047   -438773.19046  22011643.4384   22011646.7774
        24.7504         20.2504
 -14715957.94546  -8732361.17346  22623224.9614   22623228.6054
        19.7504         16.5004
 -13059715.56545 -10058002.71645  23703707.9454   23703713.2194
         9.2504          8.7504
 -10654329.84844  -8164030.11545  24911708.7504   24911717.3914
         7.2504          6.5004
 02 12 26  1 35  0.0000000  0  8G30G 4G10G 5G24G 6G23G17
 -17912140.36048 -13900949.50847  20640245.2034   20640247.4184
        34.0004         29.2504
  16669954.46145  13188040.76745  24476490.9224   24476490.4304
         8.2504          7.5004
 -19065353.97248 -14745352.83047  21063524.6024   21063528.1054
        30.2504         26.2504
  -8289166.83048  -2946187.38047  20971036.5084   20971039.9184
        34.0004         30.5004
   -607656.15247   -347484.85346  22033937.2114   22033940.7154
        25.0004         20.0004
 -14740139.31246  -8751203.72046  22618623.4924   22618627.2304
        19.7504         16.2504
 -13116772.20745 -10102462.07445  23692850.5164   23692857.8094
         9.5004          9.0004
 -10695834.22444  -8196371.03045  24903810.3914   24903815.2664
         7.7504          7.2504
 02 12 26  1 35 30.0000000  0  8G30G 4G10G 5G24G 6G23G17
 -17887226.84148 -13881536.33547  20644986.1954   20644988.2584
        34.0004         29.7504
  16813247.00345  13299697.34945  24503757.9534   24503762.9804
         8.0004          6.0004
 -19056308.23948 -14738304.14747  21065245.7344   21065249.2504
        30.2504         26.2504
  -8186093.12348  -2865870.17947  20990650.8754   20990654.2504
        34.0004         30.2504
   -490336.13447   -256066.62346  22056262.3834   22056265.7234
        25.0004         20.2504
 -14764238.56246  -8769982.27446  22614037.5554   22614041.1414
        19.7504         16.5004
 -13173704.51145 -10146824.55945  23682016.1024   23682022.2194
         9.7504          9.0004
 -10737202.35344  -8228605.76645  24895936.5164   24895946.4694
         7.7504          7.2504
 02 12 26  1 36  0.0000000  0  8G30G 4G10G 5G24G 6G23G17
 -17861733.34948 -13861671.22747  20649837.4694   20649839.4494
        34.0004         29.7504
  16956522.97643  13411341.01645  24531019.8134   24531024.4064
         6.2504          6.5004
 -19046662.45948 -14730787.89147  21067081.3134   21067084.8634
        30.2504         26.2504
  -8082535.67548  -2785176.04647  21010357.1334   21010360.3794
        34.0004         30.2504
   -372853.86647   -164521.96546  22078618.6174   22078621.8634
        25.0004         20.2504
 -14788257.70246  -8788698.38446  22609466.4534   22609469.7344
        19.5004         16.5004
 -13230512.43745 -10191090.08645  23671206.3444   23671211.2074
         9.7504          9.0004
 -10778435.77644  -8260735.49945  24888088.7504   24888095.3834
         7.2504          6.5004
 02 12 26  1 36 30.0000000  0  8G30G 4G10G 5G24G 6G23G17
 -17835662.46748 -13841356.21247  20654798.4844   20654800.5704
        34.0004         29.7504
  17099777.56444  13522968.04245  24558280.2194   24558279.8094
         7.0004          7.0004
 -19036419.07348 -14722805.96947  21069030.4454   21069033.8324
        30.2504         26.7504
  -7978499.88648  -2704109.18447  21030154.5004   21030157.5944
        34.0004         30.2504
   -255214.69547    -72855.04246  22101004.2814   22101007.9264
        24.7504         20.0004
 -14812199.49746  -8807354.23546  22604910.5314   22604914.1294
        19.5004         16.7504
 -13287196.88245 -10235259.39845  23660419.1094   23660425.1454
        10.0004          9.5004
 -10819537.56945  -8292762.62445  24880269.9304   24880280.3054
         8.0004          7.0004
 02 12 26  1 37  0.0000000  0  8G30G 4G10G 5G24G 6G23G17
 -17809009.90448 -13820587.94047  20659870.4224   20659872.3794
        34.0004         30.0004
  17243012.74944  13634579.88045  24585541.0084   24585541.0084
         7.7504          6.7504
 -19025573.21748 -14714354.58747  21071094.2974   21071097.8714
        30.5004         26.5004
  -7873984.10148  -2622668.29547  21050043.1884   21050046.1414
        34.0004         30.2504
   -137417.41447     18935.08146  22123420.6094   22123423.8674
        24.5004         19.7504
 -14836059.70046  -8825946.50246  22600369.9454   22600373.3794
        19.5004         16.5004
 -13343751.79045 -10279327.79945  23649656.9304   23649662.1914
        10.0004          9.5004
 -10860503.74545  -8324684.02545  24872476.0944   24872483.4804
         8.7504          7.0004
 02 12 26  1 37 30.0000000  0  8G30G 4G10G 5G24G 6G23G17
 -17781773.67648 -13799364.86347  20665053.1954   20665055.1994
        34.0004         30.0004
  17386227.73144  13746176.01745  24612792.8134   24612796.2934
         7.5004          7.2504
 -19014122.59648 -14705431.96547  21073273.2664   21073276.6994
        31.0004         26.7504
  -7768989.03948  -2540853.94547  21070023.0944   21070026.0234
        34.0004         30.2504
    -19463.02147    110847.62346  22145866.3674   22145869.6844
        24.5004         19.7504
 -14859836.55646  -8844473.81846  22595845.5084   22595849.2814
        19.5004         16.5004
 -13400173.62045 -10323292.46845  23638920.1884   23638926.1174
        10.2504          9.2504
 -10901332.81044  -8356498.61045  24864704.8364   24864714.9654
         7.7504          7.0004
 02 12 26  1 38  0.0000000  0  8G30G 4G10G 5G24G 6G23G17
 -17753951.43448 -13777685.15047  20670347.5784   20670349.5004
        34.0004         30.0004
  17529423.10344  13857756.84945  24640041.9454   24640045.4024
         7.5004          6.2504
 -19002064.19048 -14696035.74047  21075567.8054   21075570.9804
        31.2504         26.7504
  -7663514.61248  -2458666.06347  21090094.2344   21090097.0474
        34.0004         30.2504
     98648.54447    202882.65246  22168342.0474   22168345.6214
        24.2504         19.7504
 -14883527.49246  -8862934.18246  22591336.9454   22591340.3674
        19.7504         17.0004
 -13456458.13845 -10367150.15545  23628208.9224   23628214.3834
         9.7504          9.5004
 -10942022.28544  -8388204.36745  24856962.2664   24856967.2234
         7.2504          7.7504
 02 12 26  1 38 30.0000000  0  8G30G 4G10G 5G24G 6G23G17
 -17725548.22848 -13755552.74347  20675752.4454   20675754.3914
        34.0004         30.2504
  17672591.15745  13969316.48645  24667288.6094   24667292.3954
         8.7504          6.7504
 -18989402.73848 -14686169.61247  21077977.4454   21077980.4574
        31.5004         27.0004
  -7557568.76048  -2376110.83847  21110255.0864   21110258.1564
        34.0004         30.0004
    216909.44047    295034.02746  22190846.5004   22190849.4534
        23.7504         19.7504
 -14907137.89646  -8881331.79046  22586844.0704   22586847.6684
        19.7504         17.2504
 -13512608.74045 -10410903.49745  23617523.8524   23617528.9964
         9.7504          9.2504
 -10982577.73844  -8419805.61545  24849242.6414   24849249.2734
         7.2504          6.7504
 02 12 26  1 39  0.0000000  0  8G30G 4G10G 5G24G 6G23G17
 -17696554.90248 -13732960.49847  20681269.5704   20681271.4694
        34.0004         30.0004
  17815738.87544  14080860.15845  24694525.1254   24694526.6604
         7.7504          7.2504
 -18976128.95248 -14675826.34147  21080503.2424   21080506.3134
        31.7504         27.0004
  -7451145.04948  -2293183.26047  21130506.7894   21130509.8364
        34.0004         30.0004
    335325.77547    387306.53046  22213380.5314   22213383.9304
        23.7504         19.7504
 -14930658.66847  -8899659.56546  22582368.1564   22582371.5664
        20.0004         17.2504
 -13568614.43645 -10454543.96045  23606865.6804   23606871.6684
        10.0004          9.0004
 -11022989.84943  -8451295.23245  24841552.0554   24841557.7734
         6.2504          7.0004
 02 12 26  1 39 30.0000000  0  8G30G 4G10G 5G24G 6G23G17
 -17666973.51948 -13709910.02847  20686898.7504   20686900.6604
        34.0004         30.0004
  17958862.44244  14192385.08745  24721760.2734   24721764.1644
         7.7504          6.7504
 -18962244.14148 -14665006.93947  21083145.4144   21083148.4144
        31.7504         27.0004
  -7344247.87248  -2209886.74647  21150848.4924   21150851.7274
        34.0004         29.7504
    453893.01547    479696.61646  22235943.0784   22235946.7344
        23.5004         19.5004
 -14954091.74347  -8917918.99246  22577908.8594   22577911.9774
        20.2504         17.2504
 -13624475.32945 -10498071.57945  23596235.5234   23596241.2074
        10.2504          9.7504
 -11063260.82743  -8482674.72945  24833889.9534   24833898.8524
         6.7504          7.0004
 02 12 26  1 40  0.0000000  0  8G30G 4G10G 5G24G 6G23G17
 -17636803.90648 -13686401.20047  20692639.7974   20692641.6604
        34.0004         30.0004
  18101959.38145  14303889.25145  24748991.8364   24748996.0204
         8.0004          7.0004
 -18947748.20448 -14653711.34347  21085903.6954   21085906.7894
        31.7504         27.0004
  -7236879.97148  -2126223.43047  21171280.0084   21171283.2544
        34.0004         29.5004
    572608.87747    572202.51746  22258533.6254   22258537.0234
        23.2504         19.5004
 -14977437.19647  -8936110.13846  22573466.3444   22573469.8714
        20.5004         17.5004
 -13680189.56645 -10541484.92245  23585633.2424   23585639.5594
        10.5004         10.0004
 -11103391.26443  -8513944.85145  24826255.0784   24826259.1334
         6.7504          5.7504
 02 12 26  1 40 30.0000000  0  8G30G 4G10G 5G24G 6G23G17
 -17606048.24348 -13662435.70747  20698492.4534   20698494.2464
        34.0004         30.2504
  18245025.46443  14415369.30445  24776211.7194   24776212.9614
         6.5004          6.5004
 -18932642.68548 -14641940.74547  21088778.2274   21088781.2624
        31.5004         26.7504
  -7129046.12648  -2042197.03847  21191799.8134   21191803.0594
        34.0004         29.5004
    691468.27847    664820.25946  22281152.0004   22281155.4454
        23.2504         19.2504
 -15000697.16847  -8954234.69446  22569039.9454   22569043.1454
        21.0004         18.0004
 -13735757.50145 -10584784.29545  23575059.6334   23575065.0234
        11.0004         10.0004
 -11143383.45643  -8545107.17245  24818639.3054   24818646.3984
         6.2504          6.5004
 02 12 26  1 41  0.0000000  0  8G30G 4G10G 5G24G 6G23G17
 -17574704.96948 -13638012.33447  20704456.7114   20704458.5274
        34.0004         30.2504
  18388060.23543  14526825.07145  24803431.7344   24803433.2234
         6.7504          6.2504
 -18916925.66048 -14629693.64847  21091768.9064   21091772.0474
        31.5004         27.0004
  -7020747.08648  -1957808.15847  21212408.5474   21212412.0394
        33.7504         29.2504
    810469.98047    757548.89146  22303797.0944   22303800.3524
        23.5004         19.2504
 -15023869.87847  -8972291.23546  22564630.3594   22564633.5704
        21.2504         18.0004
 -13791175.60045 -10627966.91045  23564512.8364   23564518.9184
        11.0004         10.7504
 -11183235.52843  -8576160.35245  24811056.8134   24811065.8874
         6.2504          5.5004
 02 12 26  1 41 30.0000000  0  8G30G 4G10G 5G24G 6G23G17
 -17542768.83248 -13613126.99447  20710533.9384   20710535.8134
        34.0004         30.2504
  18531067.10643  14638258.99945  24830645.8594   24830648.9654
         6.7504          6.2504
 -18900591.52448 -14616965.68447  21094877.2344   21094880.4924
        31.5004         27.0004
  -6911980.24848  -1873054.76047  21233106.2504   21233109.5554
        34.0004         29.2504
    929617.18147    850390.89346  22326470.3674   22326473.5434
        23.7504         19.2504
 -15046949.93947  -8990275.58746  22560238.3134   22560241.7584
        21.2504         18.0004
 -13846436.61245 -10671027.17545  23553997.7504   23554002.7894
        11.5004         11.0004
 -11222942.87444  -8607100.90945  24803501.4774   24803509.8134
         7.0004          6.2504
 02 12 26  1 42  0.0000000  0  8G30G 4G10G 5G24G 6G23G17
 -17510243.66848 -13587782.66747  20716723.2344   20716725.0274
        34.0004         30.2504
  18674039.75145  14749666.25545  24857855.7194   24857858.1914
         8.7504          6.2504
 -18883643.69648 -14603759.51947  21098102.1884   21098105.4224
        31.2504         27.0004
  -6802752.24548  -1787942.01647  21253891.6094   21253894.7624
        33.7504         29.2504
   1048903.11547    943341.00346  22349169.9614   22349172.6684
        23.5004         19.2504
 -15069941.23847  -9008190.78546  22555863.3364   22555866.5704
        21.2504         18.5004
 -13901542.53645 -10713966.58945  23543510.8674   23543516.5164
        11.5004         10.5004
 -11262509.40845  -8637931.54645  24795972.7814   24795980.3674
         8.0004          6.2504
 02 12 26  1 42 30.0000000  0  8G30G 4G10G 5G24G 6G23G17
 -17477128.88248 -13561978.89647  20723024.8364   20723026.7344
        34.0004         30.5004
  18816977.15844  14861046.14745  24885054.0164   24885053.7114
         7.2504          6.2504
 -18866081.22648 -14590074.41447  21101444.0704   21101447.4224
        31.2504         27.2504
  -6693064.97648  -1702471.40947  21274764.5234   21274767.6174
        34.0004         29.2504
   1168326.17547   1036397.96746  22371895.1414   22371898.2584
        23.2504         19.0004
 -15092843.01147  -9026036.20846  22551505.2974   22551508.9774
        21.2504         18.0004
 -13956490.79245 -10756783.19545  23533053.5164   23533058.5084
        11.2504         11.2504
 -11301933.83644  -8668651.54745  24788469.8674   24788476.1484
         7.7504          6.2504
 02 12 26  1 43  0.0000000  0  8G30G 4G10G 5G24G 6G23G17
 -17443431.10948 -13535720.84747  20729437.2734   20729439.2894
        34.0004         30.2504
  18959870.70544  14972391.77145  24912245.6564   24912247.4844
         7.2504          6.2504
 -18847910.39748 -14575915.26247  21104901.8594   21104905.1884
        31.2504         27.2504
  -6582927.69848  -1616650.14047  21295722.8284   21295725.8984
        34.0004         29.0004
   1287877.10847   1129554.57346  22394644.9924   22394647.8634
        22.7504         18.5004
 -15115661.58847  -9043816.80846  22547162.7504   22547166.1374
        21.2504         18.0004
 -14011285.89745 -10799480.44345  23522627.4144   23522632.1954
        11.7504         10.7504
 -11341223.11244  -8699266.28145  24780992.9614   24781001.7074
         7.7504          7.5004
 02 12 26  1 43 30.0000000  0  8G30G 4G10G 5G24G 6G23G17
 -17409137.32148 -13508998.36947  20735963.0864   20735965.0434
        34.0004         30.2504
  19102731.37544  15083711.77445  24939433.0234   24939437.2774
         7.7504          5.7504
 -18829117.68748 -14561271.52547  21108478.1564   21108481.5084
        31.2504         27.2504
  -6472329.92748  -1530470.04947  21316768.8524   21316771.8284
        33.7504         29.2504
   1407566.55947   1222819.11546  22417421.0634   22417424.1094
        22.5004         18.7504
 -15138383.73247  -9061522.26846  22542838.7194   22542842.0594
        21.2504         18.0004
 -14065912.97645 -10842046.81045  23512231.1414   23512236.1914
        11.5004         11.0004
 -11380364.51345  -8729765.79645  24773543.9844   24773550.9844
         8.7504          7.2504
 02 12 26  1 44  0.0000000  0  8G30G 4G10G 5G24G 6G23G17
 -17374247.49648 -13481811.44847  20742602.3674   20742604.2304
        34.0004         30.2504
  19245557.04643  15195004.55445  24966607.5704   24966613.6884
         5.7504          5.2504
 -18809702.92248 -14546143.07347  21112172.4614   21112175.7894
        31.2504         27.2504
  -6361274.29948  -1443933.18247  21337902.3594   21337905.4184
        34.0004         28.7504
   1527391.97347   1316189.59146  22440222.6884   22440225.6054
        22.0004         18.5004
 -15161009.27647  -9079152.45146  22538533.0394   22538536.3444
        21.2504         18.2504
 -14120370.01845 -10884480.68545  23501868.1644   23501873.0164
        11.7504         10.7504
 -11419358.07245  -8760150.06745  24766126.8524   24766135.5514
         9.5004          7.7504
 02 12 26  1 44 30.0000000  0  8G30G 4G10G 5G24G 6G23G17
 -17338762.62548 -13454160.85347  20749354.7114   20749356.6214
        34.0004         30.2504
  19388345.37443  15306268.17945  24993779.9694   24993782.5824
         6.2504          6.5004
 -18789666.70448 -14530530.37447  21115985.0944   21115988.4104
        31.2504         27.2504
  -6249764.18648  -1357042.17347  21359121.9224   21359125.0514
        33.7504         28.7504
   1647350.25147   1409663.61346  22463050.3054   22463053.0594
        22.2504         18.2504
 -15183538.79247  -9096707.81646  22534245.7194   22534249.1174
        21.5004         18.0004
 -14174655.90845 -10926781.21245  23491538.8524   23491544.7584
        11.7504         10.5004
 -11458204.85245  -8790419.99845  24758733.2664   24758740.4064
         9.2504          7.2504
 02 12 26  1 45  0.0000000  0  8G30G 4G10G 5G24G 6G23G17
 -17302682.26248 -13426046.23747  20756220.6174   20756222.4804
        34.0004         30.2504
  -9371638.39053  15417500.28845  25020944.5634   25020951.5164
         6.2504          5.2504
 -18769008.02548 -14514432.63947  21119916.1484   21119919.3594
        31.2504         27.2504
  -6137801.61948  -1269798.60147  21380427.6804   21380430.6684
        34.0004         28.7504
   1767439.52647   1503239.70446  22485902.4384   22485905.2504
        22.0004         18.2504
 -15205971.46347  -9114187.70846  22529976.7584   22529979.7234
        21.7504         18.2504
 -14228767.97545 -10968946.33745  23481239.5554   23481245.5314
        11.2504         10.7504
 -11496904.13145  -8820574.97845  24751367.9844   24751374.3484
         8.7504          7.5004
 02 12 26  1 45 30.0000000  0  8G30G 4G10G 5G24G 6G23G17
 -17266005.91548 -13397467.21747  20763199.9454   20763201.7504
        34.0004         30.0004
  -9228929.52343  15528702.06945  25048100.1954   25048102.0594
         5.5004          5.2504
 -18747726.17148 -14497849.31247  21123965.9774   21123969.1294
        31.2504         27.2504
  -6025388.89548  -1182204.26247  21401818.9614   21401821.9964
        33.7504         28.5004
   1887657.77447   1596916.29646  22508778.9144   22508781.9264
        21.7504         18.2504
 -15228306.58447  -9131591.59546  22525726.8914   22525730.0204
        22.0004         18.2504
 -14282703.87445 -11010974.16745  23470976.7344   23470980.9534
        11.7504         10.7504
 -11535455.60145  -8850614.76345  24744029.1174   24744035.8794
         8.2504          7.5004
 02 12 26  1 46  0.0000000  0  8G30G 4G10G 5G24G 6G23G17
 -17228735.35848 -13368425.17947  20770292.2424   20770294.0004
        34.0004         30.2504
  -9400220.21353  15639862.90645  25075250.3914   25075253.0984
         5.5004          5.0004
 -18725822.44048 -14480781.41047  21128134.2504   21128137.2624
        31.5004         27.0004
  -5912530.18248  -1094262.39947  21423295.3204   21423298.3674
        33.7504         28.2504
   2008001.21947   1690690.43646  22531679.7584   22531682.8054
        21.7504         17.7504
 -15250545.37047  -9148920.41846  22521494.5004   22521497.5594
        22.0004         18.5004
 -14336463.09045 -11052864.36945  23460746.2974   23460751.5824
        11.5004         11.0004
 -11573861.03445  -8880540.76245  24736722.4144   24736728.7194
         8.7504          7.2504
 02 12 26  1 46 30.0000000  0  8G30G 4G10G 5G24G 6G23G17
 -17190867.45248 -13338917.67347  20777498.2274   20777500.0904
        34.0004         30.2504
  -9400234.37452  15750998.65844  25102388.7194   25102392.2464
         4.2504          4.5004
 -18703293.30748 -14463226.17947  21132421.4144   21132424.4144
        31.5004         27.2504
  -5799224.85148  -1005972.51647  21444856.6564   21444859.5634
        33.5004         28.2504
   2128470.54147   1784562.66746  22554604.3364   22554607.2664
        21.2504         17.5004
 -15272684.32947  -9166171.45246  22517281.6644   22517284.7464
        22.2504         18.5004
 -14390040.43445 -11094612.85345  23450550.7974   23450555.2154
        11.5004         11.2504
 -11612116.82545  -8910350.10345  24729441.4844   24729448.1524
         8.5004          7.2504
 02 12 26  1 47  0.0000000  0  8G30G 4G10G 5G24G 6G23G17
 -18727819.78348 -14536542.81947  20485025.9304   20485027.6054
        34.0004         30.5004
                                  24829735.0314
         7.2504
 -20255556.70948 -15672782.01547  20837035.4144   20837038.3674
        31.5004         27.2504
  -7260890.51548  -2144932.76047  21166710.7894   21166713.7774
        33.0004         28.0004
    673648.86747    650935.41846  22277760.6174   22277763.8054
        21.0004         17.5004
 -16870142.72947 -10410944.13546  22213295.4224   22213298.7734
        22.5004         18.7504
 -16018854.43946 -12363818.50045  23140597.8914   23140602.6024
        12.0004         11.5004
 -13225643.46145 -10167643.29945  24422397.4224   24422402.8834
         8.0004          7.7504
 02 12 26  1 47 30.0000000  0  8G30G 4G10G 5G24G 6G23G17
 -18688754.65648 -14506102.41547  20492459.7424   20492461.3834
        34.0004         30.2504
                                  24856856.2424
         5.7504
 -20231773.64748 -15654249.69447  20841561.1484   20841563.9024
        31.5004         27.2504
  -7146697.05548  -2055950.82547  21188441.0864   21188444.1684
        33.0004         28.0004
    794366.06447    745000.80046  22300732.4694   22300735.4224
        21.0004         17.5004
 -16892078.33547 -10428036.71546  22209121.0704   22209124.3524
        22.2504         18.7504
 -16072059.10546 -12405276.60945  23130473.7344   23130478.9144
        12.5004         11.2504
 -13263597.85845 -10197217.76745  24415173.9454   24415177.8954
         8.0004          7.2504
 02 12 26  1 48  0.0000000  0  8G30G 4G10G 5G24G 6G23G17
 -18649092.55548 -14475196.83647  20500007.0314   20500008.7664
        34.0004         30.2504
                                  24883975.3594
         8.0004
 -20207364.63748 -15635229.62147  20846205.9774   20846208.8244
        31.2504         27.2504
  -7032064.73848  -1966626.93047  21210254.9534   21210257.9534
        33.0004         27.7504
    915202.29747    839158.92646  22323726.5004   22323729.4304
        20.7504         17.5004
 -16913913.07447 -10445050.69646  22204966.0784   22204969.5004
        22.2504         19.0004
 -16125075.71146 -12446588.22145  23120384.2894   23120389.8674
        12.2504         11.5004
 -13301402.47445 -10226675.61745  24407979.9844   24407988.2034
         8.0004          7.2504
 02 12 26  1 48 30.0000000  0  8G30G 4G10G 5G24G 6G23G17
 -18608834.84848 -14443827.14847  20507667.9924   20507669.7034
        34.0004         30.5004
 -10890256.71143                  24911074.3984
         6.5004
 -20182330.57848 -15615722.50047  20850969.7584   20850972.8054
        31.2504         27.2504
  -6916997.48248  -1876964.11647  21232151.4454   21232154.4924
        33.0004         27.5004
   1036153.91347    933406.96746  22346742.9924   22346746.0274
        20.7504         17.7504
 -16935647.86947 -10461986.80446  22200829.8914   22200833.3014
        22.2504         19.0004
 -16177903.34745 -12487752.57045  23110331.3134   23110337.2544
        11.7504         11.5004
 -13339059.56845 -10256018.49245  24400814.6174   24400819.8094
         8.2504          6.7504
 02 12 26  1 49  0.0000000  0  8G30G 4G10G 5G24G 6G23G17
 -18567978.52248 -14411991.00547  20515442.7194   20515444.4534
        34.0004         30.5004
 -10747868.70243                  24938168.6024
         5.5004
 -20156668.43848 -15595725.96747  20855852.8674   20855855.6804
        31.2504         27.2504
  -6801494.69548  -1786961.93447  21254130.7814   21254133.9924
        33.0004         27.5004
   1157222.05547   1027745.80546  22369781.4384   22369784.9184
        20.2504         17.2504
 -16957279.10347 -10478842.22146  22196713.4614   22196716.9654
        22.2504         19.2504
 -16230536.75046 -12528765.57946  23100315.7194   23100320.8404
        12.2504         12.2504
 -13376565.28244 -10285243.39245  24393675.0864   24393681.4844
         7.7504          7.0004
 02 12 26  1 49 30.0000000  0  8G30G 4G10G 5G24G 6G23G17
 -18526527.52848 -14379691.48547  20523330.4534   20523331.9774
        34.0004         30.7504
 -10605535.50845  -8522966.00055  24965257.2584   24965261.6884
         8.0004          6.2504
 -20130381.95648 -15575242.93147  20860855.0864   20860857.9104
        31.2504         27.5004
  -6685562.73548  -1696625.33247  21276191.9064   21276195.0704
        33.0004         27.2504
   1278400.90147   1122170.90146  22392841.1024   22392844.5474
        20.2504         17.2504
 -16978810.09847 -10495619.52246  22192616.3834   22192619.3594
        22.2504         19.2504
 -16282977.69246 -12569628.59846  23090335.9454   23090341.4304
        12.7504         12.0004
 -13413923.30045 -10314353.21445  24386568.8984   24386573.3404
         8.7504          7.5004
 02 12 26  1 50  0.0000000  0  8G30G 4G10G 5G24G 6G23G17
 -18484477.99048 -14346925.57047  20531332.1254   20531333.7894
        34.0004         30.7504
 -10463254.61143  -8412097.75145  24992330.1414   24992330.9734
         6.7504          6.2504
 -20103466.58148 -15554269.85247  20865976.8204   20865979.6214
        31.5004         27.5004
  -6569200.33448  -1605953.32147  21298334.9694   21298337.9104
        32.7504         27.5004
   1399691.85147   1216683.35146  22415922.0784   22415925.3364
        20.2504         17.2504
 -17000236.07647 -10512315.00146  22188538.9304   22188542.2464
        22.2504         19.2504
 -16335219.86646 -12610336.71746  23080395.7894   23080401.0394
        13.0004         12.2504
 -13451130.17145 -10343345.32345  24379487.0394   24379493.2974
         8.2504          8.2504
 02 12 26  1 50 30.0000000  0  8G30G 4G10G 5G24G 6G23G17
 -18441828.31548 -14313692.01847  20539448.0784   20539449.7304
        34.0004         31.0004
 -10321025.86543  -8301270.10345  25019394.8284   25019398.4614
         6.5004          5.7504
 -20075920.74548 -15532805.50847  20871218.6804   20871221.5044
        31.7504         27.7504
  -6452408.41048  -1514946.61447  21320559.9064   21320562.9064
        33.0004         27.5004
   1521094.96447   1311283.19646  22439024.0314   22439027.4184
        20.0004         17.0004
 -17021555.14447 -10528927.17646  22184481.8834   22184484.9064
        22.2504         19.5004
 -16387259.55046 -12650887.01446  23070492.2584   23070496.9344
        13.2504         12.2504
 -13488183.78445 -10372217.93945  24372435.5784   24372441.7194
         8.5004          7.5004
 02 12 26  1 51  0.0000000  0  8G30G 4G10G 5G24G 6G23G17
 -18398583.10248 -14279994.40947  20547677.2814   20547679.1804
        34.0004         30.7504
 -10178855.17043  -8190487.73745  25046448.9844   25046452.0904
         6.0004          5.5004
 -20047748.15648 -15510852.78347  20876579.8284   20876582.8164
        31.7504         27.5004
  -6335193.57648  -1423610.37147  21342865.0634   21342867.9344
        33.0004         27.5004
   1642603.71247   1405965.35546  22462146.5634   22462149.6914
        20.0004         17.0004
 -17042770.82547 -10545458.78946  22180444.7114   22180447.8284
        22.5004         19.5004
 -16439098.83046 -12691281.12346  23060627.5704   23060632.2704
        13.0004         12.5004
 -13525088.19945 -10400974.39145  24365415.3134   24365422.0514
         9.2504          7.5004
 02 12 26  1 51 30.0000000  0  8G30G 4G10G 5G24G 6G23G17
 -18354731.51248 -14245824.30147  20556021.9774   20556023.7464
        34.0004         30.7504
 -10036733.41443  -8079743.53345  25073492.9844   25073495.6334
         6.0004          5.2504
 -20018937.97948 -15488403.24147  20882062.0704   20882065.0474
        31.7504         27.7504
  -6217547.78448  -1331938.31147  21365252.1564   21365255.1214
        32.5004         27.0004
   1764226.42547   1500736.31746  22485290.4774   22485293.7234
        20.0004         17.0004
 -17063871.89347 -10561901.09946  22176429.2584   22176432.1764
        22.7504         19.5004
 -16490724.65646 -12731508.83746  23050803.6024   23050808.3364
        13.2504         12.5004
 -13561832.73045 -10429606.21745  24358421.0634   24358424.9414
         8.2504          8.5004
 02 12 26  1 52  0.0000000  0  8G30G 4G10G 5G24G 6G23G17
 -18310282.10548 -14211188.35947  20564480.4384   20564482.1844
        34.0004         30.7504
  -9894670.41044  -7969045.03644  25100531.3834   25100536.6214
         7.5004          4.2504
 -19989498.72548 -15465463.50047  20887664.0784   20887666.8914
        31.7504         27.7504
  -6099482.02648  -1239939.00947  21387719.5784   21387722.3914
        32.5004         27.0004
   1885952.89047   1595588.13346  22508454.3594   22508457.1844
        20.0004         17.0004
 -17084866.07647 -10578260.12246  22172434.1484   22172437.2894
        23.0004         20.0004
 -16542142.95846 -12771574.82446  23041018.8834   23041022.7624
        13.7504         12.5004
 -13598425.60845 -10458119.86345  24351457.2194   24351461.4384
         8.7504          7.5004
 02 12 26  1 52 30.0000000  0  8G30G 4G10G 5G24G 6G23G17
 -18265225.40048 -14176079.20247  20573054.2344   20573056.0044
        34.0004         30.7504
  -9752657.86343  -7858385.84645  25127553.2734   25127553.8014
         6.7504          6.2504
 -19959420.51348 -15442025.87947  20893387.4924   20893390.3054
        31.2504         27.5004
  -5980988.98948  -1147606.75847  21410267.9844   21410270.8674
        32.0004         26.5004
   2007790.96847   1690526.92346  22531639.2974   22531642.5434
        20.0004         16.7504
 -17105743.05247 -10594527.80946  22168461.4774   22168464.2424
        23.2504         19.7504
 -16593341.99646 -12811469.95446  23031276.1954   23031280.8134
        13.5004         12.5004
 -13634857.19345 -10486507.95345  24344524.3594   24344529.8794
         8.7504          7.0004
 02 12 26  1 53  0.0000000  0  8G30G 4G10G 5G24G 6G23G17
 -18219566.18148 -14140500.55347  20581742.9454   20581744.7734
        34.0004         30.7504
  -9610701.74543  -7747770.72745  25154565.1414   25154567.7074
         5.5004          6.2504
 -19928707.75748 -15418093.80847  20899232.1954   20899234.9964
        31.5004         27.5004
  -5862075.76848  -1054947.10047  21432896.4614   21432899.3444
        31.7504         26.5004
   2129734.25146   1785547.68946  22554844.3444   22554847.7894
        19.7504         16.2504
 -17126506.78247 -10610707.26146  22164509.8444   22164512.7274
        23.5004         20.0004
 -16644324.10246 -12851196.00646  23021574.0394   23021578.5634
        13.7504         12.5004
 -13671131.48745 -10514773.36645  24337622.3754   24337626.7584
         9.0004          8.2504
 02 12 26  1 53 30.0000000  0  8G30G 4G10G 5G24G 6G23G17
 -18173307.22448 -14104454.57747  20590545.7814   20590547.4454
        34.0004         30.7504
  -9468806.13644  -7637202.54745  25181570.5634   25181570.9024
         7.2504          6.5004
 -19897363.04348 -15393669.30247  20905196.7814   20905199.5474
        31.7504         28.0004
  -5742747.48248   -961964.00347  21455603.7424   21455606.7544
        31.5004         26.2504
   2251777.87846   1880646.64846  22578068.6804   22578072.0784
        19.5004         16.0004
 -17147159.21247 -10626799.97946  22160579.9774   22160582.7074
        23.7504         20.2504
 -16695089.77846 -12890753.44146  23011913.1334   23011917.1644
        14.0004         12.7504
 -13707251.26445 -10542918.39645  24330748.4924   24330755.1724
         9.0004          8.2504
 02 12 26  1 54  0.0000000  0  8G30G 4G10G 5G24G 6G23G17
 -18126446.57748 -14067939.75047  20599463.1174   20599464.6644
        34.0004         30.5004
  -9326970.20644  -7526681.19444  25208561.7194   25208559.8674
         7.2504          4.7504
 -19865384.04848 -15368750.55247  20911282.2274   20911285.0274
        31.7504         28.0004
  -5623004.67448   -868657.90947  21478390.0704   21478392.9534
        31.5004         26.2504
   2373922.11846   1975824.00946  22601312.1884   22601315.5394
        19.5004         16.0004
 -17167697.61847 -10642803.85346  22156671.6254   22156674.4494
        24.2504         20.2504
 -16745634.67446 -12930138.84246  23002294.8284   23002298.8484
        14.5004         13.0004
 -13743214.40845 -10570941.40445  24323904.4144   24323909.0664
         9.2504          8.2504
 02 12 26  1 54 30.0000000  0  8G30G 4G10G 5G24G 6G23G17
 -18078986.39548 -14030957.75147  20608494.3364   20608495.9654
        34.0004         30.5004
  -9185197.41643  -7416208.97444  25235537.4384   25235535.1884
         6.0004          4.0004
 -19832772.33948 -15343338.78047  20917487.9614   20917490.6094
        32.0004         28.0004
  -5502851.75348   -775032.23747  21501254.4224   21501257.1994
        31.2504         26.2504
   2496163.04846   2071076.71046  22624573.4304   22624576.4884
        19.2504         16.0004
 -17188122.81047 -10658719.50546  22152784.6954   22152787.4264
        24.2504         20.5004
 -16795958.21446 -12969351.75546  22992718.8834   22992723.1134
        15.0004         13.0004
 -13779022.48645 -10598843.57945  24317089.1954   24317097.1454
         9.2504          8.0004
 02 12 26  1 55  0.0000000  0  8G30G 4G10G 5G24G 6G23G17
 -18030926.37548 -13993508.34847  20617639.9144   20617641.7194
        34.0004         30.5004
  -9043488.62542  -7305786.43045  25262500.8524   25262501.6724
         4.7504          5.5004
 -19799527.95448 -15317434.01247  20923814.0944   20923816.7424
        31.7504         27.7504
  -5382290.84748   -681088.65547  21524196.2734   21524199.2034
        30.7504         26.0004
   2618499.11446   2166403.54646  22647853.0784   22647856.0204
        19.2504         16.0004
 -17208433.77747 -10674546.15246  22148919.7114   22148922.4884
        24.2504         20.7504
 -16846057.80246 -13008390.20346  22983184.6804   22983188.6644
        15.0004         13.5004
 -13814674.84945 -10626624.43045  24310306.2114   24310311.4494
        10.0004          8.0004
 02 12 26  1 55 30.0000000  0  8G30G 4G10G 5G24G 6G23G17
 -17982261.36448 -13955587.52147  20626900.3594   20626902.1174
        34.0004         30.5004
  -8901839.70142  -7195410.65744  25289455.0004   25289456.7934
         4.0004          4.5004
 -19765645.19648 -15291031.80747  20930261.7814   20930264.5004
        31.7504         27.7504
  -5261319.07148   -586824.90946  21547216.4144   21547219.2734
        30.5004         25.7504
   2740934.29546   2261807.61846  22671151.5944   22671154.6644
        18.7504         16.0004
 -17228624.35047 -10690278.98846  22145077.4924   22145080.0824
        24.5004         20.5004
 -16895925.76146 -13047248.15946  22973695.3284   22973699.5234
        15.7504         13.7504
 -13850165.56845 -10654279.34145  24303551.4844   24303556.8754
         9.7504          8.2504
 02 12 26  1 56  0.0000000  0  8G30G 4G10G 5G24G 6G23G17
 -17932989.31548 -13917193.67847  20636276.6254   20636278.3484
        34.0004         30.7504
  -8760249.63742  -7085080.66244  25316399.2274   25316403.9494
         4.7504          4.0004
 -19731121.45048 -15264130.14047  20936831.2664   20936833.9024
        31.7504         28.0004
  -5139936.45248   -492241.03446  21570314.9774   21570317.9064
        30.7504         25.7504
   2863468.73246   2357289.02346  22694469.3594   22694472.1844
        18.7504         16.0004
 -17248691.50647 -10705915.65546  22141258.7664   22141261.2854
        24.5004         20.7504
 -16945557.30346 -13085921.93446  22964250.4384   22964254.4224
        15.5004         14.2504
 -13885492.67245 -10681806.76645  24296829.2034   24296835.8364
         9.7504          8.2504
 02 12 26  1 56 30.0000000  0  8G30G 4G10G 5G24G 6G23G17
 -17883117.34448 -13878332.36647  20645766.8204   20645768.5314
        34.0004         30.7504
  -8618726.84542  -6974803.09343  25343329.4844   25343338.3134
         4.7504          3.7504
 -19695963.59048 -15236734.35147  20943521.6884   20943524.1484
        32.0004         28.0004
  -5018152.66948   -397344.56746  21593489.4224   21593492.2344
        30.5004         25.7504
   2986093.67546   2452840.95646  22717803.8834   22717807.3524
        18.5004         16.0004
 -17268641.36747 -10721460.91846  22137462.2194   22137464.9024
        24.7504         20.7504
 -16994957.20646 -13124415.23846  22954850.0234   22954853.1884
        15.5004         14.2504
 -13920662.67345 -10709211.80345  24290136.2974   24290142.1334
        10.0004          8.0004
 02 12 26  1 57  0.0000000  0  8G30G 4G10G 5G24G 6G23G17
 -17832642.97948 -13839001.65147  20655371.6174   20655373.3164
        34.0004         31.0004
  -8477269.62742  -6864576.75944  25370249.7504   25370253.3594
         4.7504          4.7504
 -19660169.03048 -15208842.43347  20950333.0554   20950335.6334
        32.0004         28.0004
  -4895967.30648   -302135.17346  21616740.4924   21616743.2934
        30.2504         25.7504
   3108810.25446   2548464.28146  22741155.8984   22741159.1214
        18.5004         15.7504
 -17288470.19947 -10736911.88646  22133688.7814   22133691.5944
        24.7504         21.0004
 -17044120.26546 -13162723.99846  22945494.8364   22945498.5164
        16.0004         14.0004
 -13955672.69645 -10736492.15745  24283473.6414   24283479.9924
         9.7504          9.0004
 02 12 26  1 57 30.0000000  0  8G30G 4G10G 5G24G 6G23G17
 -17781566.21348 -13799201.53447  20665091.3054   20665092.9454
        34.0004         31.0004
  -8335879.00543  -6754402.19044  25397154.3444   25397161.6134
         5.5004          4.5004
 -19623737.61548 -15180454.26347  20957265.6174   20957268.1374
        31.7504         28.0004
  -4773382.70348   -206614.68446  21640067.7034   21640070.7154
        30.2504         25.5004
   3231616.85746   2644157.77946  22764525.2114   22764527.8014
        18.5004         15.2504
 -17308176.92847 -10752267.69946  22129938.6174   22129941.2194
        24.7504         21.0004
 -17093044.08646 -13200846.37746  22936183.8524   22936188.3164
        15.2504         14.5004
 -13990522.40445 -10763647.65345  24276840.8054   24276846.6174
         9.7504          8.5004
 02 12 26  1 58  0.0000000  0  8G30G 4G10G 5G24G 6G23G17
 -17729886.10648 -13758931.28347  20674925.7974   20674927.4734
        34.0004         31.0004
  -8194555.13642  -6644279.64644  25424046.5394   25424055.2034
         4.5004          4.7504
 -19586668.03448 -15151568.81947  20964319.7344   20964322.3714
        31.7504         28.0004
  -4650400.12848   -110784.08946  21663470.7504   21663473.7624
        30.5004         25.7504
   3354512.76446                  22787911.7584
        18.7504
 -17327759.54147 -10767526.81046  22126212.1334   22126215.0634
        25.0004         21.0004
 -17141724.99146 -13238779.48546  22926920.4924   22926924.7344
        15.0004         14.0004
 -14025210.31445 -10790677.03845  24270241.9774   24270247.4384
        10.5004          8.7504
 02 12 26  1 58 30.0000000  0  8G30G 4G10G 5G24G 6G23G17
 -17677605.25248 -13718192.92047  20684874.4924   20684876.0044
        34.0004         31.0004
  -8053301.23843  -6534211.77542  25450926.7894   25450933.2934
         5.5004          2.7504
 -19548962.52548 -15122187.85247  20971494.7344   20971497.3484
        31.5004         27.7504
  -4527024.49148    -14647.20146  21686947.8364   21686950.9654
        30.0004         25.5004
   3477494.17446                  22811314.4614
        18.7504
 -17347219.31947 -10782690.20446  22122509.1414   22122511.7664
        25.0004         21.2504
 -17190162.74046 -13276523.12646  22917702.5634   22917707.1684
        15.0004         14.0004
 -14059738.42845 -10817581.94145  24263671.0164   24263676.8984
        10.0004          8.5004
 02 12 26  1 59  0.0000000  0  8G30G 4G10G 5G24G 6G23G17
 -17624724.12448 -13676986.80847  20694937.4064   20694938.8484
        34.0004         31.0004
  -7912118.43643  -6424199.07644  25477794.6414   25477796.1764
         5.5004          4.7504
 -19510621.27748 -15092311.50647  20978790.6804   20978793.3164
        31.5004         28.0004
  -4403258.42148     81793.91546  21710500.0164   21710503.0274
        29.7504         25.2504
   3600559.32746  -8510090.51256  22834733.1254   22834735.9964
        18.7504         16.2504
 -17366555.36347 -10797757.17146  22118829.5784   22118832.2974
        25.2504         21.2504
 -17238355.19346 -13314075.62746  22908532.2034   22908536.3754
        15.2504         14.0004
 -14094106.52445 -10844362.14145  24257130.0704   24257135.6254
         9.7504          9.0004
 02 12 26  1 59 30.0000000  0  8G30G 4G10G 5G24G 6G23G17
 -17571239.95448 -13635310.79747  20705115.0004   20705116.4534
        34.0004         30.7504
  -7771005.41442  -6314240.87145  25504646.8364   25504649.1564
         4.7504          5.2504
 -19471641.66148 -15061937.72747  20986208.3914   20986211.0634
        31.5004         28.2504
  -4279101.41348    178539.66146  21734125.9844   21734128.9614
        29.5004         25.2504
   3723709.32446  -8414129.45046  22858167.5474   22858170.8404
        18.7504         16.0004
 -17385763.81047 -10812724.73146  22115174.3134   22115176.5274
        25.5004         21.2504
 -17286296.98346 -13351432.80146  22899408.7344   22899413.0234
        15.0004         14.5004
 -14128311.69345 -10871015.36345  24250621.3914   24250626.4534
         9.7504          9.0004
 02 12 26  2  0  0.0000000  0  8G30G 4G10G 5G24G 6G23G17
 -17517149.43048 -13593162.30347  20715408.1564   20715409.5984
        34.0004         30.7504
  -7629959.05043  -6204334.55844  25531487.4694   25531494.2774
         5.7504          4.7504
 -19432019.77448 -15031063.48147  20993747.9844   20993750.5984
        31.5004         28.0004
  -4154552.21448    275591.01046  21757827.2504   21757830.3554
        29.5004         25.0004
   3846946.23346  -8318100.66046  22881618.7974   22881621.4104
        18.5004         16.0004
 -17404839.88147 -10827589.13346  22111544.2814   22111546.8014
        25.7504         21.2504
 -17333981.89246 -13388589.79246  22890335.1804   22890339.2814
        15.7504         14.2504
 -14162349.59045 -10897538.27145  24244143.8364   24244150.7774
         9.7504          8.7504
 02 12 26  2  0 30.0000000  0  8G30G 4G10G 5G24G 6G23G17
 -17462453.14548 -13550541.78547  20725816.3674   20725817.7504
        34.0004         30.7504
  -7488981.12643  -6094481.66245  25558314.5784   25558314.1914
         6.7504          6.0004
 -19391756.19348 -14999689.21347  21001409.8984   21001412.8284
        31.7504         28.2504
  -4029613.77648    372945.66846  21781601.6644   21781604.8404
        29.0004         25.0004
   3970268.00746  -8222005.74846  22905086.3054   22905089.6804
        18.2504         15.7504
 -17423782.96847 -10842349.91446  22107939.6954   22107942.1914
        26.0004         21.7504
 -17381408.04146 -13425545.15046  22881309.6334   22881313.5944
        15.2504         14.5004
 -14196220.38345 -10923930.94145  24237698.7034   24237704.8914
         9.7504          9.0004
 02 12 26  2  1  0.0000000  0  8G30G 4G10G 5G24G 6G23G17
 -17407153.10948 -13507450.81047  20736339.4694   20736340.9924
        34.0004         30.5004
  -7348074.02543  -5984683.89245  25585127.9694   25585132.3054
         6.7504          5.5004
 -19350852.59248 -14967816.22547  21009193.5164   21009196.3404
        31.5004         28.2504
  -3904290.04748    470600.55646  21805450.6804   21805453.9024
        29.5004         24.7504
   4093671.66246  -8125847.03946  22928569.1174   22928572.1524
        18.0004         15.5004
 -17442593.78947 -10857007.62546  22104359.8754   22104362.1484
        26.2504         21.5004
 -17428574.49246 -13462298.13846  22872334.5084   22872338.3754
        15.7504         14.5004
 -14229925.21145 -10950194.29045  24231284.2344   24231291.1884
         9.5004          9.2504
 02 12 26  2  1 30.0000000  0  8G30G 4G10G 5G24G 6G23G17
 -17351247.52348 -13463887.98047  20746977.8754   20746979.3284
        34.0004         30.5004
  -7207236.96843  -5874940.70345  25611928.7664   25611932.9964
         5.7504          5.2504
 -19309306.81548 -14935442.84547  21017099.4144   21017102.1334
        31.7504         28.2504
  -3778581.49148    568555.30546  21829371.7814   21829374.6764
        28.7504         24.2504
   4217157.59946  -8029624.20846  22952067.0394   22952070.1334
        17.2504         15.0004
 -17461269.03147 -10871559.69546  22100805.9774   22100808.3554
        26.2504         22.0004
 -17475476.72646 -13498845.22846  22863409.1174   22863412.9024
        16.0004         14.7504
 -14263461.98545 -10976326.68545  24224902.2814   24224908.7974
         9.7504          8.7504
 02 12 26  2  2  0.0000000  0  8G30G 4G10G 5G24G 6G23G17
 -17294742.20348 -13419857.82447  20757730.5314   20757732.0314
        34.0004         30.7504
  -7066476.15442                  25638714.8914
         4.0004
 -19267124.40448 -14902573.39247  21025126.3134   21025129.1024
        31.7504         28.0004
  -3652495.95948    666803.80146  21853365.2034   21853368.1564
        28.5004         24.2504
   4340718.99746  -7933342.57846  22975580.5474   22975584.2504
        17.0004         15.0004
 -17479813.09447 -10886009.54646  22097277.2894   22097279.7504
        26.2504         22.0004
 -17522117.72746 -13535188.74846  22854533.6804   22854537.4184
        16.5004         14.7504
 -14296835.59545 -11002331.90645  24218552.3754   24218556.2304
         9.7504          9.0004
 02 12 26  2  2 30.0000000  0  8G30G 4G10G 5G24G 6G23G17
 -17237636.50248 -13375359.84447  20768597.2894   20768598.6844
        34.0004         30.7504
  -6925791.61041                  25665486.7894
         2.2504
 -19224304.47048 -14869207.16247  21033274.6884   21033277.4304
        31.5004         28.2504
  -3526035.11548    765344.74946  21877429.8284   21877432.8404
        28.5004         24.0004
   4464355.07946  -7837002.74846  22999107.0704   22999110.8554
        16.5004         14.2504
 -17498224.02647 -10900355.66046  22093773.7034   22093776.0004
        26.5004         22.2504
 -17568494.16046 -13571326.11446  22845708.8444   22845712.7234
        16.7504         15.0004
 -14330044.90845 -11028209.14045  24212232.1884   24212236.8404
        10.0004          9.2504
 02 12 26  2  3  0.0000000  0  8G30G 4G10G 5G24G 6G23G17
 -17179931.37548 -13330394.78247  20779578.4304   20779579.8134
        34.0004         31.0004
                                  25692239.9304
          .7504
 -19180848.02048 -14835344.95147  21041544.1024   21041546.7624
        31.2504         28.0004
  -3399201.79548    864175.94146  21901565.3674   21901568.4144
        28.2504         23.7504
   4588063.92546  -7740606.21746  23022648.4224   23022652.0664
        16.2504         14.2504
 -17516501.18547 -10914597.53446  22090295.4924   22090297.7664
        26.5004         22.2504
 -17614604.05246 -13607255.77846  22836933.6254   22836937.2344
        16.5004         15.0004
 -14363090.28545 -11053958.59945  24205944.7974   24205949.5434
        10.5004          9.2504
 02 12 26  2  3 30.0000000  0  7G30G10G 5G24G 6G23G17
 -17121623.62948 -13284960.14347  20790673.9384   20790675.2854
        34.0004         31.0004
 -19136751.40748 -14800983.91147  21049935.4534   21049938.2544
        31.5004         28.0004
  -3271995.04948    963298.11346  21925771.6024   21925774.3914
        28.0004         23.7504
   4711847.55746  -7644151.41946  23046203.0004   23046206.1884
        16.0004         14.5004
 -17534639.99047 -10928731.59946  22086843.8364   22086846.2504
        26.7504         22.5004
 -17660441.47646 -13642973.13746  22828211.4774   22828215.6134
        17.2504         15.5004
 -14395968.02945 -11079577.44645  24199686.3984   24199691.1454
        10.5004          9.7504
 02 12 26  2  4  0.0000000  0  7G30G10G 5G24G 6G23G17
 -18638131.40648 -14466654.48547  20502092.1174   20502093.6174
        34.0004         31.0004
 -20667433.17548 -15993722.90647  20758656.3674   20758659.0044
        31.0004         27.7504
  -4719832.60948   -164886.97146  21650257.8524   21650260.5594
        28.7504         23.5004
   3260288.92946  -8775236.04846  22769980.8984   22769984.0744
        16.2504         14.5004
 -19128059.40647 -12170357.04846  21783626.1024   21783628.4454
        26.7504         22.5004
 -19281424.97846 -14906077.06246  22519748.3754   22519752.0204
        17.5004         16.0004
 -16004098.25245 -12332665.79345  23893670.5784   23893676.0044
        11.0004          9.5004
 02 12 26  2  4 30.0000000  0  7G30G10G 5G24G 6G23G17
 -18578615.65048 -14420278.54547  20513417.6724   20513419.0434
        34.0004         31.0004
 -20622053.19948 -15958361.83947  20767291.6724   20767294.4844
        30.7504         27.7504
  -4591881.94948    -65185.13446  21674605.5474   21674608.6054
        28.2504         23.7504
   3384221.37646  -8678665.27846  22793564.7034   22793568.2424
        16.5004         14.2504
 -19145913.74547 -12184269.45446  21780228.4224   21780230.6724
        26.7504         22.5004
 -19326705.77746 -14941360.68746  22511131.1254   22511134.9694
        17.2504         15.7504
 -16036635.16545 -12358019.07745  23887479.8444   23887485.8204
        11.2504         10.2504
 02 12 26  2  5  0.0000000  0  7G30G10G 5G24G 6G23G17
 -18518499.43548 -14373434.71647  20524857.2664   20524858.6724
        34.0004         30.7504
 -20576034.74948 -15922503.26147  20776048.7974   20776051.4804
        31.2504         27.7504
  -4463565.92447     34801.40846  21699023.0474   21699025.8244
        27.7504         23.5004
   3508223.72546  -8582040.04446  22817161.3284   22817164.6214
        16.7504         14.5004
 -19163626.94647 -12198071.87946  21776857.5164   21776860.0354
        27.0004         22.5004
 -19371707.60646 -14976426.95146  22502567.8284   22502571.4734
        17.0004         16.0004
 -16069004.05145 -12383241.46345  23881317.6094   23881322.2504
        11.2504          9.7504
 02 12 26  2  5 30.0000000  0  7G30G10G 5G24G 6G23G17
 -18457784.48648 -14326124.33847  20536410.7894   20536412.2194
        34.0004         30.7504
 -20529379.33248 -15886148.35347  20784927.0554   20784929.6564
        31.5004         27.7504
  -4334888.41248    135069.62246  21723510.3364   21723513.1604
        28.2504         23.5004
   3632292.78746  -8485362.82946  22840771.3834   22840774.3364
        16.7504         14.2504
 -19181199.18347 -12211764.46646  21773513.7584   21773515.9844
        27.0004         22.7504
 -19416429.30246 -15011274.92746  22494057.5004   22494061.7894
        17.5004         16.0004
 -16101205.90745 -12408333.68645  23875191.1724   23875195.1684
        11.5004         10.0004
 02 12 26  2  6  0.0000000  0  7G30G10G 5G24G 6G23G17
 -18396467.67548 -14278344.98247  20548079.0004   20548080.5124
        34.0004         30.5004
 -20482083.39348 -15849294.33447  20793927.2974   20793929.8754
        31.7504         28.0004
  -4205848.23447    235620.44446  21748065.2584   21748067.9884
        27.5004         23.5004
   3756430.85846  -8388631.84046  22864393.8914   22864396.1764
        16.7504         14.7504
 -19198625.58947 -12225343.41946  21770197.7894   21770199.9104
        27.2504         22.7504
 -19460864.68146 -15045899.80646  22485601.6094   22485605.3954
        17.7504         16.5004
 -16133236.47745 -12433292.44445  23869095.9694   23869100.4694
        11.5004         10.0004
 02 12 26  2  6 30.0000000  0  7G30G10G 5G24G 6G23G17
 -18334552.35148 -14230099.24347  20559861.0634   20559862.5394
        34.0004         30.5004
 -20434150.03848 -15811943.62447  20803048.5864   20803051.0824
        31.7504         28.0004
  -4076450.72647    336449.69746  21772688.9534   21772691.8484
        27.2504         23.2504
   3880633.73446  -8291850.34746  22888029.0394   22888031.3134
        16.7504         14.2504
 -19215907.76147 -12238809.98746  21766908.9924   21766911.1954
        27.5004         23.0004
 -19505014.12546 -15080301.88746  22477200.1094   22477203.3444
        18.0004         16.5004
 -16165098.85545 -12458120.12945  23863032.5394   23863037.7894
        11.7504         10.5004
 02 12 26  2  7  0.0000000  0  7G30G10G 5G24G 6G23G17
 -18272039.70048 -14181388.06047  20571756.6644   20571758.0594
        34.0004         30.5004
 -20385580.43048 -15774097.13547  20812291.2664   20812293.7504
        31.7504         28.0004
  -3946698.83947    437555.09846  21797379.3054   21797382.2464
        26.5004         22.7504
   4004899.19546  -8195020.08946  22911675.5394   22911677.7664
        16.5004         14.2504
 -19233045.12347 -12252163.71446  21763647.8204   21763650.1524
        27.7504         23.2504
 -19548875.76746 -15114479.70746  22468853.5704   22468857.3794
        18.0004         16.5004
 -16196792.47745 -12482816.32345  23857000.7974   23857005.8484
        11.5004         10.2504
 02 12 26  2  7 30.0000000  0  7G30G10G 5G24G 6G23G17
 -18208928.67248 -14132210.61047  20583766.3284   20583767.7234
        34.0004         30.7504
 -20336373.29048 -15735753.87347  20821654.9224   20821657.2424
        31.7504         28.0004
  -3816593.75647    538935.71446  21822138.1254   21822141.1484
        27.0004         22.7504
   4129227.60746  -8098140.77346  22935334.8674   22935336.8594
        16.2504         14.5004
 -19250034.93347 -12265402.47846  21760414.7114   21760416.5984
        27.7504         23.5004
 -19592445.79146 -15148430.29846  22460563.0084   22460566.2074
        19.0004         16.7504
 -16228316.47445 -12507380.34945  23851000.3834   23851005.3984
        11.2504         10.5004
 02 12 26  2  8  0.0000000  0  7G30G10G 5G24G 6G23G17
 -18145221.16048 -14082568.36847  20595889.6334   20595891.0634
        34.0004         30.7504
 -20286530.36948 -15696915.19347  20831139.7664   20831142.0864
        31.5004         28.0004
  -3686139.27847    640588.58846  21846962.5004   21846965.5474
        26.5004         22.7504
   4253616.30846  -8001214.49446  22959005.1174   22959007.3444
        16.0004         14.0004
 -19266877.19648 -12278526.25746  21757209.6484   21757211.6414
        28.0004         23.5004
 -19635722.93446 -15182152.66846  22452327.3984   22452331.0084
        19.0004         17.0004
 -16259671.31745 -12531812.54445  23845034.2114   23845038.8874
        11.5004         10.2504
 02 12 26  2  8 30.0000000  0  7G30G10G 5G24G 6G23G17
 -18080923.89848 -14032466.58447  20608124.9614   20608126.2504
        34.0004         30.7504
 -20236058.05748 -15657586.08347  20840744.2424   20840746.6804
        31.7504         27.7504
  -3555344.04747    742506.96946  21871852.4534   21871855.1134
        27.0004         22.7504
   4378057.87246  -7904247.00946  22982685.5164   22982688.1884
        15.7504         13.5004
 -19283576.44248 -12291538.60546  21754031.8754   21754033.8674
        28.2504         23.7504
 -19678710.62146 -15215649.47746  22444147.2034   22444150.5434
        19.5004         17.0004
 -16290862.90845 -12556117.53845  23839099.6174   23839104.8794
        11.7504         10.0004
 02 12 26  2  9  0.0000000  0  7G30G10G 5G24G 6G23G17
 -18016024.68248 -13981895.74847  20620474.8054   20620476.2344
        34.0004         30.7504
 -20184944.19548 -15617757.06747  20850470.7974   20850473.1644
        31.5004         27.7504
  -3424197.70647    844698.94646  21896808.6414   21896811.6884
        26.5004         22.7504
   4502563.53946  -7807229.59046  23006378.3444   23006381.0164
        15.5004         13.5004
 -19300118.96148 -12304428.82446  21750883.8204   21750885.8484
        28.2504         23.7504
 -19721393.86346 -15248909.06246  22436024.3914   22436027.6374
        19.7504         17.7504
 -16321877.97845 -12580284.95945  23833197.8204   23833202.8014
        11.7504         10.2504
 02 12 26  2  9 30.0000000  0  7G30G10G 5G24G 6G23G17
 -17950523.17948 -13930855.58947  20632939.4064   20632940.8014
        34.0004         30.7504
 -20133187.99548 -15577427.52647  20860319.4844   20860321.8634
        31.5004         28.0004
  -3292701.71947    947163.37646  21921831.3834   21921834.2544
        26.7504         22.5004
   4627133.22546  -7710162.28246  23030083.5234   23030087.0164
        15.7504         13.7504
 -19316502.56548 -12317195.22346  21747766.0784   21747768.0474
        28.2504         23.7504
 -19763769.25446 -15281928.75946  22427960.2894   22427963.5004
        19.7504         17.7504
 -16352715.27545 -12604313.84845  23827329.2664   23827333.8134
        11.5004         10.2504
 02 12 26  2 10  0.0000000  0  7G30G10G 5G24G 6G23G17
 -17884420.94248 -13879347.32947  20645518.1334   20645519.5164
        34.0004         30.7504
 -20080790.72248 -15536598.44547  20870290.4924   20870292.8594
        31.7504         27.7504
  -3160859.72247   1049897.42446  21946920.0784   21946922.9264
        26.5004         22.2504
   4751764.55646  -7613046.93746  23053799.4384   23053802.6484
        15.7504         14.0004
 -19332726.76648 -12329837.40446  21744678.6564   21744680.5784
        28.2504         23.7504
 -19805835.32247 -15314707.40246  22419955.6804   22419959.2074
        20.0004         17.5004
 -16383375.90545 -12628205.11245  23821494.0944   23821498.5354
        11.5004         10.0004
 02 12 26  2 10 30.0000000  0  7G30G10G 5G24G 6G23G17
 -17817721.50248 -13827373.71847  20658210.5004   20658211.9184
        34.0004         30.7504
 -20027755.88248 -15495272.56447  20880382.8054   20880385.2894
        32.0004         28.0004
  -3028677.01847   1152896.95846  21972073.7974   21972076.7154
        26.5004         22.2504
   4876453.39746  -7515886.76546  23077527.0084   23077529.1994
        15.2504         13.7504
 -19348793.09848 -12342356.57346  21741621.2814   21741623.4614
        28.2504         23.7504
 -19847592.34947 -15347245.23546  22412009.4614   22412012.6844
        20.2504         17.5004
 -16413862.02445 -12651960.35445  23815692.9534   23815697.3484
        11.2504         10.0004
 02 12 26  2 11  0.0000000  0  7G30G10G 5G24G 6G23G17
 -17750422.82648 -13774933.16647  20671017.0314   20671018.5314
        34.0004         31.0004
 -19974081.31948 -15453448.19747  20890596.6024   20890598.8164
        32.0004         28.2504
  -2896153.26047   1256162.25746  21997292.1094   21997294.8164
        26.0004         22.2504
   5001201.33646  -7418680.55246  23101266.2664   23101269.1724
        16.0004         13.5004
 -19364697.42248 -12354749.50846  21738594.5784   21738596.8164
        28.0004         23.7504
 -19889035.21947 -15379538.25546  22404122.9844   22404126.3834
        20.0004         17.2504
 -16444170.52645 -12675577.18545  23809924.8914   23809929.9414
        11.0004         10.5004
 02 12 26  2 11 30.0000000  0  7G30G10G 5G24G 6G23G17
 -17682533.59148 -13722032.44147  20683936.0164   20683937.4924
        34.0004         30.7504
 -19919775.74048 -15411132.12947  20900930.5004   20900932.5634
        32.2504         28.2504
  -2763299.14347   1359684.97746  22022573.3754   22022576.1764
        25.2504         22.0004
   5125998.99546  -7321435.60646  23125013.1024   23125015.8794
        15.0004         13.7504
 -19380446.58248 -12367021.53846  21735597.6484   21735599.8404
        28.0004         24.0004
 -19930169.65646 -15411590.94746  22396295.0634   22396298.4144
        19.7504         17.7504
 -16474309.38345 -12699061.86445  23804189.7584   23804194.6914
        11.2504         10.2504
 02 12 26  2 12  0.0000000  0  7G30G10G 5G24G 6G23G17
 -17614048.99848 -13668667.79947  20696968.0704   20696969.5124
        34.0004         30.5004
 -19864833.97848 -15368320.33447  20911385.4844   20911387.8404
        32.2504         28.5004
  -2630111.62447   1463467.49046  22047918.0234   22047920.8834
        25.2504         21.7504
   5250850.81746  -7224148.46046  23148772.1804   23148774.8634
        15.0004         13.2504
 -19396033.55648 -12379167.18146  21732631.5084   21732633.7584
        28.0004         24.0004
 -19970987.57246 -15443396.99146  22388527.4384   22388530.7424
        19.5004         17.5004
 -16504272.23845 -12722409.36245  23798487.7814   23798493.5124
        11.5004         10.0004
 02 12 26  2 12 30.0000000  0  7G30G10G 5G24G 6G23G17
 -17544967.19648 -13614837.79847  20710113.7974   20710115.3554
        34.0004         30.7504
 -19809253.96148 -15325011.20247  20921962.1174   20921964.3204
        32.2504         28.5004
  -2496590.57847   1567509.88646  22073325.6254   22073328.6724
        24.2504         21.5004
   5375757.99746  -7126818.16046  23172541.3134   23172544.1374
        15.0004         13.2504
 -19411454.47648 -12391183.43446  21729696.9454   21729699.1954
        28.5004         24.0004
 -20011483.89346 -15474952.43946  22380821.2344   22380824.7034
        19.7504         17.5004
 -16534056.70245 -12745617.85645  23792820.4694   23792824.9104
        11.7504         10.5004
 02 12 26  2 13  0.0000000  0  7G30G10G 5G24G 6G23G17
 -17475291.78848 -13560545.24747  20723372.6174   20723374.1294
        34.0004         30.7504
 -19753039.10748 -15281207.38847  20932659.4144   20932661.7814
        32.0004         28.2504
  -2362741.15747   1671808.15646  22098796.8524   22098799.8524
        24.2504         21.2504
   5500716.50646  -7029447.86146  23196320.3834   23196324.1334
        15.2504         13.0004
 -19426710.89548 -12403071.50546  21726793.7504   21726795.8364
        28.7504         24.0004
 -20051659.18446 -15506257.73746  22373176.0944   22373179.0824
        19.7504         17.5004
 -16563664.82646 -12768688.94645  23787185.7344   23787189.8484
        12.0004         10.2504
 02 12 26  2 13 30.0000000  0  7G30G10G 5G24G 6G23G17
 -17405021.40648 -13505789.08347  20736744.6174   20736745.9774
        34.0004         30.7504
 -19696188.14448 -15236907.90247  20943477.8914   20943480.2234
        32.0004         28.5004
  -2228563.87247   1776361.90946  22124329.4224   22124332.4224
        23.7504         21.2504
   5625727.62946  -6932036.57746  23220109.0004   23220112.6094
        15.0004         13.2504
 -19441799.05548 -12414828.46546  21723922.7114   21723924.6214
        29.0004         24.5004
 -20091508.69446 -15537309.17746  22365592.5474   22365596.3094
        19.5004         18.0004
 -16593094.38746 -12791620.88545  23781585.5634   23781590.4734
        12.2504         11.0004
 02 12 26  2 14  0.0000000  0  7G30G10G 5G24G 6G23G17
 -17334163.78848 -13450575.33247  20750228.3444   20750229.5864
        34.0004         30.7504
 -19638708.44148 -15192118.49547  20954415.5634   20954417.7424
        32.0004         28.2504
  -2094068.28747   1881163.68446  22149923.4534   22149926.6764
        24.2504         20.7504
   5750782.74646  -6834591.00746  23243906.1174   23243908.6954
        14.7504         13.0004
 -19456724.55848 -12426458.68546  21721082.2584   21721084.0864
        29.2504         24.7504
 -20131036.99246 -15568110.32246  22358070.4454   22358073.9614
        19.7504         18.2504
 -16622352.13146 -12814418.94845  23776017.7034   23776021.4304
        12.5004         11.0004
 02 12 26  2 14 30.0000000  0  7G30G10G 5G24G 6G23G17
 -17262719.90548 -13394904.75347  20763823.8134   20763825.0784
        34.0004         30.7504
 -19580600.47448 -15146839.52847  20965473.2584   20965475.4384
        32.0004         28.2504
  -1959256.88547   1986211.54946  22175577.0394   22175579.9694
        24.0004         20.7504
   5875880.88746  -6737111.91446  23267711.1024   23267714.4304
        14.5004         13.0004
 -19471486.03648 -12437961.08846  21718273.3284   21718275.5314
        29.7504         25.0004
 -20170241.59347 -15598659.24146  22350610.0864   22350613.7074
        20.0004         18.2504
 -16651437.77746 -12837082.93045  23770483.5944   23770487.4024
        12.7504         11.0004
 02 12 26  2 15  0.0000000  0  7G30G10G 5G24G 6G23G17
 -17190683.33248 -13338772.34147  20777531.9534   20777533.3014
        34.0004         31.0004
 -19521857.89148 -15101066.05747  20976651.5474   20976653.8204
        32.0004         28.5004
  -1824124.97747   2091509.15946  22201291.7734   22201294.7974
        23.5004         20.7504
   6001028.06946  -6639594.60346  23291525.8204   23291528.6094
        14.5004         13.2504
 -19486074.91548 -12449328.99646  21715497.3284   21715499.3554
        30.0004         25.2504
 -20209112.94347 -15628948.49546  22343213.2664   22343217.1214
        20.2504         18.5004
 -16680343.94146 -12859607.04445  23764982.3204   23764986.1414
        12.7504         11.2504
 02 12 26  2 15 30.0000000  0  7G30G10G 5G24G 6G23G17
 -17118064.59548 -13282186.29247  20791350.7734   20791351.9344
        34.0004         31.0004
 -19462491.25748 -15054806.31047  20987948.4844   20987950.7934
        32.0004         28.5004
  -1688684.69847   2197047.06846  22227065.2504   22227068.1094
        23.5004         20.5004
   6126213.56146  -6542047.44146  23315348.1254   23315350.7624
        14.7504         12.7504
 -19500499.45648 -12460568.85146  21712752.2734   21712754.2304
        30.0004         25.5004
 -20247658.38247 -15658983.79346  22335878.4064   22335881.9104
        20.5004         18.7504
 -16709079.34246 -12881998.13545  23759513.6724   23759518.0554
        12.7504         11.2504
 02 12 26  2 16  0.0000000  0  7G30G10G 5G24G 6G23G17
 -17044852.77048 -13225138.09847  20805282.4844   20805283.7154
        34.0004         31.0004
 -19402489.30648 -15008051.51247  20999366.5004   20999368.8324
        32.0004         28.2504
  -1552926.83347   2302832.43846  22252898.4614   22252901.4384
        22.2504         20.2504
   6251447.90046  -6444462.24446  23339180.6414   23339183.1604
        15.0004         12.7504
 -19514746.55348 -12471670.43446  21710041.1254   21710043.0824
        30.2504         25.5004
 -20285863.91547 -15688754.24646  22328607.7424   22328611.3164
        20.5004         19.0004
 -16737632.31146 -12904247.06145  23754080.2424   23754084.8594
        13.0004         11.7504
 02 12 26  2 16 30.0000000  0  7G30G10G 5G24G 6G23G17
 -16971052.44748 -13167631.33847  20819326.2114   20819327.5704
        34.0004         31.0004
 -19341856.43348 -14960805.08747  21010904.5314   21010906.7584
        32.0004         28.2504
  -1416857.77747   2408860.28346  22278792.2114   22278795.1294
        23.0004         20.0004
   6376726.10346  -6346842.82546  23363019.5314   23363022.3554
        14.5004         12.7504
 -19528818.24048 -12482635.34146  21707363.3054   21707365.2034
        30.2504         25.7504
 -20323730.67947 -15718260.71946  22321401.9064   22321405.1524
        21.2504         19.2504
 -16766006.32946 -12926356.55745  23748680.3444   23748684.0824
        13.0004         11.7504
 02 12 26  2 17  0.0000000  0  7G30G10G 5G24G 6G23G17
 -16896663.48948 -13109665.89947  20833481.8984   20833483.2814
        34.0004         30.7504
 -19280592.62648 -14913067.02547  21022562.6884   21022564.8914
        32.0004         28.2504
  -1280478.84047   2515129.60046  22304743.9694   22304747.0984
        22.7504         20.0004
   6502048.20446  -6249189.23246  23386867.1414   23386869.4024
        14.5004         13.0004
 -19542711.84548 -12493461.48147  21704719.3754   21704721.3324
        30.2504         26.0004
 -20361255.21247 -15747500.52046  22314261.2344   22314264.1524
        21.5004         19.5004
 -16794199.83946 -12948325.39245  23743315.6884   23743319.8834
        13.0004         11.5004
 02 12 26  2 17 30.0000000  0  7G30G10G 5G24G 6G23G17
 -16821691.15848 -13051245.88747  20847748.7344   20847750.0594
        34.0004         30.7504
 -19218702.93548 -14864841.25947  21034339.9534   21034342.3094
        32.0004         28.5004
  -1143797.01147   2621634.94046  22330753.7974   22330756.6564
        22.7504         20.0004
   6627408.96146  -6151505.50646  23410722.1094   23410724.1604
        14.0004         12.7504
 -19556430.44148 -12504151.25146  21702108.7664   21702110.5824
        30.5004         25.7504
 -20398439.58147 -15776475.27746  22307185.1254   22307188.1844
        21.7504         19.7504
 -16822216.94446 -12970156.77045  23737983.8204   23737988.3554
        13.0004         11.7504
 02 12 26  2 18  0.0000000  0  7G30G10G 5G24G 6G23G17
 -16746142.32648 -12992376.65147  20862125.0864   20862126.4924
        34.0004         30.7504
 -19156193.94848 -14816132.92647  21046235.0864   21046237.2664
        32.0004         28.2504
  -1006820.62747   2728369.79946  22356819.7194   22356822.4024
        23.0004         20.0004
   6752801.49646  -6053797.00246  23434582.9454   23434584.7154
        13.0004         12.5004
 -19569978.35748 -12514708.02546  21699530.7114   21699532.4924
        30.7504         25.7504
 -20435287.11247 -15805187.56146  22300173.6884   22300176.8284
        22.5004         19.7504
 -16850063.06946 -12991854.94345  23732684.5784   23732688.7154
        13.0004         11.2504
 02 12 26  2 18 30.0000000  0  7G30G10G 5G24G 6G23G17
 -16670010.07648 -12933052.80747  20876612.5314   20876613.8324
        34.0004         30.7504
 -19093058.53948 -14766936.47247  21058249.0864   21058251.3014
        31.7504         28.2504
   -869544.48447   2835338.24346  22382941.8674   22382944.0594
        22.2504         20.0004
   6878232.32246  -5956058.67046  23458452.6954   23458455.6604
        14.0004         12.0004
 -19583346.22248 -12525124.49647  21696986.6954   21696988.5594
        30.5004         26.0004
 -20471787.66647 -15833629.47346  22293227.3984   22293230.1884
        22.5004         20.0004
 -16877730.28346 -13013413.69745  23727419.8834   23727424.1024
        13.0004         11.7504
 02 12 26  2 19  0.0000000  0  7G30G10G 5G24G 6G23G17
 -16593291.08648 -12873271.76047  20891211.6484   20891212.9024
        34.0004         30.5004
 -19029293.31148 -14717249.25447  21070383.3204   21070385.7114
        31.7504         28.0004
   -731966.70347   2942541.71946  22409122.7664   22409125.5084
        22.7504         19.5004
   7003704.96546  -5858287.74946  23482330.5004   23482333.6994
        14.5004         12.0004
 -19596528.22948 -12535396.14947  21694478.2734   21694480.2544
        30.5004         26.0004
 -20507934.47547 -15861795.74746  22286349.0474   22286352.0704
        22.7504         19.7504
 -16905213.83046 -13034829.33445  23722189.2194   23722193.5434
        13.0004         11.5004
 02 12 26  2 19 30.0000000  0  7G30G10G 5G24G 6G23G17
 -16516001.88848 -12813046.40247  20905919.3834   20905920.6724
        34.0004         30.5004
 -18964914.80048 -14667084.15347  21082634.1094   21082636.3834
        31.7504         28.0004
   -594105.39647   3049966.12946  22435356.7034   22435359.3524
        22.2504         19.7504
   7129202.51646  -5760497.42446  23506210.7274   23506212.8244
        13.0004         12.0004
 -19609538.43248 -12545533.92447  21692002.4774   21692004.1524
        30.7504         26.2504
 -20543740.77347 -15889696.69146  22279535.7114   22279538.4304
        23.0004         20.0004
 -16932529.04646 -13056113.81646  23716992.1644   23716996.4304
        13.5004         12.0004
 02 12 26  2 20  0.0000000  0  7G30G10G 5G24G 6G23G17
 -16438126.76548 -12752364.48047  20920738.5234   20920739.7424
        34.0004         30.7504
 -18899906.90248 -14616428.61947  21095004.5474   21095006.8324
        31.7504         28.2504
   -455946.13647   3157622.71646  22461647.1564   22461649.7704
        22.0004         19.2504
   7254741.32446  -5662674.96046  23530098.9144   23530101.1524
        12.5004         12.0004
 -19622358.43748 -12555523.49347  21689562.7424   21689564.6524
        30.7504         26.2504
 -20579187.34747 -15917317.33646  22272790.2424   22272792.9844
        23.2504         20.2504
 -16959658.53146 -13077253.54745  23711829.0164   23711832.7424
        13.2504         11.7504
 02 12 26  2 20 30.0000000  0  7G30G10G 5G24G 6G23G17
 -16359675.13148 -12691233.32947  20935667.3054   20935668.5594
        34.0004         30.5004
 -18834279.09648 -14565290.04647  21107493.1724   21107495.4344
        31.7504         28.0004
   -317500.20947   3265502.67046  22487993.0864   22487995.5704
        22.2504         19.2504
   7380311.62646  -5564827.93946  23553995.1024   23553997.5274
        13.5004         12.0004
 -19634995.11648 -12565370.21147  21687158.1884   21687159.8754
        31.2504         26.2504
 -20614280.29347 -15944662.43046  22266111.6884   22266114.1374
        22.7504         20.2504
 -16986610.56046 -13098255.05346  23706700.7424   23706704.1884
        13.5004         12.5004
 02 12 26  2 21  0.0000000  0  7G30G10G 5G24G 6G23G17
 -17856064.73448 -13857251.19347  20650913.8054   20650914.9884
        34.0004         30.5004
 -20343449.18748 -15741266.71247  20820307.6954   20820310.1684
        32.0004         28.2504
  -1754184.42147   2146008.49346  22214601.1954   22214603.3984
        22.2504         19.2504
   5930497.64346  -6694553.10046  23278105.0004   23278108.7504
        13.0004         12.0004
 -21222866.41448 -13802672.48147  21384996.3674   21384998.2194
        31.2504         26.5004
 -22224437.49747 -17199330.31646  21959709.5634   21959712.2704
        23.5004         20.5004
 -18588804.97546 -14346718.10845  23401813.0474   23401817.2424
        13.7504         11.7504
 02 12 26  2 21 30.0000000  0  7G30G10G 5G24G 6G23G17
 -17776460.87248 -13795222.20047  20666061.8054   20666063.1524
        34.0004         30.5004
 -20276581.68648 -15689162.13947  20833032.0784   20833034.4454
        32.0004         28.0004
  -1615169.85147   2254331.55546  22241054.5944   22241056.7624
        22.0004         19.0004
   6056130.72346  -6596657.17745  23302012.2734   23302014.9694
        12.7504         11.5004
 -21235129.17548 -13812227.83647  21382662.8284   21382664.5164
        31.7504         26.7504
 -22258813.52447 -17226116.76346  21953167.7814   21953170.7234
        23.5004         20.5004
 -18615398.68146 -14367440.39146  23396752.1644   23396755.7854
        13.7504         12.2504
 02 12 26  2 22  0.0000000  0  7G30G10G 5G24G 6G23G17
 -17696276.30748 -13732740.71547  20681320.5474   20681321.7544
        34.0004         30.5004
 -20209089.82148 -15636571.05047  20845875.3984   20845877.5784
        32.0004         27.7504
  -1475868.52647   2362878.05546  22267562.9384   22267565.4104
        21.7504         19.0004
   6181799.83246  -6498733.18146  23325926.2664   23325928.5634
        12.7504         12.0004
 -21247196.51548 -13821630.91747  21380366.3674   21380368.2424
        31.7504         27.0004
 -22292821.37047 -17252616.32146  21946696.3364   21946698.8914
        23.7504         20.7504
 -18641806.51946 -14388017.80646  23391727.2584   23391730.9614
        14.0004         12.2504
 02 12 26  2 22 30.0000000  0  7G30G10G 5G24G 6G23G17
 -17615515.36548 -13669810.10747  20696688.9694   20696690.1524
        34.0004         30.2504
 -20140977.65348 -15583496.61247  20858836.5164   20858838.5554
        32.0004         27.7504
  -1336286.12347   2471643.57746  22294124.9384   22294127.3404
        22.0004         18.5004
   6307501.04946  -6400784.15945  23349845.0784   23349847.3164
        12.7504         11.5004
 -21259069.71848 -13830882.72247  21378107.0164   21378108.6804
        32.0004         27.2504
 -22326461.79247 -17278829.57646  21940294.0864   21940296.7704
        23.5004         21.2504
 -18668031.23146 -14408452.54646  23386736.3364   23386740.2734
        13.7504         12.7504
 02 12 26  2 23  0.0000000  0  7G30G10G 5G24G 6G23G17
 -17534180.11448 -13606431.98447  20712166.3444   20712167.5744
        34.0004         30.2504
 -20072247.19248 -15529940.38147  20871915.6724   20871917.7814
        32.0004         28.0004
  -1196426.20147   2580625.35246  22320739.0234   22320741.7424
        21.5004         18.5004
   6433232.28946  -6302811.74545  23373772.9144   23373775.1174
        13.5004         11.7504
 -21270748.43048 -13839982.97947  21375884.7034   21375886.5664
        32.2504         27.2504
 -22359733.44947 -17304755.47946  21933963.0784   21933965.9144
        24.2504         21.5004
 -18694073.81546 -14428745.35746  23381780.8984   23381784.6484
        14.2504         12.5004
 02 12 26  2 23 30.0000000  0  7G30G10G 5G24G 6G23G17
 -17452278.95348 -13542612.89247  20727751.7424   20727753.0084
        34.0004         30.0004
 -20002906.48048 -15475908.63747  20885110.5314   20885112.6414
        32.0004         27.7504
  -1056298.44747   2689815.83046  22347404.2114   22347406.9534
        21.2504         18.2504
   6558985.54745  -6204822.17145  23397700.2424   23397703.0554
        11.7504         11.2504
 -21282238.07648 -13848935.90647  21373698.0864   21373699.7384
        32.2504         27.5004
 -22392641.19147 -17330397.81646  21927700.7814   21927703.6524
        24.5004         21.5004
 -18719940.98346 -14448901.49346  23376857.7734   23376860.8914
        14.2504         12.7504
 02 12 26  2 24  0.0000000  0  7G30G10G 5G24G 6G23G17
 -17369796.38148 -13478340.75247  20743447.6094   20743448.7814
        34.0004         30.2504
 -19932939.77948 -15421389.10847  20898424.8594   20898427.0744
        32.0004         27.7504
   -915888.63847   2799226.08346  22374123.3364   22374125.7734
        21.2504         18.2504
   6684776.96546  -6106802.87445  23421638.7584   23421640.9494
        12.5004         11.5004
 -21293520.22348 -13857727.14647  21371551.2034   21371552.7154
        32.2504         27.5004
 -22425166.07447 -17355741.83046  21921511.7344   21921514.6174
        25.0004         22.0004
 -18745615.47646 -14468907.50946  23371972.2034   23371976.3524
        14.5004         12.5004
 02 12 26  2 24 30.0000000  0  7G30G10G 5G24G 6G23G17
 -17286747.91448 -13413627.65747  20759251.3054   20759252.6054
        34.0004         30.2504
 -19862362.75948 -15366394.01047  20911855.3134   20911857.4104
        32.0004         27.7504
   -775213.85947   2908842.81446  22400892.9534   22400895.5784
        21.0004         18.5004
   6810590.64946  -6008766.22345  23445581.1644   23445584.3404
        12.7504         11.7504
 -21304607.81848 -13866366.78747  21369441.2664   21369442.9884
        32.2504         27.2504
 -22457320.25647 -17380796.98646  21915392.5474   21915395.4884
        25.0004         22.2504
 -18771111.49246 -14488774.42846  23367119.9924   23367123.8714
        14.2504         12.5004
 02 12 26  2 25  0.0000000  0  7G30G10G 5G24G 6G23G17
 -17203133.62148 -13348473.65647  20775162.5554   20775163.7384
        34.0004         30.0004
 -19791175.30948 -15310923.25047  20925401.7584   20925403.8794
        32.2504         27.7504
   -634275.38747   3018665.01746  22427712.3444   22427715.1914
        20.5004         18.0004
   6936427.10046  -5910711.81745  23469526.1334   23469529.1564
        12.0004         11.2504
 -21315498.04648 -13874852.63547  21367368.7894   21367370.5124
        32.0004         27.5004
 -22489100.22847 -17405560.54846  21909345.6644   21909348.2544
        26.0004         22.2504
 -18796427.43846 -14508501.02346  23362303.2584   23362307.5704
        14.5004         12.7504
 02 12 26  2 25 30.0000000  0  7G30G10G 5G24G 6G23G17
 -17118951.40848 -13282877.11947  20791181.9224   20791182.9534
        34.0004         30.0004
 -19719375.16948 -15254975.06647  20939064.7584   20939066.9264
        32.2504         27.7504
   -493072.38847   3128693.34346  22454582.6564   22454585.1414
        20.2504         18.0004
   7062288.92546  -5812637.64645  23493476.8914   23493479.3984
        12.2504         11.5004
 -21326185.75848 -13883180.67947  21365334.9454   21365336.8324
        32.0004         27.2504
 -22520500.33847 -17430028.11746  21903369.9774   21903372.7774
        25.5004         22.5004
 -18821560.22946 -14528084.91546  23357520.5634   23357524.8874
        14.5004         12.5004
 02 12 26  2 26  0.0000000  0  7G30G10G 5G24G 6G23G17
 -17034209.31448 -13216844.31347  20807307.8054   20807308.8834
        34.0004         29.7504
 -19646970.53748 -15198555.85547  20952843.1024   20952845.2584
        32.2504         28.0004
   -351614.44247   3238920.33546  22481500.9304   22481503.5664
        20.0004         17.7504
   7188168.12145  -5714549.94245  23517431.2194   23517434.1484
        11.7504         11.0004
 -21336676.41548 -13891355.17747  21363338.5864   21363340.4614
        32.0004         27.2504
 -22551525.18647 -17454203.26946  21897466.3834   21897468.7504
        26.2504         22.5004
 -18846516.03046 -14547530.87746  23352771.4304   23352775.5784
        14.7504         13.0004
 02 12 26  2 26 30.0000000  0  7G30G10G 5G24G 6G23G17
 -16948906.05348 -13150374.23647  20823540.4224   20823541.5234
        34.0004         29.7504
 -19573959.74948 -15141664.31447  20966736.3834   20966738.7974
        31.7504         27.7504
   -209901.10446   3349346.33546  22508467.8674   22508470.2704
        19.7504         18.0004
   7314067.10446  -5616446.82645  23541389.4924   23541392.2344
        12.2504         10.7504
 -21346965.43848 -13899372.55247  21361380.5394   21361382.3094
        32.2504         27.7504
 -22582169.63647 -17478082.01046  21891634.4924   21891636.8244
        26.0004         22.7504
 -18871291.76646 -14566836.55046  23348056.5314   23348060.5514
        15.0004         12.7504
 02 12 26  2 27  0.0000000  0  7G30G10G 5G24G 6G23G17
 -16863043.94648 -13083468.69547  20839879.4774   20839880.7194
        34.0004         29.5004
 -19500345.29548 -15084302.38447  20980744.7034   20980747.1174
        31.7504         27.5004
    -67936.33046   3459968.25246  22535482.8284   22535485.3594
        19.5004         17.7504
   7439983.34945  -5518330.24945  23565348.5704   23565352.0274
        11.0004         11.0004
 -21357052.36748 -13907232.45547  21359461.1724   21359462.9304
        32.2504         28.0004
 -22612432.67647 -17501663.54446  21885875.6334   21885878.1054
        26.2504         22.5004
 -18895888.45346 -14586002.70146  23343375.9224   23343379.1094
        15.2504         12.7504
 02 12 26  2 27 30.0000000  0  7G30G10G 5G24G 6G23G17
 -16776624.43648 -13016128.81447  20856324.3674   20856325.6804
        34.0004         29.5004
 -19426128.36748 -15026470.99847  20994867.7274   20994870.0594
        31.5004         27.5004
     74277.28446   3570784.06646  22562545.7034   22562548.3524
        19.5004         17.2504
   7565916.12746  -5420200.79645  23589314.4694   23589316.6604
        12.5004         10.7504
 -21366935.49848 -13914933.55347  21357580.3444   21357582.1724
        32.5004         28.0004
 -22642312.11847 -17524946.17746  21880189.9924   21880192.4064
        26.2504         22.2504
 -18920305.66046 -14605029.01746  23338729.4534   23338733.3794
        15.2504         12.7504
 02 12 26  2 28  0.0000000  0  7G30G10G 5G24G 6G23G17
 -16689641.42848 -12948349.84747  20872876.8204   20872878.1804
        34.0004         29.5004
 -19351302.71948 -14968165.27847  21009106.5314   21009108.8984
        31.5004         27.5004
    216744.72246   3681797.67146  22589656.3834   22589659.3594
        19.5004         17.0004
   7691872.28645  -5322053.12345  23613282.0634   23613284.5474
        11.5004         10.2504
 -21376605.50048 -13922468.58147  21355740.1804   21355741.9844
        32.5004         28.2504
 -22671798.13847 -17547922.24246  21874578.9454   21874581.3364
        26.5004         22.5004
 -18944535.87346 -14623909.59346  23334118.1484   23334121.0434
        14.7504         13.5004
 02 12 26  2 28 30.0000000  0  7G30G10G 5G24G 6G23G17
 -16602103.73848 -12880138.65947  20889534.5164   20889535.8524
        34.0004         29.5004
 -19275877.11148 -14909392.06147  21023459.6954   21023462.0044
        31.7504         27.5004
    359455.93446   3793001.23446  22616813.0314   22616816.0784
        18.2504         17.0004
   7817843.34646  -5223893.84345  23637254.4384   23637256.7464
        12.7504         10.7504
 -21386068.39748 -13929842.22647  21353939.5004   21353941.2584
        33.0004         28.2504
 -22700896.19747 -17570595.99846  21869041.4534   21869043.7504
        26.2504         22.5004
 -18968586.14346 -14642649.96546  23329541.0084   23329544.4534
        14.7504         13.2504
 02 12 26  2 29  0.0000000  0  7G30G10G 5G24G 6G23G17
 -16514014.71748 -12811497.86347  20906297.3834   20906298.7304
        34.0004         29.5004
 -19199854.42048 -14850153.57747  21037926.3834   21037928.5864
        31.7504         27.5004
    502406.41446   3904391.23346  22644015.2974   22644017.9804
        18.0004         16.7504
   7943826.70145  -5125724.98545  23661227.2424   23661228.9304
        11.7504         10.7504
 -21395324.46648 -13937054.70947  21352178.1414   21352179.8524
        33.2504         28.5004
 -22729605.99947 -17592967.21946  21863578.1884   21863580.5434
        26.5004         23.0004
 -18992458.28746 -14661251.55146  23324998.3674   23325001.6844
        14.5004         13.2504
 02 12 26  2 29 30.0000000  0  7G30G10G 5G24G 6G23G17
 -16425368.88248 -12742423.18747  20923166.1644   20923167.6644
        34.0004         29.2504
 -19123229.36148 -14790445.72247  21052507.6484   21052509.7464
        31.7504         27.5004
    645600.63446   4015971.14246  22671264.4304   22671267.0784
        18.0004         16.5004
   8069828.52446  -5027541.73345  23685206.0164   23685207.8444
        12.5004         11.0004
 -21404364.99148 -13944099.23347  21350457.7734   21350459.4144
        33.2504         28.5004
 -22757918.35547 -17615028.73946  21858190.3594   21858193.0904
        26.5004         23.2504
 -19016144.83546 -14679708.49446  23320491.5394   23320494.5864
        14.7504         13.2504
 02 12 26  2 30  0.0000000  0  7G30G10G 5G24G 6G23G17
 -16336166.72348 -12672915.01247  20940140.7114   20940142.2234
        34.0004         29.5004
 -19046002.58648 -14730268.99647  21067203.3204   21067205.4064
        32.0004         27.5004
    789036.91446   4127739.68046  22698559.3674   22698562.3204
        18.2504         16.2504
   8195848.67145  -4929344.19445  23709186.0394   23709189.1914
        11.5004         10.5004
 -21413187.52448 -13950973.90047  21348778.8444   21348780.4964
        33.5004         28.5004
 -22785830.32047 -17636778.26346  21852878.7584   21852881.3834
        26.5004         23.2504
 -19039644.78046 -14698020.04646  23316019.3914   23316022.6374
        14.7504         13.2504
 02 12 26  2 30 30.0000000  0  7G30G10G 5G24G 6G23G17
 -16246411.36848 -12602975.77347  20957220.5944   20957222.0594
        34.0004         29.2504
 -18968176.81148 -14669625.51547  21082013.0554   21082015.1174
        31.7504         27.5004
    932710.94146   4239693.48646  22725899.7584   22725902.0664
        18.5004         16.2504
   8321884.83445  -4831134.16045  23733169.4064   23733170.7894
        11.0004         10.5004
 -21421792.01848 -13957678.66047  21347141.4144   21347143.0314
        33.2504         28.5004
 -22813341.36747 -17658215.38746  21847643.7734   21847646.6684
        26.7504         23.2504
 -19062959.06146 -14716186.92946  23311583.1564   23311586.6254
        15.0004         13.5004
 02 12 26  2 31  0.0000000  0  8G30G10G 5G15G24G 6G23G17
 -16156115.32048 -12532615.21447  20974403.2664   20974404.8014
        33.7504         29.0004
 -18889764.43448 -14608524.94247  21096934.5554   21096936.6524
        31.5004         27.2504
   1076609.20946   4351822.02146  22753282.7734   22753285.2584
        18.5004         16.2504
                                  25559678.5394
         4.0004
   8447925.07145  -4732920.99945  23757154.9614   23757156.6254
        11.2504         10.5004
 -21430187.78848 -13964220.78047  21345543.7974   21345545.3794
        33.2504         28.5004
 -22840460.25147 -17679346.92346  21842483.0634   21842485.7584
        26.7504         23.2504
 -19086099.24646 -14734218.13046  23307179.0004   23307181.3444
        15.2504         13.2504
 02 12 26  2 31 30.0000000  0  9G30G10G 5G15G24G 6G23G17G26
 -16065268.69048 -12461825.63547  20991690.8364   20991692.3834
        33.7504         28.7504
 -18810755.40448 -14546959.45147  21111969.2894   21111971.3634
        31.5004         27.2504
   1220740.51846   4464132.14546  22780710.3914   22780712.5124
        18.5004         15.7504
 -14221181.59543                  25551330.7034
         5.5004
   8573980.23845  -4634696.17445  23781142.2974   23781145.4844
        11.2504         10.5004
 -21438361.59048 -13970589.94847  21343988.2344   21343989.6884
        33.2504         28.2504
 -22867173.60347 -17700162.46746  21837399.5084   21837402.3204
        26.5004         23.7504
 -19109053.08346 -14752104.15146  23302811.2664   23302814.6994
        15.7504         13.5004
 -14214657.83253                  25126222.3444
         6.2504
 02 12 26  2 32  0.0000000  0  9G30G10G 5G15G24G 6G23G17G26
 -15973873.74148 -12390608.78747  21009082.7424   21009084.1484
        34.0004         28.7504
 -18731151.93148 -14484930.75347  21127117.1414   21127119.0864
        31.2504         27.2504
   1365101.75446   4576621.42646  22808181.5394   22808183.8134
        18.5004         16.0004
 -14264954.76643                  25543001.0634
         5.5004
   8700049.05045  -4536460.72445  23805131.3984   23805135.9344
        10.0004         10.0004
 -21446312.28248 -13976785.25947  21342475.2734   21342476.7384
        33.2504         28.5004
 -22893479.85747 -17720660.79446  21832393.6484   21832396.5434
        27.0004         23.7504
 -19131821.39946 -14769845.60046  23298478.8594   23298481.9304
        15.7504         14.0004
 -14261537.13443                  25117301.7034
         6.2504
 02 12 26  2 32 30.0000000  0  9G30G10G 5G15G24G 6G23G17G26
 -15881931.62548 -12318965.57847  21026578.7194   21026580.1374
        33.7504         28.7504
 -18650955.22448 -14422439.79547  21142378.2114   21142380.3914
        31.2504         27.0004
   1509690.15346   4689287.73746  22835695.3674   22835697.5004
        18.2504         15.7504
 -14308633.84542                  25534688.0234
         4.2504
   8826130.74645  -4438215.23845  23829124.8984   23829127.3014
        11.2504          9.7504
 -21454038.00548 -13982805.26647  21341005.2274   21341006.8094
        33.2504         28.5004
 -22919376.64647 -17740840.05646  21827465.3444   21827468.0394
        26.7504         24.0004
 -19154403.26546 -14787441.76646  23294181.8594   23294184.3794
        16.0004         14.0004
 -14308504.97143 -11055724.45754  25108364.2034   25108371.7544
         6.5004          4.7504
 02 12 26  2 33  0.0000000  0  9G30G10G 5G15G24G 6G23G17G26
 -15789453.40848 -12246904.62547  21044176.7894   21044178.1954
        33.7504         28.7504
 -18570176.15548 -14359495.04847  21157749.8754   21157752.1484
        31.0004         26.7504
   1654494.04746   4802121.94446  22863251.0554   22863253.1294
        18.2504         15.7504
 -14352227.45443                  25526392.6484
         5.5004
   8952215.22545  -4339967.56845  23853116.7814   23853120.4144
        10.0004         10.0004
 -21461546.28848 -13988655.84247  21339576.3984   21339577.9104
        33.2504         28.7504
 -22944871.32447 -17760705.98946  21822614.1484   21822616.8204
        27.2504         24.0004
 -19176808.43246 -14804900.24246  23289918.2274   23289921.5784
        16.0004         13.7504
 -14355567.71643 -11092396.57344  25099407.8134   25099419.1134
         5.7504          4.5004
 02 12 26  2 33 30.0000000  0  9G30G10G 5G15G24G 6G23G17G26
 -15696427.95048 -12174417.25247  21061878.9774   21061880.3594
        33.7504         28.2504
 -18488803.48448 -14296087.75547  21173234.5634   21173236.7424
        30.7504         26.7504
   1799523.33146   4915131.78046  22890849.1174   22890851.6254
        18.0004         15.7504
 -14395722.80643 -11077768.88354  25518115.9614   25518113.8524
         5.0004          4.5004
   9078314.35145  -4241708.50045  23877112.8134   23877114.9574
        10.0004          9.7504
 -21468822.84648 -13994325.85247  21338191.6804   21338193.2504
        33.2504         28.7504
 -22969949.03448 -17780247.01046  21817842.2894   21817844.8554
        28.0004         24.2504
 -19199023.69146 -14822210.75646  23285690.3594   23285693.3484
        16.2504         14.2504
 -14402709.70243 -11129130.63945  25090435.8444   25090435.5634
         5.7504          5.2504
 02 12 26  2 34  0.0000000  0  9G30G10G 5G15G24G 6G23G17G26
 -15602863.70148 -12101510.04147  21079683.5944   21079684.7194
        33.7504         28.5004
 -18406845.52748 -14232224.39247  21188830.5314   21188832.9344
        30.7504         26.5004
   1944768.69646   5028310.00146  22918488.0394   22918490.5354
        17.5004         15.2504
 -14439125.91042 -11111589.15444  25509855.4924   25509861.5864
         4.7504          4.2504
   9204420.80945  -4143443.69745  23901110.7424   23901113.3444
        10.5004          9.2504
 -21475872.75948 -13999819.26247  21336849.9384   21336851.4144
        33.5004         29.0004
 -22994614.40448 -17799466.73246  21813148.2194   21813150.8794
        28.0004         24.5004
 -19221055.65746 -14839378.45446  23281497.8524   23281501.1454
        16.0004         14.5004
 -14449934.43542 -11165929.01645  25081449.7194   25081456.4574
         4.7504          5.2504
 02 12 26  2 34 30.0000000  0  9G30G10G 5G15G24G 6G23G17G26
 -15508762.96548 -12028184.78847  21097590.4064   21097591.5434
        33.7504         28.2504
 -18324304.67548 -14167906.82447  21204537.7274   21204539.7774
        30.7504         26.7504
   2090226.92946   5141654.08246  22946167.7424   22946170.2624
        17.0004         15.2504
 -14482436.87443 -11145337.56545  25501616.7894   25501621.8874
         6.5004          6.2504
   9330533.05345  -4045174.40145  23925108.0004   23925111.9494
         9.7504         10.0004
 -21482694.95748 -14005135.22747  21335551.7114   21335553.2114
        33.7504         29.0004
 -23018866.20648 -17818364.19546  21808533.4454   21808535.9414
        28.5004         24.7504
 -19242904.59646 -14856403.52846  23277340.3914   23277343.9064
        16.0004         14.2504
 -14497239.61643 -11202790.50544  25072448.4304   25072449.7074
         5.0004          4.5004
 02 12 26  2 35  0.0000000  0  9G30G10G 5G15G24G 6G23G17G26
 -15414127.62248 -11954442.96447  21115598.9454   21115600.0594
        33.7504         28.2504
 -18241182.63348 -14103136.38647  21220355.1484   21220357.2344
        30.7504         26.5004
   2235895.29046   5255161.89846  22973887.4774   22973890.2304
        16.7504         15.0004
 -14525655.48342 -11179014.06944  25493388.2894   25493396.8834
         4.7504          4.7504
   9456650.38845  -3946901.15145  23949109.1334   23949113.0704
        10.7504          9.7504
 -21489287.86048 -14010272.52247  21334297.1024   21334298.6604
        33.7504         29.0004
 -23042702.84248 -17836938.15146  21803997.2814   21803999.6954
        28.7504         24.7504
 -19264570.95946 -14873286.34046  23273217.2344   23273220.0944
        16.2504         14.0004
 -14544622.32343 -11239712.11145  25063430.1804   25063433.9774
         5.0004          5.5004
 02 12 26  2 35 30.0000000  0  9G30G10G 5G15G24G 6G23G17G26
 -15318958.83848 -11880285.46447  21133708.8284   21133710.1174
        33.7504         28.2504
 -18157480.35848 -14037913.81547  21236283.2504   21236285.3364
        30.7504         26.5004
   2381771.71146   5368831.83946  23001647.3984   23001650.1414
        16.7504         14.7504
 -14568780.43741 -11212617.76743  25485175.9924   25485175.5704
         3.2504          3.7504
   9582772.59945  -3848624.06445  23973110.5634   23973113.9734
        11.2504          9.7504
 -21495649.25948 -14015229.42147  21333086.5944   21333088.0704
        33.7504         29.2504
 -23066121.60948 -17855186.50246  21799540.8834   21799543.3094
        28.7504         25.0004
 -19286053.52346 -14890025.94346  23269128.8594   23269132.3054
        16.0004         14.2504
 -14592078.85542 -11276691.26144  25054401.4454   25054398.6564
         4.7504          4.5004
 02 12 26  2 36  0.0000000  0  9G30G10G 5G15G24G 6G23G17G26
 -15223259.83248 -11805714.81047  21151919.8674   21151921.1914
        34.0004         28.2504
 -18073201.14148 -13972241.68147  21252321.0554   21252323.1414
        30.5004         26.7504
   2527851.93746   5482660.59546  23029445.0784   23029448.2664
        16.0004         15.0004
 -14611812.70941 -11246149.25845  25476987.3134   25476995.9184
         3.2504          5.2504
   9708897.30145  -3750345.08245  23997108.4384   23997110.1954
         9.7504          9.7504
 -21501778.87648 -14020005.71947  21331920.1174   21331921.7114
        33.7504         29.5004
 -23089121.84948 -17873108.72346  21795164.1174   21795166.5434
        28.7504         25.0004
 -19307353.68846 -14906623.40346  23265075.2584   23265078.7624
        16.0004         14.5004
 -14639607.48643 -11313726.68945  25045355.5004   25045359.8364
         5.0004          5.7504
 02 12 26  2 36 30.0000000  0  9G30G10G 5G15G24G 6G23G17G26
 -15127029.16148 -11730729.86747  21170231.9224   21170233.2704
        33.7504         28.5004
 -17988343.38148 -13906118.73747  21268468.8754   21268471.3014
        30.2504         26.5004
   2674136.63346   5596648.68446  23057281.7584   23057285.0164
        15.2504         14.5004
 -14654748.38741 -11279605.48145  25468818.2344   25468822.6644
         3.7504          5.2504
   9835027.03445  -3652062.15945  24021112.4304   24021114.4694
        10.7504          9.7504
 -21507671.87548 -14024597.63147  21330798.7274   21330800.3204
        33.7504         29.5004
 -23111698.58748 -17890700.94546  21790867.5704   21790869.9494
        28.5004         25.2504
 -19328468.18246 -14923076.18546  23261057.3594   23261060.7704
        16.2504         14.5004
 -14687202.02043 -11350813.44344  25036301.6174   25036305.9184
         6.0004          4.7504
 02 12 26  2 37  0.0000000  0  9G30G10G 5G15G24G 6G23G17G26
 -15030272.14748 -11655334.78947  21188644.1564   21188645.5164
        33.7504         28.0004
 -17902912.45248 -13839549.16647  21284725.7584   21284728.0554
        30.2504         26.5004
   2820619.52746   5710791.19146  23085155.5704   23085159.0634
        15.0004         14.5004
 -14194476.65952 -11312987.87745  25460669.5864   25460676.1844
         4.7504          5.7504
   9961157.73645  -3553778.50145  24045113.2274   24045115.4774
        10.5004         10.0004
 -21513329.98848 -14029006.52147  21329722.0864   21329723.7154
        33.7504         29.7504
 -23133853.31748 -17907964.33846  21786651.7584   21786654.3014
        28.5004         25.2504
 -19349400.70046 -14939387.16746  23257073.6484   23257076.9414
        16.2504         14.5004
 -14734862.68243 -11387951.55745  25027232.4774   25027231.9964
         5.7504          5.0004
 02 12 26  2 37 30.0000000  0  9G30G10G 5G15G24G 6G23G17G26
 -14932993.37748 -11579533.14547  21207155.7664   21207157.1484
        33.5004         28.2504
 -17816912.67948 -13772536.34047  21301091.1564   21301093.3714
        30.5004         26.5004
   2967295.14146   5825083.86746  23113068.5474   23113071.6644
        15.7504         14.5004
 -14237227.69243 -11346300.20645  25452534.2814   25452536.6374
         5.0004          6.5004
  10087285.95145  -3455496.75245  24069115.1484   24069117.9264
        10.7504          9.5004
 -21518754.53448 -14033233.40447  21328689.7344   21328691.3524
        33.7504         29.7504
 -23155587.02448 -17924899.66246  21782515.8204   21782518.5744
        28.7504         25.5004
 -19370153.50346 -14955558.11446  23253124.8754   23253127.8984
        16.5004         14.5004
 -14782589.25643 -11425141.03845  25018147.9064   25018152.5824
         5.7504          6.0004
 02 12 26  2 38  0.0000000  0  9G30G10G 5G15G24G 6G23G17G26
 -16410610.39548 -12730923.02347  20925974.4534   20925975.8834
        33.5004         28.0004
 -19305761.94648 -14932678.61347  21017772.3674   21017774.5704
        30.7504         26.5004
   1538746.75346   4711929.29746  22841224.5234   22841227.4184
        15.0004         14.7504
 -15761302.47055                  25144631.2114
         9.0004
   8637995.78045  -4584813.75145  23793323.6564   23793326.4694
         9.7504          9.5004
 -23099362.89748 -15264876.25447  21027909.9534   21027911.3594
        33.7504         29.7504
 -24752317.46148 -19169105.16546  21478668.2734   21478670.8754
        29.0004         25.5004
 -20966146.36346 -16199188.83546  22949417.3674   22949420.9064
        16.5004         14.5004
 -16405799.47643 -12689980.06145  24709261.2034   24709261.1914
         5.7504          5.7504
 02 12 26  2 38 30.0000000  0  9G30G10G 5G15G24G 6G23G17G26
 -16312293.00448 -12654312.06247  20944683.5784   20944684.9264
        33.5004         27.7504
 -19218629.09748 -14864782.86847  21034353.4454   21034355.4734
        31.0004         26.5004
   1685800.43046   4826516.58646  22869207.3834   22869211.0514
        14.7504         14.2504
 -15778307.05255                  25136530.5394
         8.7504
   8764116.73645  -4486537.66345  23817322.7034   23817324.4144
        10.0004          9.2504
 -23104314.28448 -15268734.44347  21026967.6644   21026969.1764
        34.0004         29.7504
 -24773202.80548 -19185379.42646  21474694.0944   21474696.5084
        29.5004         25.7504
 -20986539.40846 -16215079.44746  22945536.6334   22945540.0664
        16.7504         15.0004
 -16453648.11243 -12727264.64245  24700157.1484   24700158.3444
         6.7504          5.7504
 02 12 26  2 39  0.0000000  0  9G30G10G 5G15G24G 6G23G17G26
 -16213457.56248 -12577297.42747  20963491.3594   20963492.6604
        33.5004         28.0004
 -19130930.91748 -14796446.60847  21051041.6954   21051043.6994
        31.2504         26.5004
   1833040.53446   4941249.13146  22897226.3204   22897229.5904
        14.7504         13.7504
 -15778256.10855                  25128446.8674
         8.7504
   8890234.42945  -4388264.15545  23841323.6174   23841326.5474
        10.2504          9.5004
 -23109025.09448 -15272405.17447  21026071.1174   21026072.6294
        33.7504         29.7504
 -24793659.73748 -19201319.86446  21470801.1564   21470803.6994
        29.7504         25.7504
 -21006750.69846 -16230828.42846  22941690.3134   22941693.2304
        16.7504         15.0004
 -16501551.76043 -12764592.02845  24691040.7664   24691045.4774
         6.5004          7.0004
 02 12 26  2 39 30.0000000  0  9G30G10G 5G15G24G 6G23G17G26
 -16114099.70748 -12499875.72047  20982398.6804   20982399.8984
        33.5004         27.7504
 -19042663.00948 -14727666.40247  21067838.5634   21067840.7074
        31.2504         26.2504
   1980470.78646   5056129.84546  22925281.9844   22925285.2424
        15.5004         14.2504
 -15820626.88744                  25120382.0784
         7.2504
   9016355.03045  -4289988.32345  23865323.7114   23865326.6884
        10.0004          9.5004
 -23113487.06248 -15275882.00347  21025222.1804   21025223.5634
        33.7504         30.0004
 -24813680.07048 -19216920.09147  21466991.4844   21466993.8874
        30.0004         26.2504
 -21026773.54646                  22937880.7894
        17.5004
 -16549500.60244 -12801954.58745  24681916.7034   24681917.8874
         7.2504          6.5004
 02 12 26  2 40  0.0000000  0  9G30G10G 5G15G24G 6G23G17G26
 -16014227.30748 -12422053.06947  21001403.7814   21001405.0124
        33.7504         27.7504
 -18953832.85948 -14658448.08847  21084742.3754   21084744.3794
        31.0004         26.2504
   2128082.78846   5171152.18946  22953371.5314   22953374.2274
        15.0004         14.0004
 -15862901.41543 -12281484.71055  25112335.3284   25112340.9064
         6.0004          6.5004
   9142471.79445  -4191715.47745  23889320.9774   23889325.3364
         8.7504          8.7504
 -23117704.42648 -15279168.23247  21024419.5704   21024420.9534
        34.0004         30.0004
 -24833267.90548 -19232183.30947  21463264.2814   21463266.6024
        30.5004         26.2504
 -21046613.89246                  22934104.6564
        17.2504
 -16597497.58544 -12839354.69045  24672782.2194   24672782.5594
         7.5004          6.5004
 02 12 26  2 40 30.0000000  0  9G30G10G 5G15G24G 6G23G17G26
 -15913843.37948 -12343831.82547  21020506.1094   21020507.2704
        33.5004         27.7504
 -18864443.75548 -14588794.22747  21101752.5704   21101754.5864
        30.7504         26.0004
   2275872.61546   5286313.08146  22981495.4144   22981498.7774
        16.2504         14.2504
 -15905080.90243 -12314351.55744  25104308.3594   25104314.2774
         5.2504          4.5004
   9268582.75345  -4093447.21545  23913321.8364   23913324.5314
         9.5004          9.0004
 -23121676.79148 -15282263.55847  21023663.6954   21023665.1254
        34.0004         30.0004
 -24852422.64048 -19247109.05147  21459619.1094   21459621.3484
        30.7504         26.5004
 -21066272.93146 -12286196.18056  22930364.1954   22930367.0314
        17.5004         15.2504
 -16645540.82344 -12876790.79945  24663640.8054   24663644.6024
         7.2504          6.2504
 02 12 26  2 41  0.0000000  0  9G30G10G 5G15G24G 6G23G17G26
 -15812943.29948 -12265208.38347  21039706.8914   21039708.0984
        33.5004         27.7504
 -18774490.83648 -14518701.02147  21118869.9224   21118871.9964
        30.5004         26.0004
   2423844.31746   5401615.71346  23009652.8984   23009655.8404
        15.2504         14.2504
 -15947157.77444 -12347138.50345  25096303.9694   25096307.9064
         7.0004          5.7504
   9394693.94145  -3995178.72545  23937318.3594   23937321.8524
         9.2504          8.2504
 -23125395.67848 -15285161.36447  21022955.9774   21022957.2424
        34.0004         30.2504
 -24871135.77648 -19261690.68247  21456057.9224   21456060.1954
        30.7504         26.2504
 -21085743.96546 -12301368.35346  22926658.0944   22926660.9184
        17.5004         15.5004
 -16693620.52643 -12914255.48245  24654490.8754   24654492.0594
         6.7504          5.7504
 02 12 26  2 41 30.0000000  0  9G30G10G 5G15G24G 6G23G17G26
 -15711530.23448 -12186185.21547  21059005.0474   21059006.2194
        33.5004         27.5004
 -18683977.31448 -14448170.99246  21136094.0474   21136096.2274
        30.0004         25.7504
   2571993.81246   5517056.87546  23037844.8914   23037847.8444
        15.2504         13.7504
 -15989133.52643 -12379846.67245  25088313.9224   25088321.0744
         5.2504          5.0004
   9520803.63245  -3896911.47345  23961318.3594   23961319.8134
        10.0004          9.0004
 -23128860.69348 -15287861.34947  21022296.6414   21022298.0124
        34.0004         30.2504
 -24889406.85048 -19275927.84947  21452581.0084   21452583.2584
        30.5004         26.5004
 -21105028.05546 -12316394.83746  22922988.9384   22922991.9734
        17.5004         15.2504
 -16741734.62145 -12951746.82245  24645336.2194   24645337.0514
         8.0004          7.0004
 02 12 26  2 42  0.0000000  0  9G30G10G 5G15G24G 6G23G17G26
 -15609615.75548 -12106771.33447  21078398.6954   21078399.8444
        33.2504         27.5004
 -18592914.58948 -14377213.01247  21153422.6564   21153424.7544
        30.2504         26.0004
   2720308.79046   5632626.98546  23066069.4774   23066072.7114
        16.0004         14.0004
 -16031016.78444 -12412482.72745  25080347.0394   25080350.5084
         7.2504          5.7504
   9646901.37745  -3798653.46245  23985312.0864   23985314.9454
         9.0004          8.2504
 -23132079.46348 -15290369.45647  21021683.9384   21021685.2274
        34.0004         30.2504
 -24907243.51048 -19289826.51547  21449186.6484   21449188.8284
        30.7504         26.5004
 -21124135.00646 -12331283.31646  22919352.8364   22919355.5664
        17.5004         15.5004
 -16789889.62544 -12989270.16845  24636171.4534   24636171.2074
         7.5004          6.5004
 02 12 26  2 42 30.0000000  0  9G30G10G 5G15G24G 6G23G17G26
 -15507194.03048 -12026962.19647  21097889.0004   21097890.1484
        33.0004         27.2504
 -18501296.72048 -14305822.45046  21170857.0474   21170859.1564
        30.5004         25.7504
   2868794.51246   5748330.16746  23094324.3204   23094326.8054
        14.7504         13.2504
 -16072799.31043 -12445040.30945  25072391.0474   25072394.8204
         6.0004          5.5004
   9772994.54045  -3700399.02645  24009305.7194   24009308.4494
         8.7504          8.7504
 -23135042.54548 -15292678.33247  21021120.1254   21021121.5084
        34.0004         30.2504
 -24924636.24848 -19303379.26447  21445876.8754   21445879.1254
        30.7504         26.2504
 -21143056.82646 -12346027.52146  22915751.8054   22915754.6884
        17.5004         15.5004
 -16838074.60443 -13026816.86045  24627001.7814   24627004.7584
         6.7504          7.0004
 02 12 26  2 43  0.0000000  0  9G30G10G 5G15G24G 6G23G17G26
 -15404270.79148 -11946762.26847  21117474.3914   21117475.6334
        32.5004         27.0004
 -18409129.31948 -14234003.68246  21188395.9304   21188397.9454
        30.5004         25.7504
   3017444.50946   5864161.33946  23122612.3834   23122614.7624
        15.2504         13.2504
 -16114484.30443 -12477521.85745  25064459.3834   25064464.0354
         6.5004          6.2504
   9899078.72945  -3602151.61845  24033299.0784   24033302.0314
         8.7504          8.5004
 -23137751.89848 -15294789.49547  21020604.6174   21020606.0474
        34.0004         30.2504
 -24941587.07348 -19316587.66447  21442651.2664   21442653.5744
        30.7504         26.5004
 -21161796.93946 -12360630.15446  22912186.0084   22912188.7034
        17.7504         15.2504
 -16886289.87343 -13064387.10845  24617827.7584   24617832.1994
         6.5004          5.2504
 02 12 26  2 43 30.0000000  0  9G30G10G 5G15G24G 6G23G17G26
 -15300847.84748 -11866172.95847  21137154.8984   21137156.2114
        32.5004         27.0004
 -18316414.25848 -14161758.17046  21206039.1174   21206040.8754
        30.5004         25.7504
   3166256.36746   5980118.61846  23150929.5634   23150931.3794
        14.7504         13.2504
 -16156071.03444 -12509926.82845  25056547.9064   25056550.4024
         7.5004          5.5004
  10025153.29945  -3503911.69345  24057291.7504   24057294.7974
         9.2504          8.7504
 -23140205.63448 -15296701.47847  21020137.5084   21020138.8204
        34.0004         30.2504
 -24958094.01248 -19329450.18447  21439510.1414   21439512.3794
        30.5004         26.7504
 -21180354.77946 -12375090.75446  22908653.9144   22908657.1254
        17.7504         16.0004
 -16934531.96043 -13101978.28045  24608645.6024   24608649.6684
         5.0004          5.2504
 02 12 26  2 44  0.0000000  0  9G30G10G 5G15G24G 6G23G17G26
 -15196918.44248 -11785189.00847  21156932.5704   21156933.8594
        32.2504         26.7504
 -18223144.42948 -14089080.36446  21223787.7344   21223789.5394
        30.2504         25.5004
   3315236.31746   6096206.88946  23179279.1954   23179281.7734
        14.5004         13.0004
 -16197550.26245 -12542248.24445  25048655.1884   25048659.5944
         8.0004          6.2504
  10151226.64645  -3405672.73245  24081280.3674   24081282.7584
         8.7504          8.5004
 -23142393.08048 -15298405.96047  21019721.3204   21019722.7034
        34.0004         30.5004
 -24974146.54348 -19341958.61847  21436454.9924   21436457.1954
        31.0004         26.7504
 -21198721.69846 -12389402.57246  22905159.3984   22905162.3054
        18.0004         15.7504
 -16982788.83643 -13139581.05945  24599461.1954   24599464.0314
         5.5004          6.0004
 02 12 26  2 44 30.0000000  0  9G30G10G 5G15G24G 6G23G17G26
 -15092495.21248 -11703820.25547  21176803.4064   21176804.9534
        32.0004         26.7504
 -18129332.38848 -14015980.05946  21241639.3674   21241641.4414
        30.0004         25.5004
   3464371.06746   6212415.81346  23207659.0394   23207661.1254
        14.7504         13.0004
 -16238932.18945 -12574493.58845  25040780.1644   25040785.7304
         8.2504          5.0004
  10277287.55545  -3307443.44545  24105269.6884   24105273.3914
         9.2504          8.2504
 -23144323.09548 -15299909.84747  21019354.0944   21019355.5124
        34.0004         30.7504
 -24989753.64448 -19354119.95947  21433485.2114   21433487.4024
        31.2504         27.2504
 -21216907.92746 -12403573.59846  22901698.3364   22901700.9494
        18.2504         16.0004
 -17031067.96142 -13177201.08845  24590275.3444   24590282.0704
         4.7504          5.2504
 02 12 26  2 45  0.0000000  0  9G30G10G 5G15G24G 6G23G17G26
 -14987576.41148 -11622065.34347  21196768.6804   21196770.0984
        31.7504         26.7504
 -18034976.57448 -13942456.03546  21259594.7814   21259596.7274
        29.7504         25.5004
   3613661.81446   6328746.26546  23236067.7424   23236070.2504
        13.7504         13.0004
 -16280212.61743 -12606660.03045  25032921.1174   25032926.6374
         5.7504          5.5004
  10403339.06945  -3209221.48845  24129259.2504   24129262.0394
         9.5004          8.2504
 -23145990.23448 -15301208.89547  21019036.8834   21019038.4184
        34.0004         30.7504
 -25004909.79848 -19365929.91547  21430601.0944   21430603.3324
        31.2504         27.5004
 -21234910.08346 -12417601.18646  22898273.0474   22898275.7544
        18.5004         15.7504
 -17079362.11143 -13214832.84745  24581085.4844   24581090.2544
         5.0004          5.7504
 02 12 26  2 45 30.0000000  0  9G30G10G 5G15G24G 6G23G17G26
 -14882166.58648 -11539927.82047  21216827.5394   21216829.0044
        32.0004         26.7504
 -17940081.28348 -13868511.63646  21277652.6174   21277654.5044
        29.2504         25.0004
   3763103.56546   6445194.37546  23264506.4384   23264509.9304
        14.5004         12.7504
 -16321393.36743 -12638748.75445  25025084.6884   25025089.5984
         5.7504          5.5004
  10529378.51045  -3111008.91045  24153241.6094   24153242.5124
         9.2504          8.0004
 -23147394.93148 -15302303.44347  21018769.4064   21018770.8364
        34.0004         30.7504
 -25019615.75048 -19377389.06647  21427802.8364   21427805.1684
        31.5004         27.2504
 -21252730.39346 -12431487.10846  22894881.6484   22894884.3324
        18.2504         15.7504
 -17127670.62643 -13252475.71145  24571892.4774   24571898.3834
         5.5004          5.7504
 02 12 26  2 46  0.0000000  0  9G30G10G 5G15G24G 6G23G17G26
 -14776263.89748 -11457406.24547  21236980.2664   21236981.5554
        32.0004         26.7504
 -17844644.76648 -13794145.50346  21295813.5944   21295815.5164
        29.0004         25.0004
   3912697.56446   6561761.11246  23292972.4144   23292975.5204
        13.5004         12.7504
 -16362469.80343 -12670756.19945  25017266.5084   25017274.7504
         6.0004          6.0004
  10655409.20545  -3012803.16345  24177223.7734   24177227.2304
         9.0004          8.5004
 -23148531.49748 -15303189.06047  21018553.0864   21018554.4104
        34.0004         30.7504
 -25033865.84048 -19388493.00547  21425090.7974   21425093.1414
        31.5004         27.5004
 -21270364.30946 -12445227.78146  22891526.1174   22891529.0824
        18.2504         15.7504
 -17175986.18343 -13290124.09745  24562698.1724   24562701.6054
         5.7504          6.7504
 02 12 26  2 46 30.0000000  0  9G30G10G 5G15G24G 6G23G17G26
 -14669874.16348 -11374505.15247  21257225.6334   21257226.8524
        32.0004         26.5004
 -17748672.57548 -13719361.96746  21314076.6094   21314078.9414
        29.0004         24.7504
   4062437.19546   6678441.35546  23321467.4614   23321470.3674
        14.0004         13.0004
 -16403445.61344 -12702685.24045  25009471.9614   25009476.6374
         7.5004          6.5004
  10781426.44445  -2914607.90145  24201206.6094   24201209.2234
        10.5004          8.0004
 -23149401.99048 -15303867.34447  21018387.6094   21018388.9924
        34.0004         30.7504
 -25047662.36548 -19399243.51547  21422465.8754   21422468.0904
        32.0004         27.5004
 -21287815.90746 -12458826.36346  22888204.8444   22888207.4454
        18.2504         16.0004
 -17224309.21044 -13327778.32045  24553506.1644   24553508.7894
         7.2504          6.2504
 02 12 26  2 47  0.0000000  0  9G30G10G 5G15G24G 6G23G17G26
 -14562997.46748 -11291224.61447  21277563.7504   21277565.0514
        32.2504         26.5004
 -17652164.97248 -13644161.22446  21332441.3754   21332443.4494
        29.0004         24.7504
   4212322.05246   6795234.74346  23349989.0234   23349992.3524
        13.7504         13.2504
 -16444317.97245 -12734533.57045  25001699.2504   25001701.3014
         9.5004          6.2504
  10907432.47545  -2816421.39145  24225183.3674   24225185.9574
         9.0004          8.5004
 -23150002.36848 -15304335.15047  21018273.3054   21018274.6414
        34.0004         30.7504
 -25061001.41948 -19409637.55447  21419927.1724   21419929.4454
        31.7504         27.5004
 -21305082.95146 -12472281.14846  22884918.9844   22884921.9144
        18.2504         16.0004
 -17272634.24343 -13365434.13445  24544307.3984   24544309.3444
         6.2504          5.7504
 02 12 26  2 47 30.0000000  0  9G30G10G 5G15G24G 6G23G17G26
 -14455641.16348 -11207570.34947  21297992.8444   21297994.3324
        32.0004         26.2504
 -17555129.19348 -13568548.91146  21350906.6884   21350908.8444
        29.0004         25.0004
   4362344.38446   6912135.26746  23378538.1804   23378540.8634
        14.0004         13.2504
 -16485091.83344 -12766305.34545  24993935.9774   24993941.8714
         7.7504          5.7504
  11033421.31443  -2718248.24845  24249152.4384   24249157.1484
         6.2504          7.7504
 -23150336.25448 -15304595.30147  21018209.7894   21018211.0904
        34.0004         30.7504
 -25073886.70148 -19419677.99847  21417475.2274   21417477.4064
        32.0004         27.7504
 -21322170.95046 -12485596.42546  22881667.1564   22881669.5234
        18.2504         16.2504
 -17320963.26944 -13403093.03545  24535111.0474   24535115.6644
         7.2504          6.2504
 02 12 26  2 48  0.0000000  0  9G30G10G 5G15G24G 6G23G17G26
 -14347808.42648 -11123544.84047  21318512.5704   21318513.7074
        32.0004         26.0004
 -17457568.09048 -13492527.25846  21369471.7974   21369473.8244
        28.7504         24.5004
   4512500.41446   7029139.96146  23407111.5004   23407114.4064
        14.0004         13.2504
 -16525767.49145 -12798000.49745  24986195.2664   24986199.1564
         8.0004          6.0004
  11159391.34145  -2620089.81445  24273130.4144   24273131.3404
         9.0004          8.2504
 -23150402.84248 -15304647.16547  21018197.2344   21018198.5234
        34.0004         31.0004
 -25086317.50748 -19429364.30847  21415109.6484   21415111.8984
        31.7504         28.0004
 -21339080.29646 -12498772.48746  22878449.6334   22878452.4804
        18.0004         16.0004
 -17369293.96244 -13440753.15245  24525913.2424   24525915.6564
         7.5004          7.0004
 02 12 26  2 48 30.0000000  0  9G30G10G 5G15G24G 6G23G17G26
 -14239491.24648 -11039141.84847  21339124.6334   21339125.8524
        31.7504         26.0004
 -17359473.51548 -13416089.91246  21388138.5784   21388140.5704
        28.7504         24.7504
   4662797.64246   7146254.68446  23435711.9304   23435714.6254
        14.0004         12.7504
 -16566334.75744 -12829611.28045  24978476.0314   24978482.3244
         7.2504          5.7504
  11285352.43545  -2521938.32045  24297103.8364   24297105.7584
        10.5004          8.0004
 -23150190.17248 -15304481.42947  21018237.6174   21018238.9184
        34.0004         31.2504
 -25098282.21548 -19438687.43247  21412832.8984   21412835.1374
        32.2504         28.0004
 -21355800.93046 -12511801.51246  22875267.2734   22875270.0984
        18.2504         16.0004
 -17417612.96945 -13478404.36145  24516719.9534   24516721.6174
         8.2504          7.2504
 02 12 26  2 49  0.0000000  0  9G30G10G 5G15G24G 6G23G17G26
 -14130692.75548 -10954363.80746  21359828.4694   21359829.5824
        31.7504         25.7504
 -17260848.38248 -13339239.14946  21406906.3834   21406908.2704
        28.5004         24.5004
   4813232.51146   7263476.65746  23464339.2974   23464342.5204
        14.0004         12.7504
 -16606793.52843 -12861137.45345  24970772.4304   24970776.3324
         6.5004          6.2504
  11411303.08645  -2423794.94145  24321068.5784   24321072.0124
         9.2504          7.7504
 -23149697.30148 -15304097.35447  21018331.3674   21018332.5044
        34.0004         31.0004
 -25109780.21848 -19447646.88347  21410644.9694   21410647.3484
        32.2504         28.2504
 -21372333.73946 -12524684.16046  22872121.4224   22872124.5274
        18.5004         16.5004
 -17465917.76544 -13516044.44245  24507526.5864   24507530.0554
         7.0004          7.0004
 02 12 26  2 49 30.0000000  0  9G30G10G 5G15G24G 6G23G17G26
 -14021424.61248 -10869219.80247  21380621.4224   21380622.7584
        31.7504         26.0004
 -17161704.35748 -13261984.05546  21425772.7734   21425774.9184
        28.5004         24.5004
   4963793.06846   7380796.57346  23492989.2114   23492992.0354
        13.2504         12.5004
 -16647152.97443 -12892586.25545  24963094.3134   24963101.8634
         6.7504          6.5004
  11537233.14545  -2325667.61645  24345029.2974   24345034.2774
         8.2504          8.0004
 -23148931.81548 -15303500.85547  21018476.9924   21018478.3164
        34.0004         31.2504
 -25120819.34148 -19456248.77047  21408544.1254   21408546.4344
        32.5004         28.5004
 -21388687.67546 -12537427.44746  22869009.1884   22869011.9414
        18.5004         16.2504
 -17514214.37344 -13553678.10545  24498334.5634   24498336.5784
         7.0004          6.2504
 02 12 26  2 50  0.0000000  0  9G30G10G 5G15G24G 6G23G17G26
 -13911687.14348 -10783710.08546  21401503.9534   21401505.3244
        31.7504         25.7504
 -17062041.99948 -13184325.05846  21444737.9224   21444739.7734
        28.7504         24.5004
   5114478.47246   7498213.78346  23521663.9694   23521666.6994
        13.2504         12.2504
 -16687410.79144 -12923955.86745  24955434.3054   24955436.6254
         7.5004          6.2504
  11663144.27945  -2227555.10045  24368991.0004   24368995.1604
         8.2504          8.2504
 -23147890.04748 -15302689.06747  21018675.1804   21018676.4224
        34.0004         31.2504
 -25131396.21048 -19464490.45347  21406531.3754   21406533.6724
        32.5004         28.7504
 -21404861.29346 -12550030.20646  22865931.6024   22865934.1214
        18.5004         16.7504
 -17562497.64244 -13591301.43745  24489146.8444   24489150.6994
         7.2504          6.5004
 02 12 26  2 50 30.0000000  0  9G30G10G 5G15G24G 6G23G17G26
 -13801479.37648 -10697833.90847  21422475.8204   21422477.1094
        31.7504         26.0004
 -16961860.04148 -13106261.18046  21463802.1024   21463803.7894
        28.7504         24.2504
   5265289.39646   7615728.78446  23550361.4614   23550363.4184
        12.5004         12.0004
 -16727563.29643 -12955243.47445  24947789.4384   24947792.2034
         6.5004          6.2504
  11789039.01845  -2129455.28445  24392947.6174   24392952.8794
         8.7504          7.5004
 -23146567.10048 -15301658.18447  21018926.9534   21018928.1254
        34.0004         31.2504
 -25141506.11348 -19472368.27647  21404607.7424   21404609.9454
        33.0004         28.2504
 -21420851.38546 -12562489.98546  22862888.7344   22862891.5124
        18.7504         16.5004
 -17610761.02645 -13628909.23145  24479964.7814   24479967.0554
         8.2504          7.2504
 02 12 26  2 51  0.0000000  0  9G30G10G 5G15G24G 6G23G17G26
 -13690797.45148 -10611588.25246  21443537.9224   21443539.2584
        31.7504         25.7504
 -16861154.77148 -13027789.52346  21482965.6724   21482967.2664
        29.0004         24.0004
   5416229.31145   7733344.30845  23579083.7504   23579086.7034
        11.5004         11.5004
 -16767603.97543 -12986443.93445  24940170.9614   24940173.4454
         6.5004          6.2504
  11914923.01745  -2031363.88345  24416900.1334   24416901.6804
         8.2504          7.7504
 -23144954.93648 -15300401.92947  21019233.8364   21019235.1484
        34.0004         31.2504
 -25151141.40448 -19479876.26447  21402773.9384   21402776.0944
        32.5004         28.5004
 -21436651.59846 -12574801.78846  22859882.2894   22859884.8444
        19.0004         16.7504
 -17658994.75245 -13666494.03745  24470786.8364   24470789.0984
         9.0004          7.2504
 02 12 26  2 51 30.0000000  0  9G30G10G 5G15G24G 6G23G17G26
 -13579648.67448 -10524978.81546  21464688.8674   21464690.0744
        31.5004         25.7504
 -16759933.25648 -12948915.60146  21502227.3444   21502228.9614
        28.7504         24.0004
   5567290.63846   7851054.43045  23607830.3204   23607832.5354
        12.0004         11.5004
 -16807537.48844 -13017560.80045  24932572.5314   24932577.2894
         7.5004          7.2504
  12040791.14045  -1933284.85945  24440854.9304   24440856.6764
         9.2504          8.0004
 -23143056.67748 -15298922.75347  21019594.7664   21019596.1254
        34.0004         31.2504
 -25160305.72948 -19487017.26647  21401030.1564   21401032.2424
        32.7504         28.5004
 -21452266.67846 -12586969.33646  22856910.5784   22856913.3554
        19.2504         16.7504
 -17707200.56645 -13704057.00345  24461613.7114   24461614.4144
         8.2504          7.5004
 02 12 26  2 52  0.0000000  0  9G30G10G 5G15G24G 6G23G17G26
 -13468042.86948 -10438013.25246  21485926.4534   21485927.8134
        31.5004         25.5004
 -16658205.32948 -12869647.06946  21521585.6884   21521587.3634
        28.7504         24.0004
   5718463.01046   7968851.06745  23636598.1564   23636600.8634
        12.5004         11.0004
 -16847370.86245 -13048599.70245  24924996.7894   24924999.5784
         8.7504          5.5004
  12166634.97445  -1835224.74645  24464800.7664   24464803.0164
         8.2504          8.7504
 -23140878.27948 -15297225.28347  21020009.2814   21020010.6524
        34.0004         31.2504
 -25169005.25848 -19493796.09247  21399374.6884   21399376.8794
        32.5004         28.2504
 -21467704.30646 -12598998.59646  22853973.0704   22853975.2974
        19.5004         16.7504
 -17755382.91043 -13741601.59445  24452440.8984   24452440.2304
         6.0004          6.7504
 02 12 26  2 52 30.0000000  0  9G30G10G 5G15G24G 6G23G17G26
 -13355977.85648 -10350689.86346  21507251.8444   21507253.0984
        31.2504         25.5004
 -16555968.47648 -12789981.97446  21541040.5164   21541042.1914
        28.7504         23.7504
   5869748.47945   8086735.87945  23665386.0784   23665389.3134
        11.7504         11.2504
 -16887099.18144 -13079556.69245  24917432.0084   24917435.5124
         7.2504          6.5004
  12292458.87145  -1737180.14245  24488746.6484   24488748.3244
         9.2504          8.0004
 -23138413.30848 -15295304.51247  21020478.3134   21020479.6844
        34.0004         31.2504
 -25177233.89048 -19500207.98647  21397808.7274   21397810.7304
        33.0004         28.5004
 -21482960.19446 -12610886.24946  22851069.6804   22851072.6454
        19.5004         16.7504
 -17803533.56543 -13779121.48445  24443277.3594   24443283.9454
         6.0004          6.2504
 02 12 26  2 53  0.0000000  0  9G30G10G 5G15G24G 6G23G17G26
 -13243450.26248 -10263006.02546  21528665.0314   21528666.0634
        30.7504         25.2504
 -16453219.45048 -12709917.78046  21560593.0474   21560594.6764
        28.5004         23.7504
   6021149.81945   8204710.94945  23694196.0474   23694198.9774
        11.2504         11.5004
 -16926716.50745 -13110427.19845  24909895.4774   24909901.2194
         8.0004          7.0004
  12418267.81045  -1639147.24445  24512687.1884   24512688.4654
        10.2504          8.2504
 -23135654.45648 -15293154.73647  21021003.3594   21021004.7544
        34.0004         31.0004
 -25184984.66548 -19506247.52347  21396333.7664   21396335.7464
        33.2504         28.5004
 -21498028.28346 -12622627.56946  22848202.1094   22848204.6054
        19.7504         16.7504
 -17851643.57343 -13816609.73745  24434123.8914   24434128.7894
         6.5004          7.2504
 02 12 26  2 53 30.0000000  0  9G30G10G 5G15G24G 6G23G17G26
 -13130460.66148 -10174962.19046  21550166.3524   21550167.6414
        30.5004         25.0004
 -16349958.73748 -12629454.87246  21580242.9064   21580244.4304
        28.2504         23.7504
   6172666.44446   8322775.85545  23723029.5704   23723032.3594
        12.0004         11.2504
 -16966220.27345 -13141209.16845  24902377.9694   24902384.0044
         8.2504          6.7504
  12544063.23644  -1541124.78545  24536621.9534   24536625.0124
         7.7504          8.0004
 -23132597.87248 -15290772.96447  21021585.0864   21021586.3284
        34.0004         31.2504
 -25192254.26848 -19511912.12347  21394950.6804   21394952.7664
        33.7504         28.7504
 -21512906.19647 -12634220.68246  22845371.0234   22845373.4024
        20.0004         17.0004
 -17899707.78043 -13854062.29245  24424977.8444   24424980.1644
         6.5004          7.5004
 02 12 26  2 54  0.0000000  0  9G30G10G 5G15G24G 6G23G17G26
 -13017017.32648 -10086564.79046  21571753.7424   21571754.8914
        30.2504         24.7504
 -16246194.41348 -12548599.53946  21599988.1564   21599990.0314
        28.0004         23.7504
   6324289.63146   8440923.78745  23751883.3834   23751886.1134
        12.5004         11.2504
 -17005616.12345 -13171907.05845  24894882.3914   24894885.8714
         8.7504          7.5004
  12669838.73145  -1443117.92145  24560557.9844   24560560.4694
         8.7504          8.0004
 -23129247.75648 -15288162.47047  21022222.5474   21022223.8014
        34.0004         31.2504
 -25199047.43548 -19517205.47147  21393657.8054   21393659.7504
        33.7504         29.0004
 -21527600.79347 -12645670.96546  22842575.1094   22842577.3954
        20.2504         17.2504
 -17947728.69044 -13891481.05645  24415841.4614   24415843.6644
         7.0004          7.2504
 02 12 26  2 54 30.0000000  0  9G30G10G 5G15G24G 6G23G17G26
 -12903121.85348  -9997815.08646  21593427.4454   21593428.7234
        30.2504         24.7504
 -16141927.94247 -12467352.92246  21619829.7424   21619831.5944
        27.7504         23.5004
   6476017.59946   8559153.39745  23780756.1484   23780758.6804
        12.5004         11.5004
 -17044903.22344 -13202520.23845  24887403.3834   24887409.2304
         7.7504          7.0004
  12795594.84045  -1345126.18145  24584491.0164   24584492.8444
         9.2504          8.0004
 -23125601.65248 -15285321.33747  21022916.3444   21022917.6804
        34.0004         31.2504
 -25205361.93848 -19522125.83747  21392456.0634   21392457.9844
        33.7504         29.0004
 -21542111.18147 -12656977.70446  22839813.6644   22839816.0784
        20.2504         17.0004
 -17995702.05644 -13928862.80045  24406712.7274   24406716.1374
         7.0004          6.5004
 02 12 26  2 55  0.0000000  0  9G30G10G 5G15G24G 6G23G17G26
 -14364195.20648 -11136313.81146  21315394.4064   21315395.6604
        30.0004         24.7504
 -17612580.90047 -13613316.25146  21339973.7034   21339975.5664
        27.5004         23.2504
   5052430.17946   7449864.50445  23509856.1334   23509857.8324
        12.5004         11.2504
 -18659504.70645 -14460651.13745  24580157.8204   24580162.3324
         8.2504          7.0004
  11345912.61245  -2474748.71845  24308625.1564   24308626.0824
         9.7504          8.2504
 -24697079.95648 -16509849.87147  20723873.9144   20723875.2034
        34.0004         31.2504
 -26786619.14348 -20754274.28347  21091552.7894   21091554.8164
        33.7504         29.0004
 -23131859.90647 -13895742.91646  22537294.5864   22537296.9654
        20.2504         17.2504
 -19619048.67243 -15193808.04545  24097798.0784   24097802.1334
         6.2504          6.2504
 02 12 26  2 55 30.0000000  0  9G30G10G 5G15G24G 6G23G17G26
 -14249406.72948 -11046868.25446  21337238.0634   21337239.3524
        30.0004         24.7504
 -17507321.46447 -13531295.89746  21360003.9844   21360005.8134
        27.2504         23.2504
   5204355.64446   7568247.96745  23538766.5554   23538769.5784
        12.2504         11.7504
 -18698577.04744 -14491097.01845  24572716.8134   24572722.5084
         7.5004          7.2504
  11471624.23745  -2376791.62545  24332547.6024   24332549.9104
        10.0004          8.2504
 -24692840.29548 -16506546.22447  20724680.6094   20724681.9224
        34.0004         31.5004
 -26791976.50948 -20758448.82647  21090533.2504   21090535.3484
        33.5004         29.2504
 -23146005.43547 -13906765.35646  22534602.4224   22534605.0234
        20.0004         17.2504
 -19666920.98643 -15231111.01745  24088688.1644   24088693.3914
         6.5004          6.2504
 02 12 26  2 56  0.0000000  0  9G30G10G 5G15G24G 6G23G17G26
 -14134173.61148 -10957076.21746  21359166.1954   21359167.4264
        30.0004         24.5004
 -17401566.93047 -13448889.75146  21380128.2894   21380130.4574
        27.0004         23.2504
   5356377.76246   7686706.75945  23567695.2734   23567697.7584
        12.2504         11.5004
 -18737539.43244 -14521457.18845  24565305.5784   24565309.5514
         7.2504          6.5004
  11597315.09145  -2278850.70045  24356464.9144   24356466.5314
         9.2504          7.5004
 -24688299.44648 -16503007.88647  20725544.8674   20725546.1214
        34.0004         31.5004
 -26796851.59348 -20762247.56747  21089605.4694   21089607.5664
        33.5004         29.2504
 -23159966.72846 -13917644.24346  22531945.3914   22531948.0164
        19.7504         17.2504
 -19714735.84944 -15268369.24345  24079589.0784   24079593.5664
         7.0004          5.5004
 02 12 26  2 56 30.0000000  0  9G30G10G 5G15G24G 6G23G17G26
 -14018499.69848 -10866940.70146  21381178.1414   21381179.4064
        30.2504         24.2504
 -17295321.37647 -13366100.99946  21400346.1024   21400348.2114
        27.0004         23.0004
   5508492.35045   7805237.61445  23596642.0944   23596644.2274
        11.7504         11.2504
 -18776392.73544 -14551732.29545  24557911.5314   24557917.7894
         7.5004          7.2504
  11722982.99846  -2180927.67345  24380383.4614   24380385.8164
        12.2504          8.0004
 -24683456.88948 -16499234.44347  20726466.3054   20726467.5124
        34.0004         31.7504
 -26801244.53048 -20765670.60847  21088769.7424   21088771.9454
        33.5004         29.2504
 -23173745.00646 -13928380.50646  22529323.8984   22529326.7814
        19.7504         17.5004
 -19762491.14943 -15305581.03045  24070500.9694   24070502.5514
         6.5004          7.0004
 02 12 26  2 57  0.0000000  0 10G30G10G 5G15G24G 6G23G17G26G18
 -13902389.63748 -10776465.32946  21403273.3984   21403274.5594
        29.7504         24.2504
 -17188589.21847 -13282933.06846  21420656.7114   21420658.8914
        26.7504         23.0004
   5660694.64045   7923836.80945  23625604.7814   23625606.7974
        11.2504         11.2504
 -18815138.93444 -14581924.01745  24550538.7894   24550544.6374
         7.7504          7.5004
  11848625.71745  -2083024.27845  24404288.2344   24404292.0204
         9.7504          7.5004
 -24678313.16148 -16495226.32847  20727445.1334   20727446.3524
        34.0004         31.7504
 -26805156.18748 -20768718.62547  21088025.1484   21088027.3404
        33.2504         29.5004
 -23187342.74547 -13938976.09046  22526736.1724   22526738.8204
        20.0004         17.5004
 -19810185.71445 -15342745.51545  24061428.5784   24061431.2274
         8.7504          6.7504
 -17366518.61253                  25281833.8914
         6.0004
 02 12 26  2 57 30.0000000  0 10G30G10G 5G15G24G 6G23G17G26G18
 -13785842.67748 -10685649.52646  21425451.6334   21425452.5704
        30.0004         24.2504
 -17081369.51447 -13199385.23346  21441059.9694   21441061.7854
        26.7504         22.7504
   5812985.00445   8042504.60445  23654584.6414   23654586.9734
        10.7504         10.2504
 -18853774.30245 -14612029.37845  24543186.3284   24543189.2704
         8.0004          7.0004
  11974245.50344  -1985138.77845  24428192.0164   24428195.0984
         7.7504          7.2504
 -24672863.37148 -16490979.72347  20728482.2034   20728483.4454
        34.0004         31.7504
 -26808582.23948 -20771388.24847  21087373.2584   21087375.4844
        33.7504         29.5004
 -23200756.72047 -13949428.48446  22524183.5864   22524185.7544
        20.0004         17.7504
 -19857812.86345 -15379857.48145  24052364.6884   24052365.3794
         9.5004          7.0004
 -17431620.06344                  25269448.5394
         7.5004
 02 12 26  2 58  0.0000000  0 10G30G10G 5G15G24G 6G23G17G26G18
 -13668862.32148 -10594496.00746  21447712.1954   21447713.3914
        29.5004         24.0004
 -16973665.74747 -13115460.20846  21461555.2344   21461557.2154
        26.7504         22.5004
   5965360.23545   8161238.55445  23683580.9304   23683583.9774
        10.5004         10.0004
 -18892299.79845 -14642049.14145  24535856.3914   24535860.9494
         8.2504          7.2504
  12099841.23845  -1887271.93645  24452093.8594   24452096.1454
         9.2504          8.0004
 -24667106.58548 -16486493.90147  20729577.6644   20729578.9064
        34.0004         31.7504
 -26811522.55948 -20773679.38147  21086813.6024   21086815.7584
        33.7504         29.7504
 -23213988.17347 -13959738.65646  22521665.7664   22521668.4844
        20.2504         18.0004
 -19905370.22545 -15416915.11145  24043315.2114   24043315.3054
         9.2504          7.2504
 -17496701.44344                  25257070.0314
         7.5004
 02 12 26  2 58 30.0000000  0  9G30G10G 5G15G24G 6G23G17G26
 -13551449.38148 -10503005.41246  21470054.8834   21470056.1724
        29.0004         23.7504
 -16865478.84047 -13031158.71746  21482142.5864   21482144.3324
        26.7504         22.5004
   6117819.09645   8280037.66445  23712593.4844   23712596.3324
        10.5004         10.5004
 -18930713.54845 -14671981.78645  24528546.0004   24528549.7154
         8.2504          7.0004
  12225414.28443  -1789422.80245  24475981.8914   24475984.3754
         6.2504          7.0004
 -24661039.57248 -16481766.33947  20730732.1024   20730733.3444
        34.0004         31.7504
 -26813974.24248 -20775589.75647  21086347.2424   21086349.1884
        33.7504         30.0004
 -23227034.92947 -13969904.92946  22519183.2034   22519185.6884
        20.5004         18.0004
 -19952852.74845 -15453914.43245  24034279.6334   24034279.3984
         9.5004          8.0004
 02 12 26  2 59  0.0000000  0 10G30G10G 5G15G24G 6G23G17G26G18
 -13433604.99848 -10411178.62946  21492479.8364   21492481.2304
        28.7504         24.0004
 -16756809.73247 -12946481.47746  21502821.7584   21502823.5744
        27.0004         22.7504
   6270360.29045   8398900.91345  23741621.1254   23741623.6804
        10.5004         10.2504
 -18969013.53644 -14701825.81645  24521256.2814   24521260.3364
         7.7504          7.0004
  12350965.62243  -1691590.61745  24499875.0084   24499880.6214
         6.7504          7.2504
 -24654659.01948 -16476794.46447  20731946.3204   20731947.6094
        34.0004         31.5004
 -26815934.84448 -20777117.47247  21085974.2194   21085976.1884
        34.0004         30.0004
 -23239895.81247 -13979926.35246  22516735.5474   22516738.0314
        20.5004         18.2504
 -20000255.31045 -15490851.44845  24025259.8754   24025261.9844
        10.5004          7.5004
 -17366465.76053                  25232303.5554
         5.0004
